time,x,y,z,yaw,platform,trajectory,controller,feedforward,traj_time,comp_time,vx,vy,vz,roll,pitch,f,p,q,r,x_ref,y_ref,z_ref,yaw_ref,vx_ref,vy_ref,vz_ref,roll_ref,pitch_ref,f_ref,u_ff_df,u_ff_dphi,u_ff_dpsi,u_ff_dth,throttle,p_cmd,q_cmd,r_cmd
10.003205299377441,-0.0075470093,0.04250286,-2.6484098,0.009939175974698266,SIM,figure_eight,contraction,1.0,9.5367431640625e-07,0.0002644062042236328,0.00699969,-0.013405516,-0.18449827,-0.008612070901742293,-0.0017169134432535316,9.811351697295905,-0.0004404959,-0.0051340465,-0.026665673,1.1984225e-06,1.1984225e-06,-3.0,0.0,1.2566371,1.2566371,0.0,-1.9291265e-07,4.8228163e-08,9.81,4.0674223e-07,-0.20228358,0.0,0.050570894,0.7380054147796725,1.6397778987884521,-1.767591118812561,-0.018880825489759445
10.106820344924927,-0.008917902,0.043256532,-2.6623337,0.007855558488571555,nan,nan,nan,nan,0.10462331771850586,0.00067901611328125,0.0065346896,-0.014989842,-0.18691409,-0.002928525894272116,-0.011082544758062918,9.813054032176732,0.37915984,-0.60042787,-0.017424796,0.13137887,0.13109511,-3.0,0.0,1.2539229,1.245792,0.0,-0.02109953,0.005285859,9.812322,0.044121582,-0.20044857,0.0,0.050426666,0.7380703039263863,1.8696095943450928,-2.119760036468506,0.00292050838470459
10.204215288162231,-0.009335855,0.04427446,-2.6846123,0.003000435722676928,nan,nan,nan,nan,0.20131945610046387,0.00031256675720214844,0.057780568,0.019828279,-0.25431025,0.08210641925656458,-0.12340985559860229,9.633481027930973,1.4563205,-1.8619697,0.010148783,0.2523114,0.25029555,-3.0,0.0,1.2465972,1.2166376,0.0,-0.04026883,0.010145197,9.818465,0.082333826,-0.19552737,0.0,0.050041113,0.7311940820105488,1.3780412673950195,-1.4209431409835815,0.12861047685146332
10.300961256027222,0.0040660976,0.054775387,-2.7116842,-0.0212764933218602,nan,nan,nan,nan,0.2977910041809082,0.00027298927307128906,0.26910463,0.18996802,-0.24233416,0.24278705515617882,-0.2843971023327092,9.622226734682917,1.2751492,-1.1000828,0.035650328,0.37203553,0.36554217,-3.0,0.0,1.2347043,1.1696713,0.0,-0.05877434,0.014944873,9.828067,0.11577025,-0.18763483,0.0,0.049426388,0.7307610063019262,0.1416429579257965,-0.023112703114748,0.3722325563430786
10.40100622177124,0.046069484,0.08797009,-2.732815,-0.023742232607292996,nan,nan,nan,nan,0.3978395462036133,0.00023412704467773438,0.561051,0.46018803,-0.17855884,0.309105859393498,-0.319521130235507,9.744441166445615,0.018929683,0.36723763,0.09951137,0.4947497,0.4793728,-3.0,0.0,1.2175807,1.102839,0.0,-0.077013046,0.019848606,9.841103,0.14350212,-0.17647552,0.0,0.04856444,0.7354504629365933,-0.9264526963233948,0.846281886100769,0.2864181399345398
10.501404047012329,0.1321709,0.1584382,-2.7477782,0.013343116976146402,nan,nan,nan,nan,0.4984760284423828,0.00036406517028808594,0.8534848,0.75715125,-0.1213563,0.23737117069651034,-0.24756629126522545,9.848102992698552,-1.0763134,0.9941591,0.16930653,0.61621237,0.58623487,-3.0,0.0,1.1955042,1.0180534,0.0,-0.094088845,0.024683556,9.856586,0.16264106,-0.16243176,0.0,0.04749054,0.7394050421597019,-1.286806583404541,0.8856533169746399,-0.04417240619659424
10.600887775421143,0.24200891,0.24805884,-2.7580469,0.03624016086928287,nan,nan,nan,nan,0.597724437713623,0.0003352165222167969,1.0539001,0.92852575,-0.117713094,0.10629222840473584,-0.163114748299527,9.866742167100313,-1.3251402,0.8000915,0.1695297,0.73358965,0.68245983,-3.0,0.0,1.1690518,0.91850513,0.0,-0.10941825,0.029336907,9.873268,0.17185825,-0.14609064,0.0,0.046254046,0.7401138938140155,-0.9313612580299377,0.5399312973022461,-0.14859548211097717
10.701364278793335,0.3727216,0.34507516,-2.7693567,0.026170947328980308,nan,nan,nan,nan,0.6983106136322021,0.0002617835998535156,1.2053353,0.9552552,-0.13884792,-0.014905835563361301,-0.10710866875868441,9.831638487949967,-1.005283,0.52416563,0.11391864,0.8496372,0.7691583,-3.0,0.0,1.1376065,0.80306435,0.0,-0.12318615,0.033919863,9.890595,0.17096469,-0.12731925,0.0,0.044847276,0.7387783354604386,-0.4143241345882416,0.42787793278694153,-0.017595291137695312
10.801072120666504,0.5171908,0.43362105,-2.783141,-0.005013353764631412,nan,nan,nan,nan,0.7979893684387207,0.00035834312438964844,1.3190199,0.8706087,-0.15916461,-0.08842354057392673,-0.06691595190160071,9.785018288865684,-0.4854516,0.47468242,0.060780905,0.9612925,0.84297144,-3.0,0.0,1.1019634,0.67601836,0.0,-0.13487116,0.038315255,9.907176,0.16010146,-0.10685265,0.0,0.043324154,0.7370009269484313,-0.067582868039608,0.4572506248950958,0.12060286104679108
10.901036262512207,0.6808215,0.5096075,-2.8002522,-0.04461294846295743,nan,nan,nan,nan,0.897911787033081,0.00025582313537597656,1.3844881,0.7214499,-0.17535366,-0.11612637196067455,-0.018143362571602317,9.73933612681925,-0.08563756,0.48519716,0.04516838,1.0694371,0.90370667,-3.0,0.0,1.0618963,0.5380319,0.0,-0.14445828,0.042563397,9.922243,0.14003633,-0.08481333,0.0,0.04168774,0.7352551694023777,0.046262502670288086,0.39789021015167236,0.22289328277111053
11.001819610595703,0.8303684,0.5594935,-2.8177054,-0.07496111826294574,nan,nan,nan,nan,0.9989285469055176,0.00039315223693847656,1.3799314,0.5780517,-0.18631725,-0.116098217727762,0.028334640998008975,9.704944196715948,0.03488532,0.4031629,0.06777058,1.1744809,0.9506396,-3.0,0.0,1.0171378,0.38993102,0.0,-0.15184854,0.046686858,9.935022,0.111781314,-0.061331827,0.0,0.03993604,0.7339381684028847,-0.0300978422164917,0.2437019646167755,0.2914499342441559
11.101270914077759,0.9818263,0.59540206,-2.8383586,-0.092094702085829,nan,nan,nan,nan,1.0982012748718262,0.0003800392150878906,1.3115281,0.439167,-0.19468106,-0.11234135719366313,0.06619526810686671,9.672310698702926,-0.017552992,0.21472992,0.119108625,1.2731055,0.9818612,-3.0,0.0,0.9691602,0.23825984,0.0,-0.1567556,0.05056232,9.944483,0.077999555,-0.037418466,0.0,0.03812682,0.7326863452531781,-0.12931160628795624,0.06993824243545532,0.3380410671234131
11.20363473892212,1.1061482,0.61573744,-2.8586059,-0.09171429056411638,nan,nan,nan,nan,1.2007908821105957,0.00039505958557128906,1.2109848,0.32332733,-0.19799697,-0.11561971458740221,0.08344499288140028,9.646528265848747,-0.1124772,0.041203536,0.18081395,1.3698186,0.99808866,-3.0,0.0,0.9156214,0.07765839,0.0,-0.1593031,0.054374017,9.950513,0.039069626,-0.012186273,0.0,0.036167122,0.7316958353935091,-0.1990480124950409,-0.04851255565881729,0.3435106873512268
11.301116228103638,1.2051101,0.62544036,-2.8777795,-0.07923729647385104,nan,nan,nan,nan,1.2980196475982666,0.0003299713134765625,1.105819,0.21746626,-0.1976267,-0.12571291799343917,0.08656991310913842,9.62222954653203,-0.17901999,-0.06381804,0.22968484,1.4562325,0.9981799,-3.0,0.0,0.8613664,-0.07578363,0.0,-0.1593174,0.057796616,9.952448,0.00068932696,0.011892028,0.0,0.034220997,0.7307611145361261,-0.20637691020965576,-0.11045083403587341,0.3114864230155945
11.413599967956543,1.2971578,0.62528443,-2.898852,-0.057095698727827764,nan,nan,nan,nan,1.4107637405395508,0.00029921531677246094,0.9914646,0.09207804,-0.1944997,-0.1399203896259685,0.08154986703478317,9.594513828083867,-0.18462642,-0.12955974,0.26838675,1.5496131,0.9796629,-3.0,0.0,0.79444396,-0.25214472,0.0,-0.15641035,0.061522145,9.950057,-0.04262384,0.039603386,0.0,0.03184445,0.72969350687752,-0.18248121440410614,-0.13458432257175446,0.24811768531799316
11.50125765800476,1.3806217,0.6124528,-2.920698,-0.028508513135936976,nan,nan,nan,nan,1.4982383251190186,0.0002834796905517578,0.87834316,-0.0576709,-0.187948,-0.15331100019952223,0.07204266691682171,9.568828007206314,-0.13009655,-0.14468692,0.28203994,1.6167318,0.9517383,-3.0,0.0,0.7397576,-0.38567552,0.0,-0.15202133,0.06422338,9.944962,-0.073296666,0.060659267,0.0,0.02990075,0.7287027131559474,-0.041079916059970856,-0.11517325788736343,0.13850022852420807
11.60134744644165,1.4453171,0.586981,-2.9391665,-0.0026071376504345073,nan,nan,nan,nan,1.5982956886291504,0.00031495094299316406,0.7876238,-0.20548443,-0.17827395,-0.15913356760458208,0.06361026361987099,9.542675316259256,-0.040866245,-0.12611376,0.26410225,1.6875074,0.9057368,-3.0,0.0,0.67447555,-0.5326137,0.0,-0.1447783,0.067099065,9.936078,-0.103217445,0.083951406,0.0,0.027557053,0.7276925433571152,0.03486265614628792,-0.08628321439027786,0.04501769691705704
11.701106071472168,1.5054806,0.5429909,-2.9577966,0.020877552642737385,nan,nan,nan,nan,1.6980063915252686,0.0003407001495361328,0.70299184,-0.367973,-0.16661397,-0.15695750852371956,0.056779631924409824,9.520708275958883,0.052240133,-0.08956056,0.21880199,1.7514051,0.8456676,-3.0,0.0,0.6067684,-0.6706797,0.0,-0.13529727,0.06972454,9.924592,-0.12582034,0.10599653,0.0,0.025080431,0.7268429777012795,0.11632409691810608,-0.05040062591433525,-0.04571633040904999
11.801783323287964,1.554502,0.48746997,-2.9740372,0.036495551917918256,nan,nan,nan,nan,1.7988641262054443,0.0003986358642578125,0.6348572,-0.5125345,-0.15529557,-0.14827901725711276,0.05300004303879402,9.498823579177246,0.11417267,-0.053139158,0.15745293,1.8090459,0.7714222,-3.0,0.0,0.5358613,-0.79962796,0.0,-0.12354506,0.07212129,9.911112,-0.13995796,0.12676314,0.0,0.022420537,0.725995621492252,0.15380731225013733,-0.015081081539392471,-0.10813486576080322
11.90138053894043,1.6020447,0.41195115,-2.990375,0.046150618664738983,nan,nan,nan,nan,1.898277997970581,0.0002722740173339844,0.56811017,-0.65700907,-0.14304163,-0.13399991747787557,0.05189217511883615,9.473320009484874,0.16214597,-0.012081896,0.080781475,1.8587554,0.6861229,-3.0,0.0,0.4638628,-0.91418546,0.0,-0.11000084,0.0742133,9.896894,-0.14446567,0.14538492,0.0,0.019639714,0.7250069131675115,0.2047310471534729,0.00961233489215374,-0.15159064531326294
12.002200841903687,1.6386174,0.33717766,-3.0032115,0.04680588513829318,nan,nan,nan,nan,1.999370813369751,0.0003674030303955078,0.51267046,-0.7648353,-0.13213575,-0.11867063354672575,0.052970052023969094,9.448696771934616,0.19286807,0.01669208,0.018422477,1.9018686,0.5884246,-3.0,0.0,0.3887946,-1.0160565,0.0,-0.09443822,0.07604897,9.882473,-0.13920145,0.16210245,0.0,0.016649827,0.7240510695221323,0.2048209011554718,0.03354114294052124,-0.15853384137153625
12.101120948791504,1.6775969,0.23844865,-3.017155,0.03830745395727124,nan,nan,nan,nan,2.098010301589966,0.00028824806213378906,0.44460642,-0.8701242,-0.119086914,-0.09676380844266526,0.05582278380957795,9.432501593902693,0.22078486,0.036305185,-0.04576451,1.936543,0.48394307,-3.0,0.0,0.31403425,-1.0996825,0.0,-0.07774434,0.07754118,9.869378,-0.12486204,0.17595048,0.0,0.013582498,0.7234217136176302,0.2191449999809265,0.03356008231639862,-0.12910449504852295
12.20104432106018,1.7088225,0.13985151,-3.0286953,0.024817499414282174,nan,nan,nan,nan,2.1979498863220215,0.0003368854522705078,0.37894648,-0.9446306,-0.107486375,-0.07496052489050078,0.05884434357487778,9.414820431694372,0.24758664,0.031590685,-0.08546602,1.9640901,0.3705186,-3.0,0.0,0.23706011,-1.167196,0.0,-0.059572596,0.07873763,9.857975,-0.10203579,0.18722005,0.0,0.010339763,0.7227339940954831,0.20790652930736542,0.03747493401169777,-0.07929930090904236
12.301890850067139,1.7371289,0.027905632,-3.0397966,0.007772656213037538,nan,nan,nan,nan,2.299043893814087,0.00038361549377441406,0.30588245,-0.99820536,-0.094122455,-0.04969610400782794,0.06180026869399158,9.404283958040164,0.24950027,0.034333825,-0.10412003,1.9840785,0.24985337,-3.0,0.0,0.15824728,-1.2167813,0.0,-0.040197767,0.07961221,9.849128,-0.07200478,0.19555157,0.0,0.0069464664,0.722323864462887,0.1840389370918274,0.03688718378543854,-0.013749778270721436
12.40120816230774,1.7580686,-0.07691936,-3.048788,-0.007055920784500944,nan,nan,nan,nan,2.398146867752075,0.0003681182861328125,0.23767085,-1.0221509,-0.08130306,-0.027384119675751183,0.06483488801178727,9.400877258498209,0.23125207,0.036743976,-0.09786342,1.9959059,0.12764312,-3.0,0.0,0.080365054,-1.246358,0.0,-0.020544097,0.0801324,9.843658,-0.03776206,0.20054428,0.0,0.0035415136,0.7221912103787731,0.14807751774787903,0.04324360936880112,0.04379599168896675
12.50146484375,1.7725172,-0.17229187,-3.0561337,-0.018030512985103657,nan,nan,nan,nan,2.498380184173584,0.0003147125244140625,0.17437568,-1.0245544,-0.06955215,-0.00895955868077253,0.06798606620523295,9.403868923913677,0.20098512,0.038777094,-0.07626399,1.9999989,0.002035529,-3.0,0.0,0.0012789613,-1.2566345,0.0,-0.00032766347,0.0803129,9.841724,-0.0006076112,0.20228313,0.0,5.643835e-05,0.7223077046600662,0.11040128022432327,0.059620730578899384,0.08787326514720917
12.601824045181274,1.783587,-0.28195694,-3.0636857,-0.026307951367091437,nan,nan,nan,nan,2.598998785018921,0.0003685951232910156,0.09876468,-1.006732,-0.055090178,0.008980129743016993,0.07282942238778656,9.414310686010857,0.15728338,0.05018628,-0.03599572,1.996132,-0.12408506,-3.0,0.0,-0.078116015,-1.2469254,0.0,0.019971583,0.080142364,9.843552,0.03672767,0.2006402,0.0,-0.003442663,0.7227141576552026,0.08824551850557327,0.049284517765045166,0.11984439194202423
12.7021803855896,1.7873588,-0.37845406,-3.0693636,-0.02910226092700227,nan,nan,nan,nan,2.699343681335449,0.0003497600555419922,0.026830096,-0.9739181,-0.041808635,0.022535120573381563,0.07748689503208905,9.432519634086626,0.1290013,0.04958029,0.005220305,1.9843326,-0.24789098,-3.0,0.0,-0.15698427,-1.2174149,0.0,0.039882384,0.07962336,9.849012,0.07147985,0.19565833,0.0,-0.0068915957,0.7234224149722049,0.07751059532165527,0.045025505125522614,0.13005581498146057
12.804194211959839,1.7835459,-0.476988,-3.0738158,-0.027472243251905403,nan,nan,nan,nan,2.8014776706695557,0.00047850608825683594,-0.054511674,-0.9246335,-0.028215433,0.035190894428801966,0.08208965774435861,9.44999371366574,0.111430265,0.04335098,0.046718057,1.9642256,-0.36985055,-3.0,0.0,-0.23661636,-1.1675305,0.0,0.05946544,0.078743525,9.857918,0.10188372,0.1872761,0.0,-0.010320847,0.7241014462471504,0.07728365808725357,0.02513214573264122,0.12083223462104797
12.901325464248657,1.7734123,-0.55491614,-3.0759826,-0.022960754109313572,nan,nan,nan,nan,2.8984105587005615,0.0002789497375488281,-0.12592486,-0.8737805,-0.017140705,0.04504624496496018,0.08504860405684411,9.477262578476209,0.10265412,0.022478428,0.07241735,1.937662,-0.48000258,-3.0,0.0,-0.31129736,-1.1024064,0.0,0.07711383,0.077589594,9.868932,0.12418133,0.17640357,0.0,-0.013468601,0.7251598433980821,0.09020485728979111,0.023577407002449036,0.100867360830307
13.014533996582031,1.7567335,-0.6266988,-3.0768034,-0.016607252980773046,nan,nan,nan,nan,3.01155686378479,0.0003230571746826172,-0.19852832,-0.8146007,-0.0071223523,0.05477018363050895,0.08647648103532424,9.511133124101894,0.105500914,0.016853318,0.08796157,1.8975751,-0.5994721,-3.0,0.0,-0.3969903,-1.0058068,0.0,0.096200444,0.0758652,9.884,0.14024282,0.16041315,0.0,-0.01698074,0.7264723562082881,0.1263810694217682,0.056341320276260376,0.07505061477422714
13.10196328163147,1.7331477,-0.6916598,-3.0764174,-0.009460764557539789,nan,nan,nan,nan,3.0989105701446533,0.0003616809844970703,-0.2723279,-0.74708855,0.0015309368,0.06547920131263898,0.08819330927519142,9.539702922571436,0.11695871,0.023643695,0.09331772,1.8600564,-0.6835486,-3.0,0.0,-0.4617992,-0.9172257,0.0,0.109591424,0.0742684,9.896488,0.14445318,0.1458816,0.0,-0.019558763,0.7275776445807107,0.13344493508338928,0.03443394601345062,0.041119106113910675
13.203251123428345,1.6925826,-0.7636331,-3.074281,-0.0007276893692017769,nan,nan,nan,nan,3.2002294063568115,0.0002963542938232422,-0.36847952,-0.64759004,0.011139525,0.08017463380074405,0.0895161595785503,9.572321331668629,0.122328535,0.004072184,0.08462704,1.8095313,-0.77069694,-3.0,0.0,-0.5352139,-0.80073154,0.0,0.12343007,0.07214161,9.910985,0.14004219,0.12694171,0.0,-0.022395901,0.7288375412027436,0.11758390069007874,-0.01555052399635315,0.0003966260701417923
13.30107307434082,1.6567228,-0.8070151,-3.0722058,0.004233541194641803,nan,nan,nan,nan,3.2979841232299805,0.00022363662719726562,-0.4371582,-0.5671604,0.016613422,0.0906498128883021,0.08862867221627302,9.59710307197644,0.12388837,-0.0066676764,0.07176869,1.7538323,-0.84296787,-3.0,0.0,-0.60399425,-0.67602545,0.0,0.13487059,0.06982489,9.924087,0.12655738,0.106853776,0.0,-0.024977727,0.7297933096258021,0.1373039186000824,0.0006533730775117874,-0.021206477656960487
13.40218186378479,1.6063284,-0.8490767,-3.069389,0.00832097532763662,nan,nan,nan,nan,3.399383544921875,0.00035762786865234375,-0.51852393,-0.46022013,0.022221275,0.10350823293484188,0.08740734088333713,9.623195944596068,0.12595472,-0.011997659,0.048152056,1.6890707,-0.90449697,-3.0,0.0,-0.67292887,-0.5359306,0.0,0.14458285,0.06716293,9.935838,0.1038316,0.08447903,0.0,-0.027501069,0.7307983123669426,0.12382364273071289,-0.013534270226955414,-0.04028994217514992
13.502431869506836,1.548261,-0.8796931,-3.0663722,0.009968181481119102,nan,nan,nan,nan,3.499392509460449,0.00031375885009765625,-0.59768474,-0.34235516,0.026392926,0.11489895818416118,0.08462834301641409,9.64095309497787,0.106478825,-0.032199994,0.024212286,1.6184824,-0.95082045,-3.0,0.0,-0.73824483,-0.38923404,0.0,0.15187697,0.06429415,9.944787,0.0740757,0.06122166,0.0,-0.029846795,0.7314814744058828,0.10241479426622391,-0.02333785593509674,-0.047777920961380005
13.602259635925293,1.4828554,-0.89841837,-3.0632856,0.009548128515366627,nan,nan,nan,nan,3.599512815475464,0.00064849853515625,-0.6732244,-0.21603729,0.029774876,0.1249420704388251,0.08171058162279121,9.660390167552963,0.088624805,-0.038229745,0.00050053146,1.5414168,-0.9821723,-3.0,0.0,-0.8007142,-0.2362261,0.0,0.15680447,0.06119375,9.950476,0.03881301,0.037098497,0.0,-0.03206683,0.7322285464172548,0.07337820529937744,-0.033527225255966187,-0.04687651991844177
13.704435586929321,1.4172715,-0.90429115,-3.0603104,0.007703708850685741,nan,nan,nan,nan,3.7016546726226807,0.0005583763122558594,-0.7384617,-0.094138406,0.032431755,0.13136250256674062,0.07802307223716065,9.674733407516017,0.060886297,-0.045824133,-0.016774973,1.4565129,-0.9981551,-3.0,0.0,-0.8611793,-0.07629674,0.0,0.1593135,0.05780775,9.952448,-0.0005609875,0.011972561,0.0,-0.034214336,0.732779353023076,0.07173208147287369,-0.01577787473797798,-0.038180895149707794
13.802871227264404,1.326644,-0.89539856,-3.0561528,0.003843820048817101,nan,nan,nan,nan,3.800078868865967,0.0004756450653076172,-0.81540143,0.066617854,0.034650784,0.13669368990661263,0.07361475270076379,9.686725702900427,0.026016776,-0.05131613,-0.030525396,1.3690219,-0.99802047,-3.0,0.0,-0.9160917,0.07902934,0.0,0.15929237,0.05434254,9.950479,-0.03940998,-0.012401448,0.0,-0.03618413,0.7332395657433117,-0.0068331556394696236,-0.05233638361096382,-0.02340722642838955
13.90467357635498,1.2500148,-0.87589693,-3.0527227,0.0003418540519906227,nan,nan,nan,nan,3.90189528465271,0.0004241466522216797,-0.87094945,0.19365637,0.03561303,0.13662114086961835,0.06879312755906297,9.691214545834798,-0.012169277,-0.060101666,-0.035747483,1.2730118,-0.98183817,-3.0,0.0,-0.9692088,0.2384098,0.0,0.15675199,0.050558634,9.944475,-0.07803471,-0.03744206,0.0,-0.038128626,0.7334117549512625,-0.0008553862571716309,-0.024841975420713425,-0.006188312545418739
14.01113748550415,1.1529729,-0.83851296,-3.0487912,-0.0031176549506075762,nan,nan,nan,nan,4.008152961730957,0.0002827644348144531,-0.93150055,0.34067366,0.035409007,0.13399203254790581,0.06379059821451527,9.689953437764183,-0.0406832,-0.055273477,-0.03283508,1.1672664,-0.94784063,-3.0,0.0,-1.0204113,0.4005463,0.0,0.15140823,0.0464036,9.934223,-0.1139868,-0.06300997,0.0,-0.040061835,0.7333633836629566,-0.023774757981300354,-0.02403181418776512,0.007766317576169968
14.102042436599731,1.0579375,-0.7911846,-3.0454626,-0.005738923795012056,nan,nan,nan,nan,4.099247932434082,0.0004277229309082031,-0.982267,0.47051674,0.034305222,0.12899613931990636,0.05930238113626918,9.685013276357193,-0.060891174,-0.052648433,-0.026450412,1.0724512,-0.905229,-3.0,0.0,-1.0606955,0.5339754,0.0,0.14469823,0.042681724,9.92264,-0.13934378,-0.08416801,0.0,-0.04163978,0.7331738676192247,-0.05659285932779312,-0.03742283955216408,0.017169520258903503
14.204732656478882,0.9496163,-0.7270363,-3.0423539,-0.007909522169992154,nan,nan,nan,nan,4.201937437057495,0.00048732757568359375,-1.0319533,0.6033511,0.0321296,0.12223566930203039,0.05489396152472992,9.674040552619832,-0.07873135,-0.05546057,-0.015458964,0.96137285,-0.8430207,-3.0,0.0,-1.1019357,0.6759214,0.0,0.13487893,0.03831841,9.907187,-0.16009006,-0.10683709,0.0,-0.043322995,0.7327527555188283,-0.08553346991539001,-0.04805074632167816,0.023813247680664062
14.302931070327759,0.84446585,-0.6569831,-3.040186,-0.008950470678722913,nan,nan,nan,nan,4.300090074539185,0.0005085468292236328,-1.0735134,0.71686864,0.029470474,0.11386377714618962,0.05034531710195922,9.659112978670732,-0.09149619,-0.04459892,-0.0062896283,0.85145646,-0.7704413,-3.0,0.0,-1.1370695,0.80111986,0.0,0.12338954,0.033991583,9.890869,-0.17086741,-0.12700453,0.0,-0.044823784,0.7321794802115654,-0.10145428776741028,-0.05151570960879326,0.026759445667266846
14.40780758857727,0.7256002,-0.57090217,-3.0382884,-0.008755306556879991,nan,nan,nan,nan,4.4053099155426025,0.00046825408935546875,-1.114141,0.82750505,0.02630455,0.10301880081651844,0.0451091229084446,9.646700918171543,-0.11317349,-0.05202068,0.0021627164,0.73004085,-0.6796677,-3.0,0.0,-1.1699286,0.9217686,0.0,0.108974144,0.02919649,9.872746,-0.17172442,-0.14662398,0.0,-0.04629422,0.7317024727521673,-0.11899660527706146,-0.05951215326786041,0.02393191307783127
14.506689310073853,0.62124056,-0.49101895,-3.0365894,-0.007378873146428641,nan,nan,nan,nan,4.504228830337524,0.0006172657012939453,-1.1450958,0.9096028,0.023298949,0.0927559195095934,0.040851589884352,9.631084458325049,-0.11845766,-0.044748962,0.010079807,0.6129781,-0.58347803,-3.0,0.0,-1.1961604,1.0205513,0.0,0.09364898,0.024555072,9.856147,-0.1622522,-0.1628438,0.0,-0.047521893,0.7311018809830152,-0.11422025412321091,-0.052656885236501694,0.017646633088588715
14.604716062545776,0.523894,-0.4133096,-3.0348656,-0.005313311661870872,nan,nan,nan,nan,4.6021728515625,0.0004444122314453125,-1.1703732,0.9750612,0.021047063,0.08315581778048092,0.03712519473566345,9.616024178210637,-0.1273366,-0.053517234,0.015798775,0.4947343,-0.47935885,-3.0,0.0,-1.2175832,1.1028485,0.0,0.07701081,0.019847993,9.841101,-0.14349912,-0.17647713,0.0,-0.04856456,0.7305222178816639,-0.10478074103593826,-0.037170253694057465,0.009011399000883102
14.701390743255615,0.3949718,-0.3059492,-3.033112,-0.002469915953140507,nan,nan,nan,nan,4.69829249382019,0.00027251243591308594,-1.19811,1.0466921,0.018125994,0.06909290010637784,0.031241349715362743,9.597619494888923,-0.14871347,-0.066127926,0.016030027,0.37686968,-0.37011832,-3.0,0.0,-1.2341254,1.1673965,0.0,0.059508394,0.015138379,9.828522,-0.11700053,-0.18725367,0.0,-0.049396824,0.7298132136048134,-0.1430230736732483,-0.0655955821275711,-0.00461723655462265
14.804554462432861,0.26456815,-0.19316505,-3.0321753,7.095754005544824e-05,nan,nan,nan,nan,4.8017284870147705,0.00036144256591796875,-1.2181152,1.1007938,0.015547118,0.05217740449072594,0.023417777466538947,9.585633221361777,-0.17134497,-0.07623538,0.011838025,0.24851139,-0.24658547,-3.0,0.0,-1.2468984,1.2178334,0.0,0.039672565,0.009992652,9.818215,-0.08119037,-0.1957289,0.0,-0.050056864,0.7293511003737659,-0.15720558166503906,-0.06457264721393585,-0.012838075868785381
14.90144395828247,0.14300019,-0.08662118,-3.0321305,0.0024586100289024117,nan,nan,nan,nan,4.898350715637207,0.00033092498779296875,-1.2300856,1.1325383,0.012852913,0.03534578269747922,0.016886192603635886,9.573175432626147,-0.1834801,-0.074518606,0.00588592,0.1276491,-0.12738883,-3.0,0.0,-1.254075,1.2463992,0.0,0.02050318,0.005135862,9.812192,-0.042894408,-0.20055123,0.0,-0.05043473,0.728870502265886,-0.16239798069000244,-0.0641697347164154,-0.021162716671824455
15.001471042633057,0.011331977,0.029373406,-3.032617,0.00465042321462605,nan,nan,nan,nan,4.998436450958252,0.0003643035888671875,-1.2346915,1.1466095,0.010580555,0.015699055304183328,0.009344557479863624,9.566207829024632,-0.18768989,-0.06551751,-0.0022526565,0.0019648708,-0.00196487,-3.0,0.0,-1.2566365,1.2566347,0.0,0.00031628934,7.9072364e-05,9.810001,-0.0006668718,-0.20228319,0.0,-0.05057086,0.7286015688335995,-0.15906256437301636,-0.06077578663825989,-0.027959071099758148
15.103842735290527,-0.10959527,0.13494529,-3.0334089,0.005989722553117574,nan,nan,nan,nan,5.101056098937988,0.00035190582275390625,-1.23182,1.1406146,0.009043604,-0.0021511021830171507,0.0033308288819640097,9.564083654228586,-0.18231143,-0.06361782,-0.0093247,-0.12690565,0.12664992,-3.0,0.0,-1.2541047,1.246518,0.0,-0.020384286,-0.0051059625,9.812167,0.042649537,-0.20057133,0.0,-0.050436307,0.7285195611055064,-0.14863567054271698,-0.044169217348098755,-0.031927771866321564
15.201292753219604,-0.22917089,0.2370902,-3.034574,0.006538820655857649,nan,nan,nan,nan,5.198180675506592,0.00036215782165527344,-1.2225919,1.1168169,0.0074559557,-0.01914409363038329,-0.0017183223070638132,9.565928413700302,-0.16919169,-0.044533595,-0.017159758,-0.24839817,0.2464749,-3.0,0.0,-1.2469074,1.2178688,0.0,-0.0396548,-0.009988106,9.818209,0.08115624,-0.19573484,0.0,-0.050057326,0.7285907820041887,-0.14114844799041748,-0.037012338638305664,-0.03396841883659363
15.301229000091553,-0.34632576,0.3338748,-3.0358818,0.006135768783084422,nan,nan,nan,nan,5.298201084136963,0.0003390312194824219,-1.2075577,1.0764792,0.0064033265,-0.03506391222359136,-0.005713480001314775,9.57101686047389,-0.15946463,-0.040685788,-0.022198092,-0.37254208,0.366022,-3.0,0.0,-1.2346439,1.1694343,0.0,-0.05885131,-0.014965153,9.828114,0.11589965,-0.18759511,0.0,-0.04942332,0.7287871968247076,-0.13506607711315155,-0.028534937649965286,-0.03351764753460884
15.40152907371521,-0.45095623,0.41717497,-3.037019,0.004897757151797452,nan,nan,nan,nan,5.398431301116943,0.00028324127197265625,-1.1896287,1.0261035,0.005351136,-0.048778646460270435,-0.008644639567268353,9.580278306920071,-0.14867096,-0.028097402,-0.027166596,-0.49547058,0.48002565,-3.0,0.0,-1.2174649,1.1023904,0.0,-0.07711751,-0.019877363,9.8411875,0.14364175,-0.17640091,0.0,-0.0485587,0.729144556117163,-0.13718771934509277,-0.013276603072881699,-0.03149616718292236
15.50194501876831,-0.5709098,0.5081746,-3.038046,0.002530360201983283,nan,nan,nan,nan,5.498906850814819,0.0003609657287597656,-1.1641257,0.9524274,0.0049253623,-0.06398781767422358,-0.011738288293199783,9.594626216683524,-0.14017145,-0.021761484,-0.030922825,-0.6167277,0.5866736,-3.0,0.0,-1.1953993,1.0176542,0.0,-0.09415886,-0.024704026,9.856657,0.16270237,-0.16236593,0.0,-0.047485527,0.7296978391905197,-0.13267531991004944,-0.01623811200261116,-0.024510078132152557
15.602667808532715,-0.67766744,0.58374685,-3.0390093,-0.0002645708988608664,nan,nan,nan,nan,5.599843263626099,0.0007181167602539062,-1.1375897,0.87114346,0.0043746578,-0.07744620408437974,-0.013905873693943915,9.611069026533501,-0.13408083,-0.018696168,-0.031924006,-0.736066,0.68440354,-3.0,0.0,-1.1684371,0.91621846,0.0,-0.1097274,-0.02943488,9.873632,0.1719461,-0.14571701,0.0,-0.046225928,0.7303313971913488,-0.13363368809223175,-0.014583148062229156,-0.017331179231405258
15.701813697814941,-0.78931415,0.65585,-3.0398653,-0.0034748756394141905,nan,nan,nan,nan,5.698907375335693,0.00032711029052734375,-1.1059844,0.76991194,0.003661145,-0.09106147999860477,-0.016525735528599927,9.62844714650883,-0.12407687,-0.01953138,-0.028885353,-0.8503163,0.76963747,-3.0,0.0,-1.1374062,0.8023391,0.0,-0.12326211,-0.033946637,9.8906975,0.1709287,-0.12720186,0.0,-0.044838514,0.731000404842012,-0.12013182044029236,-0.021093320101499557,-0.006928322836756706
15.805835962295532,-0.8804162,0.70812124,-3.0404716,-0.006086736153783766,nan,nan,nan,nan,5.803346395492554,0.0005412101745605469,-1.0775156,0.6745291,0.0026760097,-0.10216170544990727,-0.018432816303025845,9.643716153148546,-0.12236457,-0.016965948,-0.02499219,-0.9671908,0.846574,-3.0,0.0,-1.099924,0.66887146,0.0,-0.13544054,-0.038547136,9.908031,0.15924902,-0.10570662,0.0,-0.04323904,0.7315877195901391,-0.13664229214191437,-0.01568639650940895,-0.0019163191318511963
15.903922319412231,-0.96781087,0.7512543,-3.0411909,-0.00842976278927738,nan,nan,nan,nan,5.901439428329468,0.00042939186096191406,-1.0470451,0.5698206,0.0015655954,-0.11346947591398504,-0.020014943132441676,9.658059314582479,-0.124124,-0.01635959,-0.020384483,-1.0731808,0.9055959,-3.0,0.0,-1.0604043,0.53299195,0.0,-0.14475606,-0.042710368,9.922735,0.1391751,-0.084011555,0.0,-0.041628152,0.7321389987929012,-0.1352388858795166,-0.0198972225189209,0.003505466505885124
16.0063419342041,-1.0593469,0.78663075,-3.042226,-0.010507955357255856,nan,nan,nan,nan,6.004241704940796,0.0006315708160400391,-1.012717,0.4452698,0.0003671334,-0.12510764695200827,-0.022163947479873602,9.668443894851936,-0.10982091,-0.021391781,-0.014132318,-1.179879,0.9526903,-3.0,0.0,-1.0146683,0.38194576,0.0,-0.15217108,-0.04689881,9.935612,0.11010644,-0.060069893,0.0,-0.039841365,0.7325378745520394,-0.11641362309455872,-0.029337476938962936,0.009314214810729027
16.107635259628296,-1.1544678,0.81099916,-3.0432382,-0.011923290655790786,nan,nan,nan,nan,6.105325937271118,0.0005965232849121094,-0.9733012,0.3006407,-0.0003651018,-0.1348596773634699,-0.02552729362319872,9.67849524581803,-0.07524685,-0.035288002,-0.007251287,-1.2799976,0.9835193,-3.0,0.0,-0.9655696,0.22720382,0.0,-0.15701601,-0.050833482,9.94503,0.07540041,-0.035679188,0.0,-0.0379937,0.7329237468857115,-0.0734693631529808,-0.04074852168560028,0.01581759750843048
16.207427740097046,-1.2449244,0.8201118,-3.0440857,-0.012381869443733859,nan,nan,nan,nan,6.2047717571258545,0.0005116462707519531,-0.93048245,0.1493781,-0.0010408964,-0.14049925737630542,-0.029712231310924375,9.683138033989799,-0.033205785,-0.04180681,0.00029184375,-1.3734597,0.9983853,-3.0,0.0,-0.9134655,0.07138232,0.0,-0.15934964,-0.05451785,9.950665,0.03751037,-0.011201254,0.0,-0.036089182,0.733101916319342,-0.0309952050447464,-0.047360822558403015,0.019521038979291916
16.312232732772827,-1.3175551,0.81598943,-3.0451381,-0.012108650459801348,nan,nan,nan,nan,6.3097405433654785,0.0005671977996826172,-0.8910887,0.019802291,-0.0015977381,-0.1429341396927925,-0.03354990730769303,9.685194900236075,-0.01977793,-0.043758214,0.005727418,-1.4662893,0.9971834,-3.0,0.0,-0.8546046,-0.094250455,0.0,-0.15916102,-0.058196317,9.952429,-0.0039253593,0.014790599,0.0,-0.033980176,0.7331808359879745,-0.04493909701704979,-0.04877670109272003,0.017384063452482224
16.408791065216064,-1.3917627,0.79897934,-3.0467002,-0.011158873454118909,nan,nan,nan,nan,6.406578302383423,0.0008084774017333984,-0.8438504,-0.121576786,-0.0027758332,-0.14426157819170388,-0.03784114860126864,9.68293789563233,-0.00117832,-0.04587622,0.011352487,-1.5462828,0.98070467,-3.0,0.0,-0.7970016,-0.24566658,0.0,-0.15657395,-0.06138868,9.9502325,-0.041076228,0.038583905,0.0,-0.03193516,0.7330942367858617,-0.01421598345041275,-0.048881907016038895,0.015481900423765182
16.50449228286743,-1.4600935,0.76894045,-3.0484915,-0.009606699658824658,nan,nan,nan,nan,6.501680374145508,0.0005464553833007812,-0.79184794,-0.26153782,-0.0035339294,-0.1433272808435428,-0.04213037676553588,9.676434510997478,0.03249159,-0.042235162,0.012793585,-1.6192744,0.9504018,-3.0,0.0,-0.7375588,-0.39084536,0.0,-0.15181111,-0.06432619,9.944708,-0.074427664,0.06147634,0.0,-0.029822322,0.7328446514118246,0.02209404855966568,-0.044036537408828735,0.010828536003828049
16.601768493652344,-1.5222076,0.72652936,-3.0505607,-0.007688966557959184,nan,nan,nan,nan,6.598655939102173,0.0003337860107421875,-0.73526824,-0.39729637,-0.004281854,-0.14054697605523653,-0.0461633351507984,9.66624096354002,0.03670846,-0.03568567,0.015185885,-1.68775,0.90554506,-3.0,0.0,-0.6742358,-0.5331284,0.0,-0.14474806,-0.06710897,9.936041,-0.10331294,0.08403328,0.0,-0.027548378,0.7324532770129463,0.0553259402513504,-0.03621761500835419,0.004136107861995697
16.702890634536743,-1.5815797,0.66706634,-3.0532084,-0.005437997565913941,nan,nan,nan,nan,6.699788808822632,0.0003447532653808594,-0.66924715,-0.53771996,-0.0046508834,-0.13389383257250365,-0.0495028698541875,9.65179530238265,0.09089165,-0.026391543,0.0141678555,-1.7524859,0.84446967,-3.0,0.0,-0.6055352,-0.6730591,0.0,-0.13510795,-0.06976921,9.924368,-0.12614983,0.10637804,0.0,-0.025034785,0.7318982919589236,0.09377162158489227,-0.026250235736370087,-0.004488546401262283
16.801161527633667,-1.624896,0.6065929,-3.0555449,-0.003505034464850912,nan,nan,nan,nan,6.7980499267578125,0.0002968311309814453,-0.60995346,-0.6475293,-0.0050042677,-0.12525543777769887,-0.05179238448638346,9.635123226991833,0.10498852,-0.023834178,0.009869043,-1.8086095,0.77207285,-3.0,0.0,-0.5364427,-0.79863566,0.0,-0.1236482,-0.072103046,9.911225,-0.13988164,0.12660258,0.0,-0.022442658,0.731257254209332,0.08851955085992813,-0.022081080824136734,-0.013749606907367706
16.90267825126648,-1.6710492,0.51782566,-3.0587647,-0.0012085281939939393,nan,nan,nan,nan,6.89955997467041,0.000270843505859375,-0.5310857,-0.772678,-0.005120457,-0.11290474476038806,-0.05392513266759624,9.61844678466672,0.11604939,-0.013041586,0.0037683584,-1.8593495,0.68494976,-3.0,0.0,-0.4629217,-0.9155736,0.0,-0.10981427,-0.07423847,9.8967085,-0.14446096,0.14561169,0.0,-0.019602805,0.7306154934857358,0.13168007135391235,-0.004160717129707336,-0.02326117269694805
17.002543687820435,-1.7031348,0.43349975,-3.0614772,0.00031983418911414596,nan,nan,nan,nan,6.999459505081177,0.0002636909484863281,-0.4620327,-0.8652353,-0.005330306,-0.10061218338019841,-0.054769701094883105,9.59785741766447,0.14493878,0.0011773735,-0.0019162811,-1.901903,0.5883346,-3.0,0.0,-0.38872808,-1.0161388,0.0,-0.09442386,-0.076050445,9.882461,-0.13919254,0.162116,0.0,-0.016647138,0.7298223834475234,0.13754135370254517,-0.001053541898727417,-0.03017611801624298
17.101845026016235,-1.7288976,0.34349963,-3.0634067,0.0013667409040882747,nan,nan,nan,nan,7.098982095718384,0.0003800392150878906,-0.39327502,-0.9414441,-0.0042280364,-0.08590561508621375,-0.05475825109800225,9.58127103587145,0.15627502,0.0058484417,-0.009904082,-1.9368478,0.48287413,-3.0,0.0,-0.31329128,-1.1004242,0.0,-0.0775733,-0.07755437,9.869256,-0.12467828,0.17607385,0.0,-0.013551591,0.7291828509959171,0.13097530603408813,-0.0053947847336530685,-0.0357772558927536
17.201372861862183,-1.7481766,0.24961658,-3.064534,0.0020784693458652664,nan,nan,nan,nan,7.198413848876953,0.0003304481506347656,-0.32480663,-1.0002366,-0.002940689,-0.07074820801932105,-0.05481039024376355,9.566968329749052,0.15858933,0.0042753345,-0.01773622,-1.9642,0.36997715,-3.0,0.0,-0.23670045,-1.1674672,0.0,-0.059485756,-0.07874241,9.857928,-0.10191255,0.1872655,0.0,-0.010324433,0.7286309271684224,0.12173467874526978,-0.010924741625785828,-0.0391722097992897
17.302995443344116,-1.7617352,0.14482154,-3.0653899,0.0024848919153957344,nan,nan,nan,nan,7.30004096031189,0.00029349327087402344,-0.25079015,-1.0453576,-0.001139984,-0.054848338264278804,-0.055348336629760686,9.55788006072396,0.14674866,-0.0039832355,-0.02412359,-1.984236,0.24863917,-3.0,0.0,-0.15746574,-1.2171738,0.0,-0.040002625,-0.079619125,9.849055,-0.071680106,0.19561774,0.0,-0.006912515,0.7282800076634521,0.12340626120567322,-0.008501037955284119,-0.040500082075595856
17.40248441696167,-1.7677712,0.054966792,-3.066096,0.002415323715838514,nan,nan,nan,nan,7.3997721672058105,0.0005848407745361328,-0.18853007,-1.0694034,0.0001965794,-0.042054134092101125,-0.05608470487290207,9.550093617862998,0.14216311,-0.0020494172,-0.030439736,-1.9960355,0.1256171,-3.0,0.0,-0.07908432,-1.246683,0.0,-0.020218099,-0.08013812,9.843597,-0.03717325,0.20059922,0.0,-0.0034852254,0.7279792220121221,0.11686686426401138,-0.021648086607456207,-0.03913804143667221
17.503995418548584,-1.7687329,-0.042510275,-3.0669012,0.001975801827429043,nan,nan,nan,nan,7.501069068908691,0.00041294097900390625,-0.12125187,-1.0810696,0.0019026547,-0.028279393476092853,-0.05732890260690482,9.547507484925713,0.13611566,-0.017275896,-0.034418814,-1.9999995,-0.0013437505,-3.0,0.0,0.0008443036,-1.256636,0.0,0.0002163064,-0.08031292,9.841723,0.0004011139,0.20228338,0.0,3.725767e-05,0.7278792941123748,0.12176983058452606,-0.027552494779229164,-0.035628750920295715
17.601551055908203,-1.7628806,-0.14643154,-3.0680716,0.0013307810803816246,nan,nan,nan,nan,7.5986034870147705,0.0003838539123535156,-0.048055056,-1.0776465,0.0037166632,-0.013427347179986447,-0.05903376221017287,9.54960919974166,0.14072914,-0.013235483,-0.03649037,-1.9961629,-0.12359219,-3.0,0.0,0.07780454,-1.2470026,0.0,0.019892275,-0.080143735,9.843537,0.036584258,0.20065328,0.0,0.003428971,0.7279605051777085,0.13641169667243958,-0.015565397217869759,-0.030224937945604324
17.71378779411316,-1.749514,-0.2551956,-3.0690227,0.00033807243799102694,nan,nan,nan,nan,7.711225748062134,0.00048661231994628906,0.03046329,-1.0553434,0.0056107813,0.0036118766527439596,-0.06039651302307747,9.555454339755503,0.15468504,-0.0036570812,-0.03742279,-1.982412,-0.2623284,-3.0,0.0,0.16628812,-1.212628,0.0,0.042202495,-0.07953909,9.849884,0.07531831,0.19485188,0.0,0.0072954716,0.7281863166501134,0.14264945685863495,-0.016227465122938156,-0.02389560267329216
17.808663368225098,-1.734129,-0.3367495,-3.069542,-0.0004270772719074077,nan,nan,nan,nan,7.806400775909424,0.000820159912109375,0.091262236,-1.0232885,0.0070736455,0.0177597328601742,-0.06137808410623102,9.564074615163536,0.15652126,-0.01474437,-0.035288353,-1.9630514,-0.3755912,-3.0,0.0,0.24043274,-1.164633,0.0,0.06038621,-0.078692324,9.858422,0.10318452,0.1867907,0.0,0.010483454,0.7285192121160909,0.14362584054470062,-0.029076311737298965,-0.0188763327896595
17.908985137939453,-1.7146765,-0.41350868,-3.0699441,-0.001039470192650981,nan,nan,nan,nan,7.90631628036499,0.000518798828125,0.15154977,-0.9785261,0.0082536405,0.032109429522918426,-0.06346290640846286,9.576498296929332,0.15764779,-0.029506598,-0.0312583,-1.9351771,-0.48869425,-3.0,0.0,0.31734115,-1.0963595,0.0,0.07850449,-0.07748212,9.86992,0.12567067,0.17539793,0.0,0.013719976,0.7289987226992659,0.14578045904636383,-0.04424352943897247,-0.014012962579727173
18.005391120910645,-1.6834687,-0.50163996,-3.070238,-0.001314426582799677,nan,nan,nan,nan,8.002334117889404,0.0003337860107421875,0.22940032,-0.9016903,0.009438154,0.05006457151733049,-0.06639477518562797,9.58838850803468,0.1480075,-0.020023843,-0.02736252,-1.9012043,-0.5901562,-3.0,0.0,0.3900749,-1.0144694,0.0,0.09471447,-0.076020524,9.88271,0.13937138,0.16184074,0.0,0.016701594,0.729457351980734,0.11707819998264313,-0.008672568947076797,-0.009755903854966164
18.103525400161743,-1.6516188,-0.56724024,-3.0696864,-0.0008618606749136309,nan,nan,nan,nan,8.100719928741455,0.00046372413635253906,0.2955153,-0.8198979,0.011202329,0.06387779761851367,-0.06736617251676225,9.60588739223573,0.12753554,-0.008619428,-0.022691075,-1.8592198,-0.6852061,-3.0,0.0,0.4631273,-0.9152706,0.0,0.10985504,-0.074232966,9.8967495,0.14446211,0.14556217,0.0,0.019610867,0.7301318021341899,0.0997704565525055,-0.01392824575304985,-0.01162279024720192
18.20201063156128,-1.615273,-0.6234669,-3.0680902,-0.00010389370820650112,nan,nan,nan,nan,8.199099063873291,0.00035572052001953125,0.3599038,-0.7263263,0.0125554325,0.07554192577098998,-0.06813916171313061,9.624218337757323,0.10437856,-0.009232973,-0.019078141,-1.8101361,-0.7697908,-3.0,0.0,0.53440607,-0.80210674,0.0,0.123286426,-0.07216692,9.910826,0.14014612,0.12716424,0.0,0.022365157,0.730837663483618,0.0873192846775055,-0.022017106413841248,-0.01443127915263176
18.311339139938354,-1.5739611,-0.669686,-3.0660632,0.0009264313140213837,nan,nan,nan,nan,8.308814287185669,0.00033593177795410156,0.42332324,-0.6235068,0.013398913,0.08487499233441152,-0.0689996963786319,9.64289006642792,0.085858144,-0.018548604,-0.015929444,-1.7472504,-0.850211,-3.0,0.0,0.61147887,-0.6615465,0.0,0.13601528,-0.069552876,9.9254465,0.12453452,0.10453259,0.0,0.025254585,0.731555956477381,0.10332844406366348,-0.049160994589328766,-0.019262125715613365
18.401523113250732,-1.5228865,-0.7072768,-3.0639884,0.0020937304516385064,nan,nan,nan,nan,8.398591041564941,0.0003254413604736328,0.49209324,-0.50296915,0.013598187,0.09377509516812095,-0.0710383523489806,9.656811730785105,0.07920617,-0.025880892,-0.014905331,-1.6896038,-0.9040718,-3.0,0.0,0.6724003,-0.53706235,0.0,0.14451583,-0.067184724,9.935755,0.10404046,0.08465908,0.0,0.027481927,0.7320910641891514,0.06610246002674103,-0.01469707302749157,-0.019574226811528206
18.50480318069458,-1.4701227,-0.7299379,-3.0625489,0.003258990149271529,nan,nan,nan,nan,8.502168416976929,0.0006053447723388672,0.55591506,-0.38469094,0.012861187,0.10124476149787577,-0.07298474002568689,9.668706466851567,0.0620131,-0.01021776,-0.01608163,-1.6164306,-0.9518951,-3.0,0.0,0.7400173,-0.38506383,0.0,0.152046,-0.06421122,9.944992,0.073162526,0.0605626,0.0,0.029910004,0.7325479572671553,0.06523829698562622,-0.01584783010184765,-0.0217546746134758
18.60262370109558,-1.4171789,-0.7403754,-3.061468,0.0044164936222342785,nan,nan,nan,nan,8.5996732711792,0.0003724098205566406,0.61398673,-0.2715945,0.012177383,0.1065163188458079,-0.0736859816891704,9.678482633380032,0.05513451,-0.01558134,-0.017309558,-1.5412881,-0.9822103,-3.0,0.0,0.80081195,-0.23597693,0.0,0.15681043,-0.061188586,9.950482,0.038753156,0.0370593,0.0,0.032070294,0.7329232628185859,0.07164882123470306,-0.026262961328029633,-0.025083817541599274
18.70285940170288,-1.3488088,-0.74004346,-3.0602756,0.005496998210017361,nan,nan,nan,nan,8.700240850448608,0.0006299018859863281,0.681428,-0.13400337,0.010791606,0.11218627292475886,-0.07479126269965541,9.682320164328255,0.046711057,-0.016180294,-0.018138636,-1.4577298,-0.9980457,-3.0,0.0,0.86036605,-0.07852494,0.0,0.15929635,-0.0578561,9.952449,-3.720051e-06,0.012322281,0.0,0.034185354,0.733070533241637,0.040866583585739136,-0.004474680870771408,-0.025699160993099213
18.814258337020874,-1.2802025,-0.72680527,-3.0592284,0.006500226304931113,nan,nan,nan,nan,8.812204599380493,0.0007910728454589844,0.74243623,-0.0036385497,0.009142686,0.11611191738958054,-0.07499946015121983,9.68165451053325,0.034864686,-0.014702515,-0.019959154,-1.357874,-0.9969464,-3.0,0.0,0.9226185,0.09812953,0.0,0.15912384,-0.05390235,9.949972,-0.044141866,-0.015399522,0.0,0.036420543,0.7330449899723768,0.04913313686847687,-0.022638093680143356,-0.02873001992702484
18.90202832221985,-1.206965,-0.70157117,-3.0585928,0.007205747602661072,nan,nan,nan,nan,8.89917778968811,0.00035190582275390625,0.80197966,0.12831753,0.007771389,0.11899714965181696,-0.07531895337691896,9.677374381085666,0.015354826,-0.0049834014,-0.021425106,-1.2756438,-0.9824803,-3.0,0.0,0.9678417,0.23419502,0.0,0.15685283,-0.05066218,9.944687,-0.077045724,-0.03677896,0.0,0.03807791,0.7328807267097355,-0.007884880527853966,0.01223248615860939,-0.028188925236463547
19.002048015594482,-1.1355277,-0.6673942,-3.0578046,0.007762711889730649,nan,nan,nan,nan,8.999128103256226,0.00032138824462890625,0.8553199,0.24944124,0.0069117416,0.1192486675103564,-0.07459369079611666,9.666277987172638,-0.018303037,0.011810931,-0.022567667,-1.1764562,-0.9513943,-3.0,0.0,1.0162362,0.38701332,0.0,0.15196723,-0.046764422,9.935239,-0.111170866,-0.06087069,0.0,0.039901454,0.7324546988837204,-0.014577630907297134,0.0027411170303821564,-0.029666051268577576
19.101518630981445,-1.0460614,-0.6154275,-3.0573275,0.008190282475557094,nan,nan,nan,nan,9.098416090011597,0.0003859996795654297,0.91538227,0.38790238,0.0065101506,0.11633466505851059,-0.07289292572036787,9.65241672064904,-0.04812284,0.015568801,-0.026121536,-1.0733328,-0.9056723,-3.0,0.0,1.0603435,0.5327869,0.0,0.14476812,-0.04271633,9.922755,-0.1391399,-0.08397895,0.0,0.04162573,0.731922174652015,-0.05857542157173157,0.026296354830265045,-0.028498105704784393
19.20172905921936,-0.95921963,-0.5559965,-3.0573616,0.00852651727122996,nan,nan,nan,nan,9.198733806610107,0.0003094673156738281,0.9672664,0.5092292,0.006248496,0.11051275289280221,-0.07014624533302816,9.636051372324859,-0.08054564,0.030216875,-0.0268478,-0.9649002,-0.8451787,-3.0,0.0,1.1007179,0.67165214,0.0,0.13522,-0.03845709,9.9077,-0.15958337,-0.10615245,0.0,0.04327215,0.7312929557710628,-0.07273778319358826,0.025375690311193466,-0.028403673321008682
19.30372190475464,-0.86058074,-0.4797975,-3.057486,0.008832017382244518,nan,nan,nan,nan,9.300787210464478,0.0003695487976074219,1.0188723,0.6311085,0.006290292,0.10135164958775764,-0.0664245486700028,9.62098148051444,-0.09963453,0.030794604,-0.027356964,-0.85066366,-0.7698825,-3.0,0.0,1.1373036,0.8019678,0.0,0.123300955,-0.033960335,9.89075,-0.17091016,-0.12714177,0.0,0.04483403,0.7307130722008903,-0.09832434356212616,0.034655820578336716,-0.02739841863512993
19.401984453201294,-0.7652913,-0.39996523,-3.0574965,0.00887220636132921,nan,nan,nan,nan,9.399049520492554,0.0003833770751953125,1.0628114,0.7325551,0.0057905386,0.09195735889378481,-0.06368263820852937,9.601690196430118,-0.11362053,0.028237117,-0.026882764,-0.7373591,-0.685417,-3.0,0.0,1.1681153,0.9150213,0.0,0.109888576,-0.029486038,9.873822,-0.1719902,-0.14552148,0.0,0.046211205,0.7299700878969261,-0.11499632894992828,0.0429609939455986,-0.023925047367811203
19.508686542510986,-0.67459846,-0.32035714,-3.0575278,0.008801475976812509,nan,nan,nan,nan,9.506564140319824,0.0008044242858886719,1.0997709,0.81460136,0.0060721277,0.08076457579218727,-0.05953234055480139,9.581326868718294,-0.14319812,0.050435383,-0.027786007,-0.6101831,-0.58109146,-3.0,0.0,1.1967244,1.0226994,0.0,0.09326815,-0.024444027,9.855768,-0.16191056,-0.1631982,0.0,0.04754886,0.7291850047092726,-0.09092940390110016,0.01238405704498291,-0.02218705043196678
19.602309942245483,-0.57208824,-0.22753972,-3.0576625,0.008575868036975041,nan,nan,nan,nan,9.5992431640625,0.00032401084899902344,1.1361973,0.89007205,0.0064408057,0.0680056548108185,-0.05591635518935667,9.564966687744286,-0.12399595,0.017750751,-0.025809422,-0.49830052,-0.48258653,-3.0,0.0,1.2170088,1.1006235,0.0,0.077527285,-0.019990228,9.841522,-0.14418708,-0.17610699,0.0,0.048536107,0.7285536533665152,-0.1093817874789238,0.03199465572834015,-0.016857311129570007
19.702208042144775,-0.47475353,-0.138342,-3.0576825,0.007909352123821198,nan,nan,nan,nan,9.699443101882935,0.0003571510314941406,1.1678469,0.9472944,0.007443133,0.0576312776641648,-0.05423452147943686,9.551008403783468,-0.11995667,0.02090899,-0.02381727,-0.37545002,-0.36877513,-3.0,0.0,1.2342961,1.1680676,0.0,0.059292942,-0.015081553,9.828388,-0.11664028,-0.18736608,0.0,0.049405534,0.7280145660026212,-0.11606408655643463,0.041729990392923355,-0.008337140083312988
19.801351070404053,-0.37439618,-0.04556857,-3.0573585,0.007200538008195381,nan,nan,nan,nan,9.798270463943481,0.0002758502960205078,1.1975554,0.99392915,0.009033933,0.0463577819817326,-0.05100424464697295,9.539399614145783,-0.14080662,0.051192157,-0.021628214,-0.25282237,-0.2507942,-3.0,0.0,1.2465563,1.2164755,0.0,0.04034897,-0.010165708,9.818499,-0.082487255,-0.19550005,0.0,0.05003898,0.7275659190954298,-0.1312815546989441,0.05047522485256195,-0.002058252692222595
19.901172399520874,-0.25313717,0.06517958,-3.0567837,0.00659963487994584,nan,nan,nan,nan,9.898106813430786,0.0002689361572265625,1.2274791,1.0323608,0.011280206,0.03093648434846026,-0.04493499703861903,9.531913468500402,-0.1581427,0.061614726,-0.015390872,-0.12795538,-0.12769324,-3.0,0.0,1.2540627,1.2463499,0.0,0.02055216,-0.0051481803,9.812202,-0.042995267,-0.2005429,0.0,0.050434083,0.7272764559315436,-0.1597295105457306,0.07648767530918121,0.0018993616104125977
20.003427982330322,-0.13987024,0.16802937,-3.055972,0.006375529360337885,nan,nan,nan,nan,10.000882625579834,0.0005512237548828125,1.248169,1.0509117,0.013312431,0.014920158347338189,-0.0381675605219336,9.53069161549936,-0.17982358,0.08310818,-0.012102577,0.0011104265,0.0011104264,-3.0,0.0,1.2566369,1.2566364,0.0,-0.00017874771,4.4686934e-05,9.81,0.0003768763,-0.20228346,0.0,0.050570887,0.7272292003451458,-0.1687462031841278,0.07511255145072937,0.003072179853916168
20.104915380477905,-0.016941179,0.27872667,-3.0540447,0.006526762490809053,nan,nan,nan,nan,10.102029800415039,0.00034117698669433594,1.260958,1.0514898,0.015626663,-0.0046147313938945615,-0.02924317144846289,9.53360865657012,-0.19075276,0.076113656,-0.0059333974,0.12812738,0.12786418,-3.0,0.0,1.2540557,1.2463222,0.0,-0.020579666,0.0051550977,9.812208,0.043051902,-0.2005382,0.0,0.050433706,0.7273420128993593,-0.17070896923542023,0.07126857340335846,0.0010626763105392456
20.205976247787476,0.096614726,0.37815657,-3.0515382,0.006870549372194947,nan,nan,nan,nan,10.20302414894104,0.00048542022705078125,1.265082,1.0326488,0.017607523,-0.022806251805510366,-0.022430357460040407,9.539844253703757,-0.18824698,0.06641951,-0.0021187987,0.25443593,0.2523686,-3.0,0.0,1.2464267,1.2159612,0.0,-0.04060199,0.010230478,9.818605,0.082971215,-0.1954134,0.0,0.05003221,0.7275831081836365,-0.16242077946662903,0.06222191080451012,0.0002054162323474884
20.319790601730347,0.21945316,0.48080274,-3.04855,0.007234441505708525,nan,nan,nan,nan,10.317975759506226,0.0007855892181396484,1.2628639,0.9922839,0.01962198,-0.04208515121359245,-0.015850583231926674,9.550452919423385,-0.18072242,0.057323202,-0.00059731485,0.39692736,0.3890318,-3.0,0.0,1.2316405,1.1576447,0.0,-0.062541604,0.015940983,9.830466,0.121992685,-0.18562062,0.0,0.04927021,0.7279931043154099,-0.15163758397102356,0.0494593046605587,6.530806422233582e-05
20.40398383140564,0.31391883,0.555059,-3.0461488,0.007400876593352944,nan,nan,nan,nan,10.401198625564575,0.0004773139953613281,1.2571887,0.9476468,0.021190917,-0.05621018379921234,-0.011575010260252094,9.564092462628883,-0.1725058,0.043938454,-0.0004322234,0.49883872,0.4830732,-3.0,0.0,1.2169218,1.1002862,0.0,-0.077605166,0.020011691,9.841586,0.14429031,-0.1760509,0.0,0.048531797,0.728519901189024,-0.14173978567123413,0.05254676565527916,0.0011032801121473312
20.501535892486572,0.42707992,0.63646376,-3.0434139,0.007347977321386472,nan,nan,nan,nan,10.498474597930908,0.0003628730773925781,1.247143,0.87857467,0.02264403,-0.07202377027155352,-0.006588355531124801,9.585704191893141,-0.15368295,0.056243997,0.0013454424,0.6162103,0.5862331,-3.0,0.0,1.1955045,1.0180551,0.0,-0.09408856,0.024683472,9.856586,0.16264081,-0.16243201,0.0,0.04749056,0.7293538373887404,-0.12328476458787918,0.06280209869146347,0.0016861073672771454
20.60510563850403,0.5584625,0.71821994,-3.0408647,0.006730950146140696,nan,nan,nan,nan,10.602341890335083,0.0004000663757324219,1.2294683,0.77844363,0.02360342,-0.08787536105443115,0.0006958457287571385,9.609642030566738,-0.1251533,0.0684487,0.0019560026,0.7389844,0.6866893,-3.0,0.0,1.1677097,0.9135136,0.0,-0.11009091,0.029550334,9.874062,0.17204379,-0.14527518,0.0,0.046192672,0.7302764350881868,-0.08898957818746567,0.07525129616260529,0.0017846152186393738
20.701744318008423,0.6606757,0.7712844,-3.0391955,0.005933953248450412,nan,nan,nan,nan,10.698824644088745,0.0003948211669921875,1.2105472,0.6874605,0.023809582,-0.09800947516599262,0.007023778379093848,9.632848506241844,-0.10181083,0.0728361,0.0015480719,0.85022235,0.76957124,-3.0,0.0,1.1374339,0.80243945,0.0,-0.12325161,0.03394293,9.890683,0.17093371,-0.12721808,0.0,0.04483973,0.7311697486970162,-0.08165735006332397,0.06751957535743713,0.003897137939929962
20.806187391281128,0.76998514,0.8181283,-3.0371926,0.0048431592736783505,nan,nan,nan,nan,10.803839206695557,0.0007910728454589844,1.1835558,0.5794536,0.023328496,-0.1064354788467467,0.014311311585986308,9.655616906255286,-0.06805053,0.07605108,0.0017414299,0.96773225,0.84690315,-3.0,0.0,1.099736,0.6682132,0.0,-0.13549255,0.03856842,9.90811,0.15916935,-0.10560109,0.0,0.04323121,0.732045153796578,-0.0841868668794632,0.054903365671634674,0.006533650681376457
20.90267562866211,0.88479924,0.85473204,-3.034874,0.0035697202111122997,nan,nan,nan,nan,10.899864435195923,0.00046563148498535156,1.1471497,0.45477465,0.02208563,-0.11329118014658365,0.021587364198243364,9.674677023112578,-0.059358515,0.062452246,0.0016893621,1.0715101,0.9047547,-3.0,0.0,1.061071,0.5352432,0.0,-0.14462347,0.042644776,9.922516,0.13956079,-0.084369674,0.0,0.04165477,0.7327771885586941,-0.06195102632045746,0.05232412740588188,0.007846752181649208
21.005115270614624,0.98681945,0.87481326,-3.0329928,0.002592066285850486,nan,nan,nan,nan,11.002908706665039,0.0006706714630126953,1.1075715,0.33342904,0.019983841,-0.11915973293831694,0.027140308352663567,9.692654107779068,-0.05405379,0.052615434,0.0044805696,1.1785258,0.95217973,-3.0,0.0,1.0152891,0.383951,0.0,-0.15209076,0.046845675,9.935465,0.110528275,-0.060386755,0.0,0.03986515,0.7334669672018549,-0.05938027799129486,0.04551684111356735,0.011181231588125229
21.10799503326416,1.0919222,0.8818471,-3.0311968,0.0017345681918902942,nan,nan,nan,nan,11.105306386947632,0.0004894733428955078,1.0588467,0.19641845,0.016621908,-0.12480813122710468,0.03230916201384382,9.701770584031744,-0.051641,0.044687316,0.0047169523,1.2799795,0.983515,-3.0,0.0,0.96557915,0.22723307,0.0,-0.15701532,0.05083277,9.945028,0.07540731,-0.035683792,0.0,0.037994053,0.7338165208896957,-0.030235713347792625,0.04320989176630974,0.012951314449310303
21.20166277885437,1.1685138,0.8767692,-3.0300062,0.001219509218744294,nan,nan,nan,nan,11.19866943359375,0.00031685829162597656,1.0173421,0.087833084,0.013674218,-0.12852127650289985,0.03594887016758008,9.707278141759144,-0.03398378,0.041550938,0.007818214,1.3678751,0.99792033,-3.0,0.0,0.9167678,0.08100146,0.0,-0.15927665,0.054297242,9.950429,0.039899424,-0.01271098,0.0,0.036208592,0.7340276179858222,-0.034288980066776276,0.03701944649219513,0.016851207241415977
21.39246368408203,1.3446382,0.82638043,-3.0296438,0.0006640420053636298,nan,nan,nan,nan,11.3894202709198,0.0002906322479248047,0.9025026,-0.18510588,0.0065420857,-0.1295927549327049,0.04397818629547556,9.710311458271736,0.023702227,0.034384854,0.012166537,1.5325185,0.98469144,-3.0,0.0,0.80742896,-0.21904004,0.0,-0.15720007,0.060837567,9.950882,-0.0346701,0.034395173,0.0,0.03230496,0.7341438552537807,0.03575799986720085,0.031995635479688644,0.016199268400669098
21.40252161026001,1.351168,0.82326645,-3.0297334,0.0006587977044682503,nan,nan,nan,nan,11.399672031402588,0.00033020973205566406,0.89764833,-0.19584817,0.0061741094,-0.1294153113063096,0.04427753988895411,9.70959587336778,0.026252996,0.03440538,0.011712673,1.5407639,0.98236436,-3.0,0.0,0.80121005,-0.23496188,0.0,-0.15683463,0.061167605,9.950507,-0.03850924,0.036899604,0.0,0.032084405,0.7341164355400965,0.03127945214509964,0.0321502760052681,0.016721606254577637
21.508585214614868,1.4326198,0.7757378,-3.0313144,0.0007850737628094517,nan,nan,nan,nan,11.505475044250488,0.00033855438232421875,0.83228433,-0.33244136,0.0015708802,-0.12596416641787408,0.04802984199041238,9.699584326830498,0.056461856,0.030460898,0.015017757,1.6220689,0.9489077,-3.0,0.0,0.73513067,-0.3965366,0.0,-0.1515761,0.06443919,9.944423,-0.075667016,0.062375996,0.0,0.029735688,0.7337327080519005,0.04398759454488754,0.029621165245771408,0.01628650166094303
21.601404666900635,1.4962387,0.72578686,-3.0331678,0.0010333332143872553,nan,nan,nan,nan,11.598321199417114,0.0002913475036621094,0.77504396,-0.4418301,-0.002153022,-0.12028972145074904,0.05078131119479368,9.684051793602103,0.073521435,0.027828518,0.014683333,1.6875247,0.90572315,-3.0,0.0,0.6744585,-0.5326505,0.0,-0.14477614,0.06709976,9.936075,-0.10322428,0.083957255,0.0,0.02755644,0.7331369772932897,0.037065114825963974,0.031068576499819756,0.016046129167079926
21.70253562927246,1.5694712,0.6506786,-3.0358598,0.0014224780386252467,nan,nan,nan,nan,11.69945478439331,0.00040984153747558594,0.69904965,-0.57035744,-0.0064853905,-0.11239560829412538,0.05427666594747893,9.665411333081119,0.07553759,0.026247147,0.016384436,1.7522835,0.8446945,-3.0,0.0,0.60576636,-0.67261344,0.0,-0.13514349,0.06976085,9.92441,-0.1260883,0.10630659,0.0,0.025043344,0.7324214148303023,0.06831950694322586,0.025036951526999474,0.013102386146783829
21.806926488876343,1.6213093,0.5833456,-3.0377786,0.0017546877717888806,nan,nan,nan,nan,11.804277181625366,0.000431060791015625,0.63808423,-0.6625818,-0.0090378355,-0.10521418933955673,0.05673280972233963,9.648810922589892,0.086367585,0.024973,0.01449142,1.8119363,0.76707584,-3.0,0.0,0.5319922,-0.8062036,0.0,-0.12285597,0.072242275,9.910353,-0.14044927,0.12782738,0.0,0.022273218,0.7317835838978389,0.03862621635198593,0.03354266285896301,0.014177164062857628
21.90540361404419,1.6718597,0.5024028,-3.0400233,0.002092085780575556,nan,nan,nan,nan,11.902771711349487,0.0004887580871582031,0.57016736,-0.7540372,-0.011019,-0.09769692924624289,0.059509639271966286,9.629800485607976,0.076412745,0.029181642,0.015124188,1.8608327,0.68200314,-3.0,0.0,0.46056283,-0.91904056,0.0,-0.10934562,0.07430128,9.896245,-0.14444202,0.14617814,0.0,0.01951023,0.7310524791572797,0.05174659937620163,0.03521216660737991,0.012346373870968819
22.00621747970581,1.7123033,0.42156002,-3.0422745,0.0023901324388095405,nan,nan,nan,nan,12.003580331802368,0.0004680156707763672,0.50627995,-0.83044356,-0.012070619,-0.09085864227044768,0.06234825538743016,9.61259716728031,0.07364188,0.033119928,0.015017773,1.9034984,0.58413965,-3.0,0.0,0.38563284,-1.0199535,0.0,-0.093754545,0.07611878,9.881887,-0.13877037,0.16274516,0.0,0.016521882,0.7303902504575576,0.055809274315834045,0.04201250895857811,0.011398844420909882
22.106959104537964,1.7473005,0.33558023,-3.0442216,0.002621103105782875,nan,nan,nan,nan,12.104337453842163,0.00040149688720703125,0.44062313,-0.89895993,-0.012397148,-0.08422522183814107,0.0656733403601033,9.596739925232523,0.072391726,0.038608443,0.014772324,1.938515,0.4769692,-3.0,0.0,0.309194,-1.1044835,0.0,-0.07662842,0.077626504,9.868591,-0.12365117,0.17674915,0.0,0.013380992,0.7297793128983,0.07536239922046661,0.04551802948117256,0.009022422134876251
22.203566312789917,1.7820446,0.22892834,-3.045895,0.002873858598802126,nan,nan,nan,nan,12.200722932815552,0.0003972053527832031,0.3607744,-0.9696002,-0.011663181,-0.07458688829408423,0.06962527470267577,9.580683566418283,0.11029834,0.035548054,0.013789599,1.9647446,0.36727977,-3.0,0.0,0.23490961,-1.1688113,0.0,-0.059053075,0.07876617,9.857694,-0.10129684,0.18749073,0.0,0.010248069,0.7291601893886918,0.13786360621452332,0.02824283018708229,0.0034918691962957382
22.307177543640137,1.8089421,0.11717389,-3.0468297,0.0030726576811877376,nan,nan,nan,nan,12.304288625717163,0.0003752708435058594,0.2784281,-1.0263186,-0.009569701,-0.06039388568729209,0.07282852199522605,9.568811194610591,0.15592131,0.025975311,0.010860926,1.9848977,0.24346584,-3.0,0.0,0.15413803,-1.2188243,0.0,-0.03917117,0.07964818,9.848754,-0.07029257,0.19589587,0.0,0.006767895,0.7287020641989633,0.17465801537036896,0.01648300141096115,-0.0007721278816461563
22.40182590484619,1.8250402,0.019411478,-3.0474844,0.0030592391202129005,nan,nan,nan,nan,12.398954629898071,0.0003635883331298828,0.20734826,-1.0605016,-0.007916629,-0.04510847178444722,0.07484251060822356,9.559417217609283,0.19056544,0.017632397,0.009962859,1.9959706,0.12663631,-3.0,0.0,0.079728566,-1.2465202,0.0,-0.020382095,0.080135256,9.843628,-0.03746952,0.20057167,0.0,0.0035135408,0.7283393726358657,0.18477335572242737,0.01671549305319786,-0.002555503509938717
22.501731634140015,1.8364652,-0.097010866,-3.048307,0.002768722219206151,nan,nan,nan,nan,12.49866271018982,0.00039386749267578125,0.12273624,-1.080463,-0.0053367815,-0.023827403696465715,0.0759711462285868,9.556095160816607,0.21333277,0.006337469,0.0063802404,1.9999993,0.0016796978,-3.0,0.0,0.0010553857,-1.2566353,0.0,-0.00027038454,0.080312915,9.841724,-0.0005013949,0.20228326,0.0,4.6572353e-05,0.7282110688696923,0.18582980334758759,0.007320130709558725,-0.0024786824360489845
22.60269594192505,1.8397063,-0.20378152,-3.0490563,0.0022260160481187095,nan,nan,nan,nan,12.60004210472107,0.0005285739898681641,0.044645395,-1.0779969,-0.0030827096,-0.0035888949310075666,0.0769456125389043,9.5570481577076,0.210355,0.010064642,0.0042989976,1.9960501,-0.125386,-3.0,0.0,-0.078938246,-1.2467197,0.0,0.020180915,0.08013876,9.843591,0.037106052,0.20060542,0.0,-0.0034788046,0.7282478775924409,0.17173105478286743,0.00911983847618103,-0.000309954397380352
