time,x,y,z,yaw,platform,trajectory,controller,feedforward,traj_time,comp_time,vx,vy,vz,roll,pitch,f,p,q,r,x_ref,y_ref,z_ref,yaw_ref,vx_ref,vy_ref,vz_ref,roll_ref,pitch_ref,f_ref,u_ff_df,u_ff_dphi,u_ff_dpsi,u_ff_dth,throttle,p_cmd,q_cmd,r_cmd
10.0295250415802,-0.024049606,-0.008214465,-2.6424537,0.013041302588570461,SIM,figure_eight,contraction,0.0,0.028951406478881836,0.00012993812561035156,-0.013571339,-0.007188396,-0.18973196,-0.0006339274854846163,-0.005194106500259421,9.815317360758783,0.008851262,-0.002167732,-0.030617513,0.036379404,0.036373388,-3.0,0.0,1.2564292,1.2558055,0.0,-0.005855035,0.0014639916,9.810179,0.0,0.0,0.0,0.0,0.7381565681657443,2.0741024017333984,-2.1607704162597656,-0.040787473320961
10.100823163986206,-0.026937071,-0.0100423265,-2.6607578,0.009797437763424288,nan,nan,nan,nan,0.09999728202819824,0.0001957416534423828,-0.007877984,-0.0036318214,-0.19447744,0.014503999149279034,-0.025205492769065474,9.813717446997762,0.51541317,-0.6309631,-0.017209772,0.12557764,0.12532985,-3.0,0.0,1.2541575,1.2467287,0.0,-0.020171879,0.005052555,9.812121,0.0,0.0,0.0,0.0,0.7380955902713735,2.021942138671875,-2.1291849613189697,-0.007026528939604759
10.20126461982727,-0.026968049,-0.008549304,-2.685164,0.0034238698318890606,nan,nan,nan,nan,0.20057368278503418,0.00030732154846191406,0.056474417,0.05054207,-0.26714242,0.10058967451633427,-0.12720936450669895,9.602884934619071,1.4357646,-1.7929025,0.012829127,0.2513817,0.2493881,-3.0,0.0,1.2466713,1.2169319,0.0,-0.040122993,0.010107877,9.818403,0.0,0.0,0.0,0.0,0.7300161236992221,1.474472999572754,-1.4663991928100586,0.11759438365697861
10.300677299499512,-0.011943632,0.0062659667,-2.7141247,-0.024683593215947083,nan,nan,nan,nan,0.2998535633087158,0.00018334388732910156,0.27231166,0.24009663,-0.25079015,0.26756367057057057,-0.2891775507136263,9.590041008293628,1.3096948,-1.0789618,0.033457395,0.3745819,0.36795348,-3.0,0.0,1.2344003,1.1684767,0.0,-0.059161138,0.015046804,9.828306,0.0,0.0,0.0,0.0,0.7295210697170402,0.15674272179603577,-0.057533979415893555,0.3491824269294739
10.40172815322876,0.032077022,0.046179548,-2.736079,-0.029238011554995447,nan,nan,nan,nan,0.4010794162750244,0.00024366378784179688,0.56655896,0.52959085,-0.17735079,0.3331390038177695,-0.32135889118162675,9.706480623781681,0.018730624,0.31723943,0.09146865,0.4986935,0.4829419,-3.0,0.0,1.2169453,1.1003772,0.0,-0.07758415,0.0200059,9.841569,0.0,0.0,0.0,0.0,0.7339970539296395,-0.9759185314178467,0.8225347995758057,0.2404211163520813
10.502140998840332,0.11192331,0.11913087,-2.7494829,0.0009037985766743306,nan,nan,nan,nan,0.5015246868133545,0.00021982192993164062,0.8443056,0.82425886,-0.112120315,0.2696252806917958,-0.2616788238990855,9.796951721012592,-1.0534106,0.9517705,0.14751597,0.61985594,0.58933425,-3.0,0.0,1.1947603,1.0152236,0.0,-0.09458334,0.024828289,9.857082,0.0,0.0,0.0,0.0,0.7374562949604574,-1.390201210975647,0.9237126111984253,-0.05163919925689697
10.603000402450562,0.23259588,0.22831906,-2.7580867,0.025072723925069644,nan,nan,nan,nan,0.6023609638214111,0.0003345012664794922,1.0739845,1.0316406,-0.096039936,0.12048662561025633,-0.16832740415314174,9.816286712363363,-1.4489628,0.8513891,0.14322451,0.7390068,0.68670684,-3.0,0.0,1.1677041,0.9134928,0.0,-0.1100937,0.029551223,9.874064,0.0,0.0,0.0,0.0,0.7381935108767326,-1.0313255786895752,0.5893946886062622,-0.15941482782363892
10.70128583908081,0.35480815,0.32941395,-2.7652652,0.015920543190827842,nan,nan,nan,nan,0.7006621360778809,0.00018596649169921875,1.2196618,1.0667468,-0.11031056,-0.0009646399877148732,-0.11240349503934066,9.784022740051151,-1.1310794,0.5680817,0.09468281,0.8523114,0.77104336,-3.0,0.0,1.1368166,0.8002047,0.0,-0.12348499,0.03402528,9.890998,0.0,0.0,0.0,0.0,0.7369629252410211,-0.5338597297668457,0.44601476192474365,-0.01816558837890625
10.801097631454468,0.51579714,0.4390658,-2.7759283,-0.02094003235930115,nan,nan,nan,nan,0.8004200458526611,0.0001900196075439453,1.3514751,0.9731323,-0.12800378,-0.09230395702698593,-0.06735780983495121,9.748079693242909,-0.5875982,0.4850503,0.044277035,0.96396995,0.8446107,-3.0,0.0,1.1010396,0.67277956,0.0,-0.13513024,0.038420513,9.907564,0.0,0.0,0.0,0.0,0.7355896237305585,-0.1089361310005188,0.48721760511398315,0.16287434101104736
10.900696516036987,0.6724894,0.5197605,-2.7879815,-0.06265981371960502,nan,nan,nan,nan,0.8998749256134033,0.0001404285430908203,1.4187062,0.82138294,-0.13939312,-0.12735035754824656,-0.022408345499864035,9.716678058430553,-0.15581135,0.5075971,0.03694539,1.0715209,0.9047601,-3.0,0.0,1.0610666,0.5352287,0.0,-0.14462434,0.042645205,9.922518,0.0,0.0,0.0,0.0,0.7343877655595895,0.037948980927467346,0.4323790669441223,0.278281569480896
11.00070595741272,0.8402323,0.5823496,-2.802972,-0.09846339355020772,nan,nan,nan,nan,0.999891996383667,0.0001399517059326172,1.4150461,0.64778924,-0.14822963,-0.13022866860625915,0.029545046830365296,9.69067743234336,0.03940289,0.40625024,0.079352774,1.1754607,0.9510146,-3.0,0.0,1.0166909,0.38848448,0.0,-0.1519075,0.046725333,9.93513,0.0,0.0,0.0,0.0,0.7333911537142315,-0.015118438750505447,0.2543252110481262,0.37110504508018494
11.100543737411499,0.9843991,0.6198676,-2.8183777,-0.11409773782465313,nan,nan,nan,nan,1.0997717380523682,0.00014591217041015625,1.3486592,0.50282353,-0.15441579,-0.12569426451269466,0.06643488884328219,9.673029009327287,-0.0071138684,0.22683433,0.14729981,1.274627,0.98223346,-3.0,0.0,0.96837044,0.23582439,0.0,-0.15681405,0.050622184,9.944605,0.0,0.0,0.0,0.0,0.7327139224063881,-0.14232125878334045,0.06729957461357117,0.421424925327301
11.201009273529053,1.1027604,0.6413315,-2.8334055,-0.11225266465823161,nan,nan,nan,nan,1.2001898288726807,0.00019121170043945312,1.2530051,0.3825376,-0.15763406,-0.12736260114101325,0.08435366104674058,9.661015659421677,-0.10074635,0.04909296,0.21742822,1.3692681,0.9980417,-3.0,0.0,0.9159464,0.078605704,0.0,-0.15929571,0.054352272,9.950489,0.0,0.0,0.0,0.0,0.7322525749708508,-0.23701325058937073,-0.06376288831233978,0.4282821714878082
11.301173210144043,1.2227695,0.6535177,-2.8518884,-0.09323719990117302,nan,nan,nan,nan,1.3003625869750977,0.00013017654418945312,1.1220944,0.2423426,-0.15833685,-0.1387981895149338,0.08850731375294307,9.65131286643445,-0.18665783,-0.09245038,0.29102433,1.4582492,0.997998,-3.0,0.0,0.86001855,-0.079476394,0.0,-0.15928884,0.05787674,9.952449,0.0,0.0,0.0,0.0,0.7318797501815962,-0.21375665068626404,-0.1391577273607254,0.3684811592102051
11.401039838790894,1.316209,0.6528581,-2.8690314,-0.06470574013616298,nan,nan,nan,nan,1.400273323059082,0.0001811981201171875,1.0031844,0.10302692,-0.15649882,-0.15275874207134815,0.08224005334183593,9.641351822018619,-0.18407218,-0.16152151,0.33672714,1.5412455,0.9822228,-3.0,0.0,0.80084425,-0.23589438,0.0,-0.1568124,0.06118689,9.950484,0.0,0.0,0.0,0.0,0.7314968072082716,-0.15183290839195251,-0.15019123256206512,0.2696385979652405
11.500920295715332,1.3955399,0.63893,-2.8858304,-0.03178391754234729,nan,nan,nan,nan,1.5001025199890137,0.0001595020294189453,0.89646775,-0.049461253,-0.15229835,-0.16502539988896853,0.07267610678300152,9.630791234895582,-0.13768026,-0.16075681,0.345695,1.6181097,0.95101666,-3.0,0.0,0.73856723,-0.3884763,0.0,-0.15190782,0.064279094,9.944824,0.0,0.0,0.0,0.0,0.7310905992789607,-0.061647869646549225,-0.12235423922538757,0.14707297086715698
11.600817680358887,1.4692554,0.60663474,-2.9032474,0.0021698585125808356,nan,nan,nan,nan,1.6000053882598877,0.00015544891357421875,0.79826313,-0.22666368,-0.14592507,-0.1721245835837955,0.06406168678257762,9.620318208783862,-0.05727559,-0.12261828,0.31429845,1.6886594,0.90482414,-3.0,0.0,0.67333627,-0.5350578,0.0,-0.14463444,0.06714613,9.935901,0.0,0.0,0.0,0.0,0.7306875393324396,0.05819259211421013,-0.0775519460439682,0.011543932370841503
11.701024055480957,1.5296029,0.5606731,-2.9184444,0.02802411884453737,nan,nan,nan,nan,1.7003679275512695,0.0002484321594238281,0.72209156,-0.39379016,-0.13991995,-0.17168129826904135,0.059483337224605304,9.602994087189433,0.03190596,-0.07435654,0.25384665,1.7528361,0.84408003,-3.0,0.0,0.6051349,-0.67383045,0.0,-0.13504638,0.06978369,9.924295,0.0,0.0,0.0,0.0,0.7300203294370305,0.13542456924915314,-0.03426428139209747,-0.09406173229217529
11.800949335098267,1.5878708,0.493664,-2.933736,0.04740109322692124,nan,nan,nan,nan,1.800255537033081,0.000186920166015625,0.6493523,-0.56928,-0.13371776,-0.16141039523540118,0.05798548257568803,9.58001079201698,0.1439589,-0.028752955,0.16155507,1.8097908,0.7703085,-3.0,0.0,0.53486747,-0.80132157,0.0,-0.12336849,0.07215247,9.910917,0.0,0.0,0.0,0.0,0.7291342362935458,0.20795702934265137,-0.002568870782852173,-0.17815014719963074
11.90054178237915,1.6362653,0.41759247,-2.9471502,0.05577872832181213,nan,nan,nan,nan,1.8997182846069336,0.0001380443572998047,0.58568764,-0.7160107,-0.12862024,-0.14480251317720058,0.05853313685589079,9.557050149291747,0.18799347,0.0017195576,0.07000216,1.8594226,0.68480515,-3.0,0.0,0.4628058,-0.91574436,0.0,-0.10979127,0.07424156,9.896687,0.0,0.0,0.0,0.0,0.7282479545138224,0.22645102441310883,0.020810425281524658,-0.21700268983840942
12.001187562942505,1.6828976,0.32142878,-2.9607432,0.051887668038021556,nan,nan,nan,nan,2.000412940979004,0.00011897087097167969,0.5147602,-0.8525,-0.123200156,-0.1226747021431166,0.06038597828094883,9.531703950613728,0.24326333,0.017533904,-0.024730807,1.9022733,0.5873654,-3.0,0.0,0.38801214,-1.0170239,0.0,-0.094269216,0.07606629,9.882328,0.0,0.0,0.0,0.0,0.7272683529701436,0.2428034096956253,0.025892414152622223,-0.2062305510044098
12.100703001022339,1.7201521,0.22249924,-2.9724946,0.03820675534018037,nan,nan,nan,nan,2.0998764038085938,0.0001323223114013672,0.44548517,-0.9529499,-0.11806378,-0.09877535012917335,0.06225357378219254,9.507339340895406,0.25789163,0.028422961,-0.09407217,1.9371277,0.48188978,-3.0,0.0,0.31260747,-1.1011055,0.0,-0.0774158,0.07756648,9.869145,0.0,0.0,0.0,0.0,0.726325460192105,0.22105009853839874,0.030568033456802368,-0.15396510064601898
12.200595617294312,1.7538266,0.10800323,-2.9846652,0.016599571667237814,nan,nan,nan,nan,2.199817657470703,0.00013947486877441406,0.36702278,-1.0320612,-0.11232423,-0.0728837897707117,0.06443301134627855,9.484227332621806,0.25314835,0.031419132,-0.13797982,1.9645315,0.36833742,-3.0,0.0,0.2356116,-1.1682857,0.0,-0.059222724,0.07875688,9.857785,0.0,0.0,0.0,0.0,0.7254299249312035,0.1993667483329773,0.024819962680339813,-0.06929077953100204
12.301738977432251,1.7781603,-0.0014828723,-2.9954824,-0.004915048788076828,nan,nan,nan,nan,2.3010611534118652,0.00017595291137695312,0.29271775,-1.0781467,-0.10606591,-0.050339496873913314,0.06674012405086982,9.465106828361742,0.24122086,0.027708072,-0.14404264,1.9843961,0.2473981,-3.0,0.0,0.15666713,-1.2175732,0.0,-0.03980317,0.07962616,9.848983,0.0,0.0,0.0,0.0,0.7246882258487748,0.1649818867444992,0.028439275920391083,0.01525901909917593
12.400783061981201,1.7968726,-0.11178864,-3.00574,-0.023984354752999586,nan,nan,nan,nan,2.400001287460327,0.0001842975616455078,0.21879633,-1.100383,-0.09847184,-0.02933059317684414,0.0691444284610796,9.452811186164613,0.21608783,0.035326924,-0.12399614,1.9960536,0.12533154,-3.0,0.0,0.07890383,-1.2467284,0.0,-0.02017215,0.080138914,9.843589,0.0,0.0,0.0,0.0,0.7242108725895101,0.13264955580234528,0.033996738493442535,0.09049125760793686
12.500904083251953,1.8098521,-0.22087985,-3.015372,-0.03773363946271361,nan,nan,nan,nan,2.500183582305908,0.00013327598571777344,0.14553986,-1.1010709,-0.089819334,-0.01072216736619915,0.07231865784550173,9.443162890300147,0.18768226,0.037572287,-0.081922784,2.0,-0.00023087661,-3.0,0.0,-0.00014506406,-1.2566371,0.0,3.7164704e-05,0.08031296,9.841723,0.0,0.0,0.0,0.0,0.7238360797313914,0.10639417171478271,0.038872309029102325,0.14453870058059692
12.6008882522583,1.8169608,-0.3271513,-3.0243134,-0.04506236514615779,nan,nan,nan,nan,2.600090503692627,0.00015306472778320312,0.07279962,-1.0837363,-0.08034613,0.005576454851893519,0.07555547666495377,9.437553093023594,0.15946218,0.04269601,-0.02550295,1.9960463,-0.1254462,-3.0,0.0,-0.078976296,-1.2467102,0.0,0.020190602,0.08013859,9.843593,0.0,0.0,0.0,0.0,0.7236180763326562,0.0915941372513771,0.04411984607577324,0.17261767387390137
12.70177173614502,1.8179675,-0.42910063,-3.0325642,-0.04594800954520314,nan,nan,nan,nan,2.701322078704834,0.00017976760864257812,-0.0011041558,-1.0512251,-0.069989234,0.019842099270788678,0.0799913172844191,9.437469302630046,0.13837017,0.050232116,0.030263476,1.9840205,-0.25029883,-3.0,0.0,-0.15853405,-1.2166367,0.0,0.040269356,0.07960968,9.8491535,0.0,0.0,0.0,0.0,0.7236148196472016,0.0893087163567543,0.04052466154098511,0.1735447496175766
12.800846338272095,1.8128163,-0.52568793,-3.0399873,-0.04127645854238896,nan,nan,nan,nan,2.800138235092163,0.0001647472381591797,-0.076258294,-1.005509,-0.058811486,0.033049435163086484,0.0833977395836567,9.443024789253242,0.12894328,0.033929598,0.075511456,1.9645419,-0.36828616,-3.0,0.0,-0.23557758,-1.1683112,0.0,0.059214506,0.07875732,9.85778,0.0,0.0,0.0,0.0,0.7238307137378905,0.09755440056324005,0.037022337317466736,0.15205436944961548
12.900883197784424,1.7998954,-0.623752,-3.0465574,-0.031399007648667834,nan,nan,nan,nan,2.900129556655884,0.00015807151794433594,-0.15874682,-0.9431836,-0.046146777,0.04698733569266193,0.08638869216758671,9.454284112686285,0.12193138,0.026887234,0.11115949,1.9371258,-0.4818964,-3.0,0.0,-0.3126121,-1.1011009,0.0,0.07741686,0.07756639,9.869145,0.0,0.0,0.0,0.0,0.724268072322033,0.1105128601193428,0.02113623544573784,0.10876140743494034
13.001787424087524,1.780642,-0.70761156,-3.0507774,-0.01991804254314563,nan,nan,nan,nan,3.001237392425537,0.00021886825561523438,-0.2362964,-0.8748449,-0.034007516,0.059920796379891415,0.08766488960632013,9.471095234984526,0.12777011,0.017513663,0.12355634,1.901632,-0.5890426,-3.0,0.0,-0.38925135,-1.0154909,0.0,0.09453681,0.07603885,9.882557,0.0,0.0,0.0,0.0,0.7249206012592122,0.13334877789020538,0.023175470530986786,0.060105159878730774
13.102937459945679,1.7509408,-0.78981197,-3.0535767,-0.0072561265433628355,nan,nan,nan,nan,3.102491617202759,0.0002422332763671875,-0.32179937,-0.78820777,-0.021029588,0.07514682545730322,0.08920884077134339,9.493949560457835,0.14115012,0.023191998,0.11707599,1.8583981,-0.68682617,-3.0,0.0,-0.46442756,-0.9133511,0.0,0.11011268,0.07419819,9.897005,0.0,0.0,0.0,0.0,0.7258067709100541,0.14139588177204132,0.0005535483360290527,0.005261275917291641
13.200888872146606,1.7182262,-0.8514928,-3.0545049,0.0021332814156520274,nan,nan,nan,nan,3.200167179107666,0.00017786026000976562,-0.39549997,-0.7042287,-0.010508201,0.08849332697703598,0.08918337689865563,9.519192133331664,0.14470972,0.0032033978,0.09809942,1.8095647,-0.7706471,-3.0,0.0,-0.5351694,-0.8008073,0.0,0.123422176,0.07214301,9.910975,0.0,0.0,0.0,0.0,0.7267843054105616,0.15944822132587433,0.0026822909712791443,-0.03453035280108452
13.300918102264404,1.6704024,-0.91359174,-3.0537088,0.010233833757179019,nan,nan,nan,nan,3.3002190589904785,0.00019407272338867188,-0.48255035,-0.5914021,0.0016192371,0.10460253402897107,0.08807854878571209,9.54811369248665,0.14661099,-0.010524837,0.06543396,1.7524806,-0.84447545,-3.0,0.0,-0.60554117,-0.67304754,0.0,0.13510886,0.069768995,9.924369,0.0,0.0,0.0,0.0,0.7279027191218739,0.14216163754463196,-0.0250370055437088,-0.06925401091575623
13.401761293411255,1.6226357,-0.9556975,-3.051838,0.013857751290476804,nan,nan,nan,nan,3.4012832641601562,0.0003879070281982422,-0.5551886,-0.4841662,0.0110434145,0.11753505109587431,0.08590379972291373,9.572092254245645,0.13920626,-0.026093833,0.03174672,1.6877912,-0.90551245,-3.0,0.0,-0.67419505,-0.5332159,0.0,0.14474292,0.06711066,9.936034,0.0,0.0,0.0,0.0,0.7288287005043024,0.14945688843727112,-0.01485338807106018,-0.08285948634147644
13.500937700271606,1.5631056,-0.98964185,-3.0489936,0.014571639388098322,nan,nan,nan,nan,3.500244140625,0.00016069412231445312,-0.6323194,-0.3558269,0.020406503,0.13113163707322867,0.08359598513534494,9.600311513030892,0.13000518,-0.029316345,-0.002060804,1.6178535,-0.9511513,-3.0,0.0,-0.7387888,-0.38795534,0.0,0.151929,0.06426874,9.94485,0.0,0.0,0.0,0.0,0.7299169607349724,0.12044616043567657,-0.028239987790584564,-0.08500145375728607
13.601408958435059,1.49052,-1.0111166,-3.0452805,0.011746446832641574,nan,nan,nan,nan,3.600764513015747,0.0002472400665283203,-0.7118564,-0.20410304,0.029541042,0.1432934176885865,0.08019437223910497,9.630711857164268,0.09235557,-0.051185023,-0.03463057,1.5404139,-0.9824668,-3.0,0.0,-0.8014757,-0.23428427,0.0,0.15685073,0.061153594,9.950523,0.0,0.0,0.0,0.0,0.7310875452094533,0.06310921907424927,-0.049479782581329346,-0.07177931815385818
13.711095333099365,1.4165562,-1.0162538,-3.041188,0.006906419888695281,nan,nan,nan,nan,3.710571765899658,0.002917766571044922,-0.7799908,-0.056527197,0.036210787,0.1494932199206833,0.0752903190249119,9.660224372679357,0.04503398,-0.06338977,-0.053699765,1.4488108,-0.9987728,-3.0,0.0,-0.8662932,-0.06223676,0.0,0.15941045,0.05750184,9.952428,0.0,0.0,0.0,0.0,0.7322221772016279,0.06140521913766861,-0.02313925325870514,-0.045590028166770935
13.801875352859497,1.336431,-1.0069258,-3.0360038,0.0010948335942645993,nan,nan,nan,nan,3.8014369010925293,0.0001914501190185547,-0.84215355,0.0939047,0.04104304,0.15207035817897943,0.07055995621242883,9.681019763583306,0.01773492,-0.05592246,-0.06232463,1.3677772,-0.9979117,-3.0,0.0,-0.91682535,0.08116955,0.0,0.15927531,0.054293387,9.950424,0.0,0.0,0.0,0.0,0.7330206318798999,0.018741361796855927,-0.030278421938419342,-0.019193748012185097
13.901888132095337,1.2501726,-0.9832722,-3.030225,-0.004224984789383601,nan,nan,nan,nan,3.9014737606048584,0.00033020973205566406,-0.89986455,0.24445347,0.043991666,0.15264516627122154,0.06701507146965868,9.700653370255592,0.0057341144,-0.04020772,-0.058780096,1.2734203,-0.98193854,-3.0,0.0,-0.9689969,0.23775613,0.0,0.15676774,0.050574712,9.944509,0.0,0.0,0.0,0.0,0.7337736923161949,-0.0046391976065933704,-0.028049923479557037,0.004754563793540001
14.010830163955688,1.1502988,-0.94186777,-3.0239127,-0.008531266345242816,nan,nan,nan,nan,4.010231018066406,0.00017213821411132812,-0.95873183,0.40538067,0.04499249,0.15072203666588446,0.06325772508154759,9.716645001852871,-0.032482874,-0.04934907,-0.045776095,1.165145,-0.9470051,-3.0,0.0,-1.0213679,0.40365508,0.0,0.15127681,0.04632032,9.933986,0.0,0.0,0.0,0.0,0.7343864993381104,-0.029924385249614716,-0.029060982167720795,0.023350372910499573
14.107275247573853,1.0528054,-0.88997567,-3.0181925,-0.011213125217137604,nan,nan,nan,nan,4.107144117355347,0.00036978721618652344,-1.0080942,0.5486879,0.04395551,0.14582503311285383,0.05905831742150025,9.724533721255124,-0.06600444,-0.053353928,-0.030274762,1.0640624,-0.90096796,-3.0,0.0,-1.0640258,0.54523677,0.0,0.14402655,0.04235239,9.921532,0.0,0.0,0.0,0.0,0.7346886131240576,-0.05587293207645416,-0.03280789405107498,0.03570578619837761
14.211508750915527,0.9593562,-0.83111495,-3.0128818,-0.012795577197182453,nan,nan,nan,nan,4.211164236068726,0.0012545585632324219,-1.0489029,0.67371655,0.041107956,0.13933939179228644,0.05507521631639811,9.727255162720091,-0.06886369,-0.036814947,-0.015946425,0.9511894,-0.83672756,-3.0,0.0,-1.105419,0.68815887,0.0,0.1338841,0.03791801,9.905704,0.0,0.0,0.0,0.0,0.7347928075645683,-0.041128192096948624,-0.006251022219657898,0.045391686260700226
14.302836894989014,0.8448636,-0.7485137,-3.0067134,-0.01343843826275077,nan,nan,nan,nan,4.302300214767456,0.0002529621124267578,-1.0925243,0.8124805,0.035587247,0.13105310527718397,0.05121054634061606,9.72199518767417,-0.09755274,-0.045959886,0.0022128865,0.8489419,-0.7686673,-3.0,0.0,-1.1378114,0.8038064,0.0,0.123108305,0.033892456,9.8904915,0.0,0.0,0.0,0.0,0.734591408440898,-0.11173392832279205,-0.04282688349485397,0.04522489383816719
14.40697717666626,0.7906465,-0.7059603,-3.00395,-0.013361551722005809,nan,nan,nan,nan,4.407210111618042,0.0007154941558837891,-1.1108913,0.8725843,0.032850835,0.12589314909931942,0.04884759952003748,9.715974258158807,-0.11339034,-0.045871645,0.009015424,0.7278171,-0.67791414,-3.0,0.0,-1.1704754,0.9238056,0.0,0.108695194,0.029108493,9.87242,0.0,0.0,0.0,0.0,0.7343608062533488,-0.004784390330314636,0.06123021990060806,0.056028008460998535
14.514243602752686,0.6417906,-0.58032423,-2.997245,-0.01145285184396315,nan,nan,nan,nan,4.51403284072876,0.00033664703369140625,-1.1547121,1.0163664,0.023537092,0.11004266304770988,0.04398610803564251,9.707132709298735,-0.09883364,0.0042193136,0.024096377,0.60123897,-0.57342815,-3.0,0.0,-1.1985103,1.0295074,0.0,0.09204512,0.024088597,9.854564,0.0,0.0,0.0,0.0,0.734022044529968,-0.0965176522731781,0.0019964948296546936,0.04237830638885498
14.617579936981201,0.50740874,-0.45822838,-2.9929228,-0.007956408434575152,nan,nan,nan,nan,4.618003845214844,0.00047659873962402344,-1.1900856,1.1231683,0.013815154,0.09592434497685785,0.04117128089145217,9.689094457600719,-0.15746927,-0.047516674,0.032793123,0.47543475,-0.46180612,-3.0,0.0,-1.2206148,1.114613,0.0,0.07420144,0.019077975,9.83886,0.0,0.0,0.0,0.0,0.7333304346629177,-0.1646500527858734,-0.046786829829216,0.02141658589243889
14.720428943634033,0.37930718,-0.33662653,-2.9901423,-0.004338276314782896,nan,nan,nan,nan,4.720189809799194,0.0004513263702392578,-1.2178993,1.2021571,0.004893714,0.07625655189425075,0.03409299465834703,9.676685936723358,-0.2027682,-0.06308698,0.03299128,0.34981096,-0.3444187,-3.0,0.0,-1.2372663,1.1797512,0.0,0.055385116,0.014054943,9.826036,0.0,0.0,0.0,0.0,0.7328543021278127,-0.18371278047561646,-0.055903948843479156,0.007303524762392044
14.809937477111816,0.26849458,-0.22941092,-2.9883673,-0.0010509509319277383,nan,nan,nan,nan,4.809855699539185,0.0003445148468017578,-1.2363408,1.2504671,-0.0031775276,0.0578628949206977,0.028567796499160636,9.654525769625312,-0.21569255,-0.06404512,0.028800832,0.23837444,-0.23667525,-3.0,0.0,-1.2476796,1.2209345,0.0,0.0380797,0.009585664,9.817569,0.0,0.0,0.0,0.0,0.7320032250657731,-0.18460871279239655,-0.061090391129255295,-0.00686133187264204
14.904656410217285,0.14555405,-0.11099356,-2.9869885,0.0026581810087567756,nan,nan,nan,nan,4.904208183288574,0.00035262107849121094,-1.2520005,1.2817296,-0.010803395,0.03700480724448539,0.022203223064026778,9.631587934617409,-0.21658723,-0.070566155,0.02178973,0.1203028,-0.12008496,-3.0,0.0,-1.2543616,1.2475436,0.0,0.019327926,0.004840408,9.811948,0.0,0.0,0.0,0.0,0.7311212517170496,-0.1805308759212494,-0.07239261269569397,-0.022447487339377403
15.001406908035278,0.010651144,0.017333316,-2.98631,0.006524257486627598,nan,nan,nan,nan,5.000863552093506,0.00020647048950195312,-1.2622554,1.2911915,-0.017400874,0.014310760066752574,0.014006392422029057,9.61013854545773,-0.21182029,-0.08188295,0.011047157,-0.0010854561,0.001085456,-3.0,0.0,-1.256637,1.2566364,0.0,-0.00017472818,-4.368205e-05,9.81,0.0,0.0,0.0,0.0,0.7302955592930551,-0.17052258551120758,-0.08304756879806519,-0.0366506353020668
15.102849006652832,-0.11429118,0.13445413,-2.9864995,0.009127847423591177,nan,nan,nan,nan,5.102228403091431,0.00022363662719726562,-1.2634633,1.279021,-0.021965241,-0.005428207752346606,0.006471841321146865,9.594586468760378,-0.19583711,-0.07608629,-0.0008794275,-0.1283756,0.12811087,-3.0,0.0,-1.2540457,1.2462822,0.0,-0.020619359,-0.00516508,9.812217,0.0,0.0,0.0,0.0,0.7296963070055938,-0.15729708969593048,-0.0701274648308754,-0.04534505680203438
15.214038133621216,-0.23776418,0.24776243,-2.9871335,0.010260059895585077,nan,nan,nan,nan,5.213810920715332,0.0003304481506347656,-1.2563337,1.2482193,-0.02514982,-0.023523594726677654,-0.0002078735649950758,9.577392120857244,-0.17994113,-0.06669611,-0.013402165,-0.26787567,0.26546204,-3.0,0.0,-1.2453145,1.2115506,0.0,-0.042706013,-0.010769885,9.819522,0.0,0.0,0.0,0.0,0.7290332091737843,-0.1539849042892456,-0.042493127286434174,-0.049793798476457596
15.302894353866577,-0.35892048,0.3553191,-2.988186,0.009815877160059164,nan,nan,nan,nan,5.302337884902954,0.0009937286376953125,-1.241789,1.2003071,-0.026132256,-0.04058862404430871,-0.006179217400865911,9.57173110989154,-0.17046309,-0.05594202,-0.02474817,-0.37764785,0.37085432,-3.0,0.0,-1.2340314,1.1670276,0.0,-0.05962645,-0.015169525,9.828596,0.0,0.0,0.0,0.0,0.7288147627818307,-0.1500054895877838,-0.04339384660124779,-0.046785056591033936
15.4019136428833,-0.48672834,0.46427137,-2.9897897,0.007801042152071957,nan,nan,nan,nan,5.4013352394104,0.00022745132446289062,-1.2192994,1.130466,-0.025875486,-0.058220851308148774,-0.01134342719092074,9.56769883669213,-0.16100147,-0.04377117,-0.034262534,-0.49900478,0.48322335,-3.0,0.0,-1.216895,1.1001822,0.0,-0.077629186,-0.020018315,9.841605,0.0,0.0,0.0,0.0,0.7286591265259593,-0.14321647584438324,-0.04180920869112015,-0.03896220028400421
15.502177476882935,-0.60063714,0.55642796,-2.9913425,0.004849687618979019,nan,nan,nan,nan,5.5015716552734375,0.00022292137145996094,-1.1926608,1.05097,-0.024222746,-0.0736561034655055,-0.015561965939750788,9.5689881829894,-0.15733673,-0.030170444,-0.039308827,-0.619912,0.58938193,-3.0,0.0,-1.1947489,1.01518,0.0,-0.09459095,-0.024830515,9.85709,0.0,0.0,0.0,0.0,0.7287088958248334,-0.1420384794473648,-0.028679227456450462,-0.028919707983732224
15.601609945297241,-0.7185474,0.6459202,-2.9930732,0.0007971666839868274,nan,nan,nan,nan,5.601132869720459,0.0002269744873046875,-1.1588335,0.94861096,-0.021212595,-0.08992217617085298,-0.018732831708857978,9.575362024453918,-0.14490277,-0.02582362,-0.039805595,-0.7375728,0.68558437,-3.0,0.0,-1.168062,0.91482323,0.0,-0.10991519,-0.029494492,9.873854,0.0,0.0,0.0,0.0,0.7289548794910501,-0.1246587485074997,-0.027762554585933685,-0.014652966521680355
15.702430009841919,-0.81360906,0.71244377,-2.9940825,-0.002830774331045144,nan,nan,nan,nan,5.702138423919678,0.0006949901580810547,-1.1268947,0.85040134,-0.0181342,-0.10212485695433945,-0.021337625302948915,9.585381180269161,-0.12842035,-0.02218668,-0.038305957,-0.85398954,0.77222353,-3.0,0.0,-1.1363193,0.7984056,0.0,-0.12367209,-0.034091435,9.89125,0.0,0.0,0.0,0.0,0.7293413801977582,-0.13561221957206726,-0.010694116353988647,-0.005046861246228218
15.801315784454346,-0.9126098,0.7743884,-2.9949183,-0.00661073008984342,nan,nan,nan,nan,5.800710439682007,0.0001995563507080078,-1.0896777,0.732955,-0.013990885,-0.1142557256052519,-0.023420815039121967,9.601397381050031,-0.12361686,-0.008737359,-0.03142628,-0.96428996,0.8448062,-3.0,0.0,-1.100929,0.67239183,0.0,-0.13516113,-0.038433097,9.907611,0.0,0.0,0.0,0.0,0.7299588046608461,-0.13072392344474792,-0.007136687636375427,0.005946585908532143
15.901651620864868,-1.0143057,0.82736063,-2.9960597,-0.01008047840143323,nan,nan,nan,nan,5.901092529296875,0.0002257823944091797,-1.0478528,0.5934406,-0.009797109,-0.12685967809587737,-0.024721030439316394,9.618942854923645,-0.11286549,-0.007568195,-0.020740533,-1.0728126,0.90541077,-3.0,0.0,-1.0605513,0.5334884,0.0,-0.1447269,-0.042695913,9.922687,0.0,0.0,0.0,0.0,0.7306345918177933,-0.1020008772611618,-0.014982715249061584,0.01761653646826744
16.001238584518433,-1.1031076,0.86222655,-2.9971204,-0.012364332974908965,nan,nan,nan,nan,6.000595808029175,0.00029087066650390625,-1.008475,0.45461744,-0.006163152,-0.136848652577417,-0.02595663831475803,9.63780719913308,-0.088114366,-0.010558123,-0.011360738,-1.1761767,0.9512878,-3.0,0.0,-1.016364,0.38742656,0.0,-0.15195048,-0.04675344,9.935208,0.0,0.0,0.0,0.0,0.731360489800712,-0.0829058513045311,-0.021005898714065552,0.023774363100528717
16.10124659538269,-1.1873854,0.88314956,-2.998165,-0.013582194676969445,nan,nan,nan,nan,6.100636959075928,0.0001811981201171875,-0.9682006,0.3085276,-0.0026770579,-0.1442665692138915,-0.02771788211363546,9.65851693115894,-0.06097905,-0.018481262,-0.00046285155,-1.275465,0.982437,-3.0,0.0,-0.9679347,0.23448166,0.0,-0.15684605,-0.050655145,9.944673,0.0,0.0,0.0,0.0,0.732156580538572,-0.06530207395553589,-0.02724890410900116,0.027007121592760086
16.20177125930786,-1.2670771,0.890326,-2.9993508,-0.013806179683789485,nan,nan,nan,nan,6.201180934906006,0.00018143653869628906,-0.9263444,0.1579818,-0.0005149829,-0.1501010433239331,-0.029825638584092262,9.675546272469202,-0.048903164,-0.023803031,0.007447235,-1.3701758,0.9981188,-3.0,0.0,-0.9154104,0.077043355,0.0,-0.15930781,-0.054388124,9.950528,0.0,0.0,0.0,0.0,0.7328105562922944,-0.04597795009613037,-0.03403818607330322,0.027133166790008545
16.302854776382446,-1.3357043,0.88432604,-3.0006878,-0.013172109984292926,nan,nan,nan,nan,6.302964687347412,0.0003578662872314453,-0.8857502,0.017203612,0.00056286325,-0.15386010443983783,-0.032233926374307886,9.688499174190202,-0.037767585,-0.028414398,0.014587321,-1.4604852,0.99778587,-3.0,0.0,-0.85851926,-0.08357719,0.0,-0.15925558,-0.05796559,9.952447,0.0,0.0,0.0,0.0,0.7333075997594627,-0.04935438930988312,-0.0377262681722641,0.023198414593935013
16.401229858398438,-1.4170693,0.8592263,-3.0027814,-0.011404459363171443,nan,nan,nan,nan,6.4006383419036865,0.0002052783966064453,-0.8310233,-0.16353416,0.0010161842,-0.1561780076883156,-0.035706763216435844,9.699379843992629,0.0048552416,-0.033202615,0.019965783,-1.5415379,0.98213655,-3.0,0.0,-0.80062205,-0.23646076,0.0,-0.15679885,-0.061198603,9.95047,0.0,0.0,0.0,0.0,0.7337248684697509,0.012029632925987244,-0.04108940064907074,0.019882850348949432
16.5012845993042,-1.4764181,0.8260584,-3.0042453,-0.009576191237699719,nan,nan,nan,nan,6.500725507736206,0.00021147727966308594,-0.7853001,-0.30421498,0.0001853879,-0.15537627297651646,-0.03863278614585908,9.702568470907845,0.041924253,-0.035793055,0.021179758,-1.61857,0.95077425,-3.0,0.0,-0.738169,-0.38941222,0.0,-0.1518697,-0.0642977,9.944778,0.0,0.0,0.0,0.0,0.7338471065046319,0.041087813675403595,-0.04352305084466934,0.013889763504266739
16.601099014282227,-1.5406767,0.7720298,-3.0056562,-0.007068362640833797,nan,nan,nan,nan,6.600457668304443,0.00017523765563964844,-0.7274667,-0.46428245,-0.0011478958,-0.14956530528571232,-0.042387237154459134,9.703187704442517,0.06785158,-0.03795616,0.021146188,-1.6889642,0.90458184,-3.0,0.0,-0.6730345,-0.53570443,0.0,-0.14459625,-0.06715859,9.935854,0.0,0.0,0.0,0.0,0.7338708428856394,0.08121424913406372,-0.040048159658908844,0.006887752562761307
16.710201263427734,-1.5984961,0.7031038,-3.006917,-0.00452529638408386,nan,nan,nan,nan,6.709858655929565,0.00036025047302246094,-0.66552824,-0.61446273,-0.0030528982,-0.1408174284591086,-0.04607540451160608,9.701560787458423,0.1013104,-0.03531437,0.018985657,-1.7585485,0.83762455,-3.0,0.0,-0.59855616,-0.6864335,0.0,-0.13402592,-0.070020005,9.923089,0.0,0.0,0.0,0.0,0.7338084784916845,0.09270267933607101,-0.03820514678955078,-0.0012007951736450195
16.802700519561768,-1.638146,0.6410014,-3.0080774,-0.002606813085223453,nan,nan,nan,nan,6.80243444442749,0.0003046989440917969,-0.6148015,-0.7205451,-0.005892661,-0.13311832689511002,-0.048963503882162085,9.693826406684222,0.09851296,-0.035692267,0.015269527,-1.8109545,0.76855975,-3.0,0.0,-0.5333103,-0.8039688,0.0,-0.12309124,-0.07220118,9.910611,0.0,0.0,0.0,0.0,0.7335119259484598,0.08251548558473587,-0.03944571316242218,-0.007538117468357086
16.902459621429443,-1.6825689,0.55026454,-3.0105536,-2.928904159635315e-05,nan,nan,nan,nan,6.901907682418823,0.00021004676818847656,-0.54424524,-0.8459657,-0.010280822,-0.12173560760774205,-0.05239458426702148,9.681218323048656,0.12080001,-0.029142922,0.010238206,-1.8604345,0.6827969,-3.0,0.0,-0.4611976,-0.9181094,0.0,-0.10947187,-0.07428442,9.89637,0.0,0.0,0.0,0.0,0.7330282515845661,0.11826713383197784,-0.026631712913513184,-0.015451394021511078
17.0026273727417,-1.7139491,0.46556818,-3.0132313,0.0020236130578313305,nan,nan,nan,nan,7.002342224121094,0.00029158592224121094,-0.48140934,-0.93931204,-0.013988052,-0.11027262141969295,-0.054733826871751656,9.666212418761553,0.13838862,-0.019657405,0.0024261735,-1.9030206,0.5854012,-3.0,0.0,-0.3865627,-1.0188107,0.0,-0.09395583,-0.076098315,9.882059,0.0,0.0,0.0,0.0,0.7324521807657061,0.11176606267690659,-0.027317404747009277,-0.02245333418250084
17.103664875030518,-1.7414753,0.36608955,-3.0168169,0.0039461063503484425,nan,nan,nan,nan,7.103407621383667,0.00038933753967285156,-0.4105965,-1.0265095,-0.018239742,-0.09697651996745435,-0.05698297418163545,9.649327380743328,0.13952966,-0.017776292,-0.0032560315,-1.9382269,0.47799626,-3.0,0.0,-0.30990583,-1.1037822,0.0,-0.07679278,-0.07761404,9.868707,0.0,0.0,0.0,0.0,0.7318034358286513,0.12605920433998108,-0.022143468260765076,-0.028446059674024582
17.20489478111267,-1.7640486,0.2522783,-3.021079,0.005451908010121631,nan,nan,nan,nan,7.204455375671387,0.00024771690368652344,-0.33220366,-1.1030992,-0.022287542,-0.08189576902036703,-0.059218780320866804,9.631034545537537,0.15121977,-0.011885506,-0.011575001,-1.965616,0.3629131,-3.0,0.0,-0.23201382,-1.1709634,0.0,-0.05835258,-0.07880419,9.857318,0.0,0.0,0.0,0.0,0.7310999606121165,0.15916171669960022,-0.00937238335609436,-0.03159996494650841
17.30190920829773,-1.7776998,0.15295225,-3.025384,0.006116235500100663,nan,nan,nan,nan,7.301350116729736,0.00021839141845703125,-0.265757,-1.1520562,-0.025697216,-0.06671060317419766,-0.0600267076454335,9.609896064933844,0.17950557,-0.0030593737,-0.016378848,-1.9844413,0.24704632,-3.0,0.0,-0.1564408,-1.2176859,0.0,-0.03974663,-0.07962813,9.848963,0.0,0.0,0.0,0.0,0.7302862197613443,0.15991131961345673,-0.018760979175567627,-0.03203205764293671
17.411232709884644,-1.7868247,0.03420582,-3.0312223,0.006500627497721043,nan,nan,nan,nan,7.410861253738403,0.000232696533203125,-0.18758534,-1.1883867,-0.02874339,-0.04689397468503964,-0.06084415597538895,9.59055000760824,0.18749367,-0.011305236,-0.02319061,-1.996864,0.11178064,-3.0,0.0,-0.07034415,-1.2487617,0.0,-0.017991628,-0.08017464,9.843207,0.0,0.0,0.0,0.0,0.7295406948011659,0.16179634630680084,-0.027552366256713867,-0.0303389523178339
17.50246524810791,-1.7884151,-0.075157896,-3.0371442,0.006588557451031917,nan,nan,nan,nan,7.501919746398926,0.00018906593322753906,-0.1153514,-1.2015318,-0.031250253,-0.028490005406169167,-0.062137341716784755,9.572453325178925,0.18891686,-0.006951432,-0.026125977,-1.9999986,-0.0024128174,-3.0,0.0,0.0015160191,-1.2566334,0.0,0.00038839635,-0.080312885,9.841724,0.0,0.0,0.0,0.0,0.7288426351303834,0.16308581829071045,-0.018542654812335968,-0.030015867203474045
17.604010105133057,-1.7843732,-0.17376372,-3.0427659,0.0065524436108776365,nan,nan,nan,nan,7.603442430496216,0.00025200843811035156,-0.049382694,-1.1964043,-0.03230718,-0.011690688649954017,-0.06338347818937651,9.561572319653337,0.18361284,-0.017145708,-0.028835531,-1.9957771,-0.12962388,-3.0,0.0,0.081617415,-1.2460352,0.0,0.020862805,-0.08012672,9.843719,0.0,0.0,0.0,0.0,0.7284225946034861,0.1573844701051712,-0.034272365272045135,-0.027860991656780243
17.701411962509155,-1.7724582,-0.28679943,-3.0494292,0.006547415197183801,nan,nan,nan,nan,7.700839042663574,0.00029277801513671875,0.02950802,-1.1704689,-0.03225514,0.007577072037068871,-0.06581696567477646,9.547374267217224,0.17973456,-0.013933558,-0.030467452,-1.9840969,-0.2497115,-3.0,0.0,0.15815595,-1.2168273,0.0,0.04017497,-0.079613015,9.849119,0.0,0.0,0.0,0.0,0.7278741462278745,0.1583961844444275,-0.012663319706916809,-0.024980302900075912
17.80328869819641,-1.755117,-0.38638657,-3.0551603,0.006544942555681077,nan,nan,nan,nan,7.803015232086182,0.0002281665802001953,0.10172927,-1.1284351,-0.03046649,0.025073415172108558,-0.06670400572246726,9.53833380886585,0.17627382,-0.0033118962,-0.02840398,-1.963861,-0.37164494,-3.0,0.0,0.23780848,-1.1666304,0.0,0.05975327,-0.078727625,9.858074,0.0,0.0,0.0,0.0,0.7275247150552897,0.15798433125019073,-0.018797926604747772,-0.022724006325006485
17.91130256652832,-1.7301368,-0.48700956,-3.0605655,0.0065670228706317495,nan,nan,nan,nan,7.910815477371216,0.00018715858459472656,0.17774157,-1.064245,-0.026979944,0.043502496256913256,-0.06648395395845941,9.534639048718368,0.16736446,0.001098993,-0.02915051,-1.9337417,-0.49361873,-3.0,0.0,0.32077688,-1.0928702,0.0,0.07929227,-0.07742007,9.870487,0.0,0.0,0.0,0.0,0.727381857774509,0.15942390263080597,-0.031468406319618225,-0.02173534594476223
18.00232243537903,-1.7009513,-0.5716024,-3.0644872,0.006719236951784724,nan,nan,nan,nan,8.001780033111572,0.00018596649169921875,0.24611324,-0.98810965,-0.022476116,0.059685207052278325,-0.06680796639707598,9.535895504339114,0.15643838,-0.005152652,-0.026646629,-1.9014207,-0.5895933,-3.0,0.0,0.3896585,-1.0149862,0.0,0.09462466,-0.07602979,9.882633,0.0,0.0,0.0,0.0,0.727430441525527,0.14185599982738495,-0.0252021886408329,-0.022540587931871414
18.10166096687317,-1.6632864,-0.653276,-3.0672972,0.0069499271090158465,nan,nan,nan,nan,8.101102590560913,0.0002696514129638672,0.31828207,-0.88977695,-0.015728809,0.07590973894920978,-0.06771664264963406,9.542376146374718,0.1424743,-0.011652684,-0.025367329,-1.8590423,-0.6855568,-3.0,0.0,0.46340856,-0.91485584,0.0,0.109910816,-0.07422547,9.896805,0.0,0.0,0.0,0.0,0.7276809796647817,0.12334199249744415,-0.016087286174297333,-0.022593507543206215
18.20466184616089,-1.623311,-0.7176264,-3.0685942,0.00723990067397616,nan,nan,nan,nan,8.205010890960693,0.0005125999450683594,0.38326046,-0.78514975,-0.008253305,0.0890991252781676,-0.06837167656972465,9.555285661204238,0.12159358,-0.006914598,-0.024447182,-1.8069638,-0.7745121,-3.0,0.0,0.5386276,-0.7948972,0.0,0.12403486,-0.0720342,9.9116535,0.0,0.0,0.0,0.0,0.728179801169868,0.12243389338254929,-0.03095652163028717,-0.0241122804582119
18.301217555999756,-1.5784402,-0.7704805,-3.0690484,0.007636096292867843,nan,nan,nan,nan,8.300626993179321,0.00021338462829589844,0.44653326,-0.6691828,-0.0009825312,0.10070504781349554,-0.06909386941363715,9.569213342650313,0.10976201,-0.0103845885,-0.024162017,-1.7522335,-0.84475,-3.0,0.0,0.60582346,-0.67250335,0.0,0.13515225,-0.06975877,9.92442,0.0,0.0,0.0,0.0,0.7287175867367095,0.10801871865987778,-0.03105298802256584,-0.026048865169286728
18.403279542922974,-1.5289704,-0.8114901,-3.068913,0.007869558101560183,nan,nan,nan,nan,8.402971506118774,0.0003330707550048828,0.5085954,-0.5442878,0.0061449604,0.11095909055525516,-0.07039930077888745,9.586708997173684,0.09999601,-0.027616585,-0.023400174,-1.6866521,-0.90641063,-3.0,0.0,0.6753196,-0.53080046,0.0,0.1448845,-0.067064114,9.936208,0.0,0.0,0.0,0.0,0.7293925871330296,0.10443396121263504,-0.038913555443286896,-0.027559883892536163
18.501645803451538,-1.4794856,-0.8381466,-3.0684464,0.007867699686515649,nan,nan,nan,nan,8.501118659973145,0.0002396106719970703,0.56548417,-0.42248634,0.012222982,0.12011084573671482,-0.07292422803488319,9.607632515563147,0.09486501,-0.037340056,-0.02442734,-1.617207,-0.9514901,-3.0,0.0,0.7393474,-0.38664117,0.0,0.15198229,-0.06424259,9.944915,0.0,0.0,0.0,0.0,0.7301990297917148,0.10476391017436981,-0.04376962408423424,-0.026881270110607147
18.605591297149658,-1.4208112,-0.85459155,-3.0668635,0.007831386374255164,nan,nan,nan,nan,8.605350255966187,0.00036787986755371094,0.6282006,-0.28222284,0.018530983,0.1290187658213891,-0.07554111066604574,9.628363236023564,0.07427418,-0.020073077,-0.02492318,-1.5367317,-0.983525,-3.0,0.0,0.8042613,-0.2271651,0.0,0.15701689,-0.061006173,9.950696,0.0,0.0,0.0,0.0,0.7309971759808014,0.09279553592205048,-0.03965485841035843,-0.025690589100122452
18.70791268348694,-1.3460524,-0.85558414,-3.0634024,0.007973828164544242,nan,nan,nan,nan,8.707798719406128,0.0004742145538330078,0.7010288,-0.11053532,0.025403842,0.13620165403210038,-0.07672078130927251,9.642326144410749,0.051318564,-0.015364551,-0.025843738,-1.4512109,-0.99859416,-3.0,0.0,0.8647059,-0.066609815,0.0,0.15938239,-0.057597138,9.952437,0.0,0.0,0.0,0.0,0.7315342728409417,0.027204817160964012,-0.003146037459373474,-0.02514907717704773
18.807949781417847,-1.2820973,-0.84175056,-3.0597494,0.008336407030791623,nan,nan,nan,nan,8.807968854904175,0.000362396240234375,0.7577035,0.028526548,0.030116789,0.13993034892294964,-0.07716905857369749,9.657249402685546,0.02500086,-0.009454818,-0.0251518,-1.361777,-0.9973479,-3.0,0.0,0.92034477,0.0914602,0.0,0.15918684,-0.05405644,9.950155,0.0,0.0,0.0,0.0,0.7321078807501131,0.015879973769187927,-0.01037818193435669,-0.02875782549381256
18.906519889831543,-1.2009361,-0.80996186,-3.0549314,0.0091043348755135,nan,nan,nan,nan,8.900758504867554,0.0004401206970214844,0.82245296,0.1932255,0.034377158,0.13979504824826433,-0.0758690034962306,9.668296955658576,-0.028798362,0.010384037,-0.024639986,-1.2741132,-0.9821081,-3.0,0.0,0.9686373,0.23664714,0.0,0.15679438,-0.05060197,9.944564,0.0,0.0,0.0,0.0,0.7325322320550633,-0.05299150198698044,0.02300441265106201,-0.03218292072415352
19.001392602920532,-1.1140065,-0.7617225,-3.0497005,0.009929091083463834,nan,nan,nan,nan,9.000757932662964,0.0001709461212158203,0.8833792,0.35343134,0.036399897,0.1350737520305893,-0.07348960719336217,9.677398324219965,-0.061703697,0.012940102,-0.025239922,-1.174799,-0.95076144,-3.0,0.0,1.0169928,0.38946164,0.0,0.15186769,-0.04669935,9.935057,0.0,0.0,0.0,0.0,0.7328816457029098,-0.09088107943534851,0.03683023154735565,-0.03668439760804176
19.112865209579468,-1.0283185,-0.7032612,-3.0444937,0.010462336296104296,nan,nan,nan,nan,9.11244511604309,0.0004088878631591797,0.93668884,0.49415287,0.036998108,0.12819301182881837,-0.07129804894660752,9.685622675477049,-0.096283846,0.024813406,-0.028502122,-1.0584164,-0.8980578,-3.0,0.0,1.0662465,0.55276626,0.0,0.1435677,-0.042130735,9.920779,0.0,0.0,0.0,0.0,0.7331972481951705,-0.07332990318536758,0.016741782426834106,-0.03923924267292023
19.219422578811646,-0.9452518,-0.6387455,-3.0399175,0.0107407311808108,nan,nan,nan,nan,9.219040870666504,0.00041604042053222656,0.9825567,0.6140959,0.0358551,0.118872357338879,-0.06812902960838763,9.68816462187328,-0.11498237,0.026882341,-0.031215828,-0.94247097,-0.8312664,-3.0,0.0,1.1083633,0.69853216,0.0,0.13302058,-0.037575133,9.904428,0.0,0.0,0.0,0.0,0.7332947661191851,-0.036705732345581055,-0.01463918387889862,-0.04130151867866516
19.310905933380127,-0.85860145,-0.56523526,-3.0358562,0.010497127076128064,nan,nan,nan,nan,9.31121277809143,0.0003943443298339844,1.0255305,0.72378,0.032809466,0.11002736681597083,-0.06617844829464503,9.68604944010497,-0.10157637,0.01387507,-0.032944642,-0.83878803,-0.7614554,-3.0,0.0,1.1407806,0.81457394,0.0,0.12196474,-0.0334921,9.888965,0.0,0.0,0.0,0.0,0.7332136212676118,-0.043220702558755875,-0.008055061101913452,-0.039034292101860046
19.41274905204773,-0.75173885,-0.46891803,-3.0321233,0.009641051600963658,nan,nan,nan,nan,9.412562370300293,0.00035071372985839844,1.0738121,0.8400439,0.02774824,0.09976941820231894,-0.06381004468464191,9.680635379601727,-0.09647536,0.012650808,-0.03607995,-0.7215487,-0.6729546,-3.0,0.0,1.1720065,0.92951405,0.0,0.10790618,-0.028860407,9.871502,0.0,0.0,0.0,0.0,0.7330058809512328,-0.07607793807983398,0.019582480192184448,-0.031599581241607666
19.502493381500244,-0.6577858,-0.38058272,-3.0296614,0.008508601033729149,nan,nan,nan,nan,9.50197982788086,0.00023651123046875,1.1126988,0.927355,0.022136964,0.09096768302425184,-0.061407744342170334,9.666970715199122,-0.10796917,0.02559501,-0.036361,-0.61566705,-0.5857704,-3.0,0.0,1.195615,1.0184755,0.0,0.09401475,-0.024661895,9.856512,0.0,0.0,0.0,0.0,0.732481302192912,-0.10186536610126495,0.03843194246292114,-0.023831069469451904
19.60112977027893,-0.54255545,-0.26953542,-3.0269134,0.007081900460061519,nan,nan,nan,nan,9.600663661956787,0.0002334117889404297,1.1546503,1.0163529,0.0159232,0.07797493872158408,-0.056152099898584495,9.651015443329227,-0.14392915,0.06007991,-0.03461142,-0.49657133,-0.48102212,-3.0,0.0,1.2172879,1.1017044,0.0,0.07727697,-0.019921264,9.841317,0.0,0.0,0.0,0.0,0.7318683188933335,-0.14114168286323547,0.06293383240699768,-0.017085082828998566
19.703288793563843,-0.43305033,-0.16208957,-3.0251484,0.005772820371558348,nan,nan,nan,nan,9.702727556228638,0.0002129077911376953,1.1875648,1.0826099,0.010263152,0.06344774054272957,-0.04994116369225243,9.63207069960655,-0.16323338,0.06559149,-0.031529397,-0.37139508,-0.3649354,-3.0,0.0,1.2347803,1.1699704,0.0,0.058677,-0.014919238,9.828006,0.0,0.0,0.0,0.0,0.7311398251294623,-0.14978472888469696,0.057583779096603394,-0.011663366109132767
19.803301572799683,-0.32147554,-0.051688917,-3.0242212,0.004491475587085292,nan,nan,nan,nan,9.803029537200928,0.00017547607421875,1.2144344,1.1313487,0.0049369927,0.04735754598059625,-0.043929683842801825,9.61646994185866,-0.17455748,0.061652984,-0.025826262,-0.24688777,-0.24499947,-3.0,0.0,1.2470257,1.2183388,0.0,0.039417658,-0.009927469,9.81811,0.0,0.0,0.0,0.0,0.7305393816311369,-0.15589720010757446,0.05619002878665924,-0.005388561636209488
19.90191960334778,-0.19937032,0.069224015,-3.024375,0.0033652685872329873,nan,nan,nan,nan,9.901566743850708,0.0003657341003417969,1.2364837,1.1635903,-0.00038909636,0.028852187182432376,-0.03762735155597352,9.598731138680588,-0.18247366,0.06123389,-0.020884369,-0.12361618,-0.123379834,-3.0,0.0,1.2542344,1.2470357,0.0,0.019858105,-0.0049736686,9.812057,0.0,0.0,0.0,0.0,0.7298560567782612,-0.16751231253147125,0.06994587182998657,0.0009284280240535736
20.002931356430054,-0.09527542,0.17103145,-3.0252256,0.002678351361353095,nan,nan,nan,nan,10.002568483352661,0.00029730796813964844,1.2491132,1.1734936,-0.0041859387,0.012295377317209366,-0.031471858081600246,9.58045227003516,-0.18902373,0.06827433,-0.015514893,0.0032275822,0.003227578,-3.0,0.0,1.2566354,1.2566305,0.0,-0.0005195501,0.00012988767,9.810002,0.0,0.0,0.0,0.0,0.7291512669506924,-0.15736889839172363,0.047120124101638794,0.004453286528587341
20.10448145866394,0.027381813,0.28871527,-3.0267746,0.0021773320603673124,nan,nan,nan,nan,10.104048013687134,0.0003924369812011719,1.2561775,1.1645571,-0.007820711,-0.007147393317682155,-0.024947608061570037,9.565212485317604,-0.18269213,0.058927268,-0.009205107,0.13065788,0.13037877,-3.0,0.0,1.2539526,1.2459108,0.0,-0.020984268,0.0052568642,9.812296,0.0,0.0,0.0,0.0,0.7285631428679138,-0.15510237216949463,0.04769904911518097,0.008140603080391884
20.207282543182373,0.140422,0.39380106,-3.0282426,0.002046789423425857,nan,nan,nan,nan,10.207008600234985,0.0003921985626220703,1.2571089,1.1376499,-0.009278012,-0.02443047522918401,-0.01960646842199809,9.554582675595299,-0.17490397,0.051929522,-0.0049898056,0.2594022,0.25721106,-3.0,0.0,1.2460225,1.2143579,0.0,-0.041380186,0.010429815,9.818939,0.0,0.0,0.0,0.0,0.7281526466011695,-0.15245714783668518,0.039147913455963135,0.01100471056997776
20.308289051055908,0.25322852,0.4935959,-3.0299897,0.002159193604633264,nan,nan,nan,nan,10.308619499206543,0.0007131099700927734,1.253322,1.0936738,-0.0097281085,-0.04112242513549748,-0.014910911801675697,9.550601179276125,-0.16858487,0.04512819,0.00039474535,0.38539755,0.37817442,-3.0,0.0,1.2330852,1.1633121,0.0,-0.060800515,0.015479675,9.829338,0.0,0.0,0.0,0.0,0.7279988325423985,-0.15189851820468903,0.03803031146526337,0.013166125863790512
20.403696537017822,0.37539417,0.59429467,-3.0316749,0.002436793478999274,nan,nan,nan,nan,10.403128862380981,0.0003731250762939453,1.2455009,1.0281867,-0.009074677,-0.058682233370120934,-0.010722290298682546,9.548621538311707,-0.16480188,0.03283443,0.0037649912,0.5011869,0.48519522,-3.0,0.0,1.2165409,1.0988108,0.0,-0.07794468,0.020105336,9.841865,0.0,0.0,0.0,0.0,0.7279223426749898,-0.14024880528450012,0.0648861676454544,0.013557462953031063
20.502493381500244,0.48820844,0.67976505,-3.0327318,0.002717446379289605,nan,nan,nan,nan,10.50196361541748,0.00019860267639160156,1.2355754,0.95263356,-0.0072481628,-0.07420011079138511,-0.005619139246335836,9.54874426306458,-0.1537219,0.0628223,0.007168344,0.6203805,0.5897799,-3.0,0.0,1.1946528,1.0148149,0.0,-0.09465443,0.024849124,9.857154,0.0,0.0,0.0,0.0,0.727927084775501,-0.13584262132644653,0.07370767742395401,0.01274757832288742
20.605101108551025,0.58172524,0.7441838,-3.033409,0.0028301105920077174,nan,nan,nan,nan,10.604836463928223,0.0003020763397216797,1.222973,0.87894154,-0.0043656835,-0.08620397864472548,0.0002480234442816531,9.553559158716814,-0.14460121,0.07430823,0.010667741,0.7418973,0.68896544,-3.0,0.0,1.1669803,0.9108033,0.0,-0.11045287,0.02966556,9.874491,0.0,0.0,0.0,0.0,0.728113108928378,-0.16026954352855682,0.05236753821372986,0.014012330211699009
20.706497192382812,0.70224226,0.8171581,-3.0339236,0.0029909930081647926,nan,nan,nan,nan,10.706507444381714,0.00042891502380371094,1.2007872,0.769157,0.00079564156,-0.1020652181920507,0.007314064533744391,9.566733466733705,-0.15067913,0.06382181,0.011111929,0.8589515,0.77570057,-3.0,0.0,1.1348418,0.7930651,0.0,-0.12422324,0.034287006,9.891995,0.0,0.0,0.0,0.0,0.7286218606519719,-0.1425144225358963,0.058475665748119354,0.011473674327135086
20.804508924484253,0.8027834,0.8682855,-3.0336409,0.0030141692838046227,nan,nan,nan,nan,10.804441928863525,0.0004298686981201172,1.1774344,0.6641436,0.005864782,-0.11489197054725103,0.013256596120846176,9.583125607718237,-0.13538988,0.06677971,0.014009276,0.9683948,0.84730554,-3.0,0.0,1.0995057,0.6674071,0.0,-0.13555615,0.038594466,9.908206,0.0,0.0,0.0,0.0,0.7292543864617927,-0.13895943760871887,0.055478811264038086,0.011449417099356651
20.90189838409424,0.9100745,0.911595,-3.0326273,0.0029376736445614754,nan,nan,nan,nan,10.901474475860596,0.00023555755615234375,1.146418,0.5378868,0.01173564,-0.12713939200192792,0.019759826488840337,9.602774063248642,-0.11748673,0.06256114,0.012275808,1.0732175,0.9056144,-3.0,0.0,1.0603895,0.5329424,0.0,-0.14475898,0.04271181,9.92274,0.0,0.0,0.0,0.0,0.7300118517101712,-0.11272816359996796,0.05697883665561676,0.009512277320027351
21.008955478668213,1.0309047,0.94458216,-3.030715,0.0026473809993677877,nan,nan,nan,nan,11.008357763290405,0.00023698806762695312,1.1031307,0.37755963,0.018778617,-0.13893963372125137,0.02704685289281561,9.625574179638633,-0.09095603,0.061431877,0.012079733,1.1840519,0.9542498,-3.0,0.0,1.0127475,0.37574774,0.0,-0.1524163,0.047062665,9.936062,0.0,0.0,0.0,0.0,0.7308898455581553,-0.0597517266869545,0.05907047539949417,0.006182515993714333
21.104008197784424,1.1297978,0.95757765,-3.028511,0.0023270055252009314,nan,nan,nan,nan,11.10348129272461,0.0002522468566894531,1.0597289,0.23224418,0.023810552,-0.1473465716926065,0.03282457068335387,9.650191883344661,-0.0673362,0.05766755,0.011194627,1.2782162,0.98309773,-3.0,0.0,0.9665008,0.23006715,0.0,-0.15694979,0.0507634,9.94489,0.0,0.0,0.0,0.0,0.7318366649135217,-0.01393233984708786,0.05654021352529526,0.004193056374788284
21.201975107192993,1.2311004,0.95451885,-3.0248501,0.001766197350547255,nan,nan,nan,nan,11.20149850845337,0.0002472400665283203,1.0062202,0.068644136,0.028620427,-0.15133557265775127,0.039055758885219616,9.67259291489841,-0.008499232,0.055817507,0.009401137,1.370466,0.9981432,-3.0,0.0,0.91523886,0.076543726,0.0,-0.15931164,0.054399583,9.950541,0.0,0.0,0.0,0.0,0.7326971801297887,0.037936531007289886,0.04818519204854965,0.002217700704932213
21.301042079925537,1.3187013,0.93543977,-3.020347,0.0011350270695871245,nan,nan,nan,nan,11.300400972366333,0.0002703666687011719,0.9510856,-0.08277981,0.031442545,-0.15009652723524775,0.04420687306286153,9.689725456286684,0.03672038,0.04574248,0.007422857,1.458282,0.99799496,-3.0,0.0,0.8599966,-0.07953648,0.0,-0.15928838,0.057878036,9.952449,0.0,0.0,0.0,0.0,0.7333546388283992,0.0508088581264019,0.03631822019815445,0.0035189762711524963
21.401742935180664,1.3874114,0.90858865,-3.0166786,0.0005862475639856618,nan,nan,nan,nan,11.40122938156128,0.00022983551025390625,0.90202254,-0.20572792,0.032341123,-0.14645669665129124,0.04773346958535529,9.705308204342142,0.05921723,0.03653404,0.006625192,1.5420115,0.98199636,-3.0,0.0,0.8002619,-0.2373784,0.0,-0.15677685,0.06121757,9.950447,0.0,0.0,0.0,0.0,0.7339521198807103,0.004583645146340132,0.030666373670101166,0.008987156674265862
21.50571060180664,1.4769113,0.8553755,-3.012492,-0.00016926854354500087,nan,nan,nan,nan,11.505505561828613,0.0003802776336669922,0.82958895,-0.37031755,0.030771555,-0.14082642601750012,0.05146995433964818,9.716394566122906,0.043505818,0.028724236,0.0062903743,1.6220912,0.94889563,-3.0,0.0,0.73511124,-0.39658207,0.0,-0.15157421,0.06444009,9.944421,0.0,0.0,0.0,0.0,0.7343769064087856,0.03851490095257759,0.02819553017616272,0.008996126241981983
21.607457876205444,1.5418209,0.8022257,-3.0099173,-0.0006434728993378325,nan,nan,nan,nan,11.6072678565979,0.00041985511779785156,0.7708755,-0.49366707,0.027880257,-0.1366394663313759,0.05404538077011822,9.72383049429627,0.055709906,0.028640132,0.007807719,1.6935318,0.9009009,-3.0,0.0,0.66848797,-0.5454117,0.0,-0.14401595,0.067345314,9.935142,0.0,0.0,0.0,0.0,0.7346616866619983,0.023022446781396866,0.034107230603694916,0.011429879814386368
21.708019018173218,1.6017472,0.7397968,-3.0082474,-0.0010761075441449997,nan,nan,nan,nan,11.708323001861572,0.0006160736083984375,0.7109281,-0.6104898,0.023682311,-0.1315465317856238,0.0566819680167312,9.724834282465743,0.061594028,0.029602759,0.0080033755,1.7576281,0.8386775,-3.0,0.0,0.5996224,-0.68440014,0.0,-0.13419238,0.06998192,9.923285,0.0,0.0,0.0,0.0,0.7347001212738605,0.014033871702849865,0.0430641770362854,0.012834079563617706
21.809521913528442,1.6655697,0.65497595,-3.007125,-0.0015240512648352425,nan,nan,nan,nan,11.808917045593262,0.00026726722717285156,0.63775223,-0.73963207,0.017738234,-0.12435077175447265,0.06013427299461216,9.722538444497621,0.07221442,0.03703385,0.009493103,1.814397,0.76332206,-3.0,0.0,0.52867085,-0.8118104,0.0,-0.12226075,0.07234533,9.909699,0.0,0.0,0.0,0.0,0.7346122117176342,0.05430583283305168,0.043506890535354614,0.010545630939304829
21.903621196746826,1.7174958,0.56653035,-3.0066755,-0.0018564962164763846,nan,nan,nan,nan,11.90302062034607,0.00016355514526367188,0.56758136,-0.8500161,0.011164478,-0.11758383972573044,0.06406963910310637,9.712003622152844,0.08459857,0.03959286,0.0108141275,1.8609474,0.6817743,-3.0,0.0,0.46037996,-0.91930866,0.0,-0.109309226,0.07430615,9.896209,0.0,0.0,0.0,0.0,0.7342086914078685,0.10075460374355316,0.036689840257167816,0.007150557357817888
22.00155782699585,1.7621822,0.46879265,-3.0065935,-0.00214528119376748,nan,nan,nan,nan,12.000966310501099,0.0003540515899658203,0.49419856,-0.9508787,0.0046964884,-0.10721944178582207,0.06769111763857016,9.697933672019282,0.12615988,0.03342118,0.010521344,1.902488,0.5868023,-3.0,0.0,0.38759643,-1.017537,0.0,-0.094179384,0.07607551,9.882251,0.0,0.0,0.0,0.0,0.7336694219271845,0.13326266407966614,0.02961088716983795,0.004320650827139616
22.10333561897278,1.7968283,0.3722042,-3.0069036,-0.0023676751885237587,nan,nan,nan,nan,12.102906942367554,0.0002770423889160156,0.42473376,-1.031652,-0.001049934,-0.09505350178819544,0.07067011752050179,9.679844789751805,0.15540932,0.02765968,0.009411138,1.9380718,0.47854844,-3.0,0.0,0.31028867,-1.1034043,0.0,-0.07688113,0.077607326,9.868769,0.0,0.0,0.0,0.0,0.73297554074739,0.13639971613883972,0.03324369713664055,0.0030686422251164913
22.20277214050293,1.8304391,0.25175703,-3.0077384,-0.002565210112471683,nan,nan,nan,nan,12.202306985855103,0.00032782554626464844,0.3409006,-1.1095709,-0.0073536146,-0.07783804830213346,0.07357442092674193,9.65943810606841,0.17966121,0.022097783,0.008703744,1.9651157,0.36542782,-3.0,0.0,0.233681,-1.1697277,0.0,-0.058755994,0.078782365,9.857533,0.0,0.0,0.0,0.0,0.7321919710506829,0.16849462687969208,0.02129334770143032,-0.00017906306311488152
22.30181050300598,1.853701,0.13643149,-3.009033,-0.002929117438294354,nan,nan,nan,nan,12.301342487335205,0.0002276897430419922,0.2620229,-1.1624125,-0.012459399,-0.0602042033027672,0.07588129522612741,9.639123033829964,0.19287795,0.019776361,0.0056788367,1.9844401,0.24705586,-3.0,0.0,0.15644692,-1.2176828,0.0,-0.039748162,0.07962809,9.848963,0.0,0.0,0.0,0.0,0.7314110964657633,0.17918619513511658,0.016256963834166527,-0.0015522828325629234
22.40115475654602,1.8704511,0.00827057,-3.0109606,-0.00340692819215584,nan,nan,nan,nan,12.400516271591187,0.0001976490020751953,0.1757345,-1.1980531,-0.016468652,-0.03896257538274449,0.07731676329571457,9.621054662861864,0.2110526,0.006584442,0.004002827,1.9960941,0.12468921,-3.0,0.0,0.07849784,-1.2468301,0.0,-0.020068793,0.080140695,9.84357,0.0,0.0,0.0,0.0,0.7307158893260673,0.18862338364124298,0.00570252351462841,-0.0019123731181025505
22.503356218338013,1.8776149,-0.10106492,-3.0127845,-0.003955326961986,nan,nan,nan,nan,12.502739667892456,0.00020551681518554688,0.102872394,-1.2096665,-0.018931767,-0.02016866401864203,0.07770215649507728,9.60470738510136,0.21497348,0.0028542748,0.0025155344,1.999997,-0.003443433,-3.0,0.0,-0.002163576,-1.2566297,0.0,0.0005542967,0.0803128,9.841725,0.0,0.0,0.0,0.0,0.7300863410750373,0.17738856375217438,0.022458534687757492,0.00022929999977350235
22.6011164188385,1.8781058,-0.21876502,-3.0154889,-0.004705968918008684,nan,nan,nan,nan,12.600434064865112,0.0002071857452392578,0.024046857,-1.2023097,-0.020542536,0.00023675196833975636,0.07826885522109861,9.592663820558231,0.2085028,0.012134518,0.0013201723,1.9960191,-0.12587513,-3.0,0.0,-0.07924742,-1.246642,0.0,0.020259619,0.0801374,9.843605,0.0,0.0,0.0,0.0,0.7296221898441293,0.17225997149944305,0.02246936783194542,0.0031372196972370148
22.70117712020874,1.8703706,-0.3415099,-3.0180638,-0.005674504844299388,nan,nan,nan,nan,12.70051622390747,0.00019693374633789062,-0.060949426,-1.1711047,-0.020409228,0.021315433923231118,0.07970138335062926,9.58607876608614,0.19694884,0.013948832,0.0012498279,1.984148,-0.2493178,-3.0,0.0,-0.15790252,-1.2169546,0.0,0.040111694,0.079615265,9.849096,0.0,0.0,0.0,0.0,0.729368282866924,0.16263316571712494,0.0059785740450024605,0.005971340462565422
22.803144931793213,1.8554446,-0.448515,-3.0201993,-0.006534943143792812,nan,nan,nan,nan,12.802759647369385,0.0002598762512207031,-0.13995247,-1.1220343,-0.01943009,0.03973927660872779,0.08145746082673577,9.581115156286396,0.18524306,0.017427418,0.0016965355,1.9639217,-0.37134716,-3.0,0.0,-0.23761062,-1.1667801,0.0,0.059705503,0.078730255,9.858048,0.0,0.0,0.0,0.0,0.7291768380157856,0.1507248878479004,-0.0020030150189995766,0.008266981691122055
22.902321815490723,1.8302402,-0.5555621,-3.0228057,-0.007479562997250042,nan,nan,nan,nan,12.901700973510742,0.0003104209899902344,-0.22611466,-1.0487005,-0.017014043,0.05837256126999325,0.0821762066669336,9.578302046866154,0.16640487,-0.00984671,0.0031530182,1.9366337,-0.48362532,-3.0,0.0,-0.31381336,-1.0999032,0.0,0.0776935,0.07754511,9.869342,0.0,0.0,0.0,0.0,0.7290683152631248,0.12955458462238312,-0.027453623712062836,0.011002156883478165
23.001723289489746,1.8020521,-0.63783896,-3.025108,-0.008255141440888257,nan,nan,nan,nan,13.00138258934021,0.00024700164794921875,-0.29737645,-0.9723979,-0.01362041,0.07241568879323793,0.08035408659186527,9.582638558769832,0.14956264,-0.027927652,0.0047423937,1.9015751,-0.58919084,-3.0,0.0,-0.38936096,-1.0153551,0.0,0.09456046,0.0760364,9.882578,0.0,0.0,0.0,0.0,0.7292356004382559,0.12818685173988342,-0.008821696043014526,0.01626499556005001
23.101726293563843,1.7604634,-0.7233997,-3.0273626,-0.008997560558091387,nan,nan,nan,nan,13.101280212402344,0.000247955322265625,-0.37866387,-0.8669387,-0.008940095,0.08757767693286703,0.07822235140318234,9.589082661221038,0.1360098,-0.021102985,0.0069312244,1.8589602,-0.685719,-3.0,0.0,-0.4635387,-0.91466385,0.0,0.10993661,0.074221976,9.896831,0.0,0.0,0.0,0.0,0.7294841180732274,0.10700415819883347,-0.01763995923101902,0.02107233926653862
23.202131748199463,1.7153031,-0.79058564,-3.0288343,-0.009365872218012182,nan,nan,nan,nan,13.201692581176758,0.000286102294921875,-0.45004383,-0.7568932,-0.0035906264,0.09998053327226025,0.0762242827824533,9.601614957923305,0.11665613,-0.023210187,0.01090833,1.8087472,-0.77186775,-3.0,0.0,-0.5362594,-0.79894865,0.0,0.123615675,0.0721088,9.911189,0.0,0.0,0.0,0.0,0.7299671887014497,0.09693264216184616,-0.010232297703623772,0.025171514600515366
23.30165410041809,1.6687508,-0.84139895,-3.029409,-0.009387310096798024,nan,nan,nan,nan,13.30126953125,0.0002841949462890625,-0.5124821,-0.64662755,0.0012503449,0.10968920665768112,0.07416605313751212,9.617301889980446,0.09880925,-0.021850096,0.0127777625,1.751844,-0.8451818,-3.0,0.0,-0.6062679,-0.671646,0.0,0.13522051,0.06974268,9.924501,0.0,0.0,0.0,0.0,0.730571414020726,0.10343234241008759,0.014028100296854973,0.028633322566747665
