time,x,y,z,yaw,platform,trajectory,controller,traj_time,comp_time,vx,vy,vz,roll,pitch,f,p,q,r,x_ref,y_ref,z_ref,yaw_ref,vx_ref,vy_ref,vz_ref,roll_ref,pitch_ref,f_ref,u_ff_df,u_ff_dphi,u_ff_dpsi,u_ff_dth,throttle,p_cmd,q_cmd,r_cmd
10.002273797988892,-0.010737665,0.040316794,-2.6238034,-0.0009648556996669456,SIM,hover,contraction,1.6689300537109375e-06,0.0008902549743652344,-0.011631287,0.044981536,-0.20260568,-0.007454070066638427,-0.0032729651814409344,9.808868179321289,0.009064377,-0.0020123764,-0.001598984,0.0,0.0,-3.0,0.0,0.0,0.0,0.0,0.0,-0.0,9.81,0.0,0.0,0.0,0.0,0.7379107386064773,-0.064697265625,-0.009368896484375,0.00164794921875
10.10387659072876,-0.013100186,0.040974326,-2.6394923,-0.0012128317784892199,nan,nan,nan,0.10158729553222656,0.0009958744049072266,-0.008571909,0.041310314,-0.1958291,-0.006864673961072938,-0.00344752138424842,9.803546142578126,0.0051688165,-0.0013938064,-0.0016004957,0.0,0.0,-3.0,0.0,0.0,0.0,0.0,0.0,-0.0,9.81,0.0,0.0,0.0,0.0,0.7377078126204341,-0.0630035400390625,-0.006256103515625,0.002197265625
10.202832460403442,-0.014897372,0.04205675,-2.6554143,-0.0015682121711959422,nan,nan,nan,0.2006547451019287,0.0010554790496826172,-0.005396331,0.038117193,-0.19921523,-0.008178437630886676,-0.003641693011819269,9.793453979492188,-0.030403445,-0.0020549186,-0.0022665127,0.0,0.0,-3.0,0.0,0.0,0.0,0.0,0.0,-0.0,9.81,0.0,0.0,0.0,0.0,0.7373228533357042,-0.0522918701171875,-0.002227783203125,0.002655029296875
10.30667781829834,-0.016402412,0.04363618,-2.6759653,-0.0020142357056468123,nan,nan,nan,0.3043520450592041,0.0009317398071289062,-0.000992425,0.031831354,-0.21623768,-0.01278140527525596,-0.003841512637681399,9.78134269714356,-0.04987117,-0.0016514177,-0.00174198,0.0,0.0,-3.0,0.0,0.0,0.0,0.0,0.0,-0.0,9.81,0.0,0.0,0.0,0.0,0.7368606140622869,-0.0195159912109375,0.00396728515625,0.003448486328125
10.403679609298706,-0.016878545,0.044555325,-2.701327,-0.0024874045177512164,nan,nan,nan,0.4019131660461426,0.0017702579498291016,0.0039334483,0.019533604,-0.2370912,-0.01687586051910337,-0.003577501440242825,9.765637969970705,-0.018570956,0.00575828,-0.0031040423,0.0,0.0,-3.0,0.0,0.0,0.0,0.0,0.0,-0.0,9.81,0.0,0.0,0.0,0.0,0.7362608010107691,0.019622802734375,0.009185791015625,0.003814697265625
10.502026081085205,-0.016565159,0.043656718,-2.7252207,-0.0028703989549385533,nan,nan,nan,0.499661922454834,0.0012080669403076172,0.007427638,0.006289614,-0.2538419,-0.017018540142413566,-0.0027978284127023745,9.748868484497066,0.015531709,0.009335479,-0.0029427947,0.0,0.0,-3.0,0.0,0.0,0.0,0.0,0.0,-0.0,9.81,0.0,0.0,0.0,0.0,0.7356197887833777,0.0400543212890625,0.0098876953125,0.0035400390625
10.604015827178955,-0.015565453,0.041799005,-2.7488034,-0.0031966577912257684,nan,nan,nan,0.6027045249938965,0.0019712448120117188,0.010105747,-0.0046701063,-0.26872712,-0.014519003298222918,-0.0018236346854871854,9.728286209106445,0.039409272,0.011356727,-0.0018476915,0.0,0.0,-3.0,0.0,0.0,0.0,0.0,0.0,-0.0,9.81,0.0,0.0,0.0,0.0,0.734832278904228,0.04376220703125,0.00897216796875,0.003173828125
10.70139193534851,-0.01315536,0.038843874,-2.7813728,-0.003544957061858756,nan,nan,nan,0.699016809463501,0.0009636878967285156,0.013023551,-0.013889405,-0.28554714,-0.009702996772780487,-0.0006738788750166869,9.70629180908203,0.04496576,0.0099759055,-0.0029359339,0.0,0.0,-3.0,0.0,0.0,0.0,0.0,0.0,-0.0,9.81,0.0,0.0,0.0,0.0,0.73398981761666,0.03338623046875,0.0086822509765625,0.002532958984375
10.802668333053589,-0.010798822,0.036007416,-2.8136308,-0.0038048388705206357,nan,nan,nan,0.800325870513916,0.0008311271667480469,0.014438735,-0.016964506,-0.29896018,-0.005330818515516348,0.000278789424926984,9.683267898559567,0.037497032,0.010681644,-0.0024877845,0.0,0.0,-3.0,0.0,0.0,0.0,0.0,0.0,-0.0,9.81,0.0,0.0,0.0,0.0,0.7331068993262331,0.0164642333984375,0.0074310302734375,0.00201416015625
10.902419567108154,-0.008954764,0.034081623,-2.8449397,-0.004011295571980892,nan,nan,nan,0.9000473022460938,0.0008292198181152344,0.014207694,-0.015380655,-0.30960014,-0.002579099858737776,0.0011335169819779445,9.659812469482418,0.018848518,0.006093399,-0.0027911942,0.0,0.0,-3.0,0.0,0.0,0.0,0.0,0.0,-0.0,9.81,0.0,0.0,0.0,0.0,0.7322063531930515,0.000701904296875,0.003814697265625,0.001556396484375
11.00144076347351,-0.0075727156,0.033013888,-2.8744628,-0.004213908436012669,nan,nan,nan,0.9990549087524414,0.0008018016815185547,0.013073096,-0.0120299375,-0.31800288,-0.0016363735013349904,0.0016447836793622717,9.636661605834956,0.0034797075,0.0045802793,-0.0026293003,0.0,0.0,-3.0,0.0,0.0,0.0,0.0,0.0,-0.0,9.81,0.0,0.0,0.0,0.0,0.7313164277630306,-0.008453369140625,0.0005340576171875,0.00140380859375
11.101658821105957,-0.006312591,0.032337293,-2.9099152,-0.0044468030677344145,nan,nan,nan,1.0993378162384033,0.0008566379547119141,0.011098563,-0.007835741,-0.32562742,-0.001909249679292105,0.001912998781026909,9.615736236572264,-0.00835262,0.00027419598,-0.0029461083,0.0,0.0,-3.0,0.0,0.0,0.0,0.0,0.0,-0.0,9.81,0.0,0.0,0.0,0.0,0.7305111307227219,-0.0125579833984375,-0.002716064453125,0.001373291015625
11.201951503753662,-0.005611519,0.032599278,-2.9428024,-0.0046493525047287074,nan,nan,nan,1.1995961666107178,0.000911712646484375,0.009046197,-0.004178538,-0.33072665,-0.003066287142841357,0.0017908503083847727,9.595101852416992,-0.013620989,-0.0018859002,-0.002141278,0.0,0.0,-3.0,0.0,0.0,0.0,0.0,0.0,-0.0,9.81,0.0,0.0,0.0,0.0,0.7297161735349829,-0.0116424560546875,-0.00408935546875,0.00189208984375
11.305340766906738,-0.004838244,0.03365666,-2.9783266,-0.004849687688874012,nan,nan,nan,1.3034777641296387,0.001135110855102539,0.007586161,-0.0011594475,-0.33413458,-0.004465209778849644,0.0013835562467772178,9.572863159179688,-0.013487788,-0.0051494315,-0.0023402283,0.0,0.0,-3.0,0.0,0.0,0.0,0.0,0.0,-0.0,9.81,0.0,0.0,0.0,0.0,0.7288584513261814,-0.009033203125,-0.0028076171875,0.002716064453125
11.401735544204712,-0.0037819732,0.034633253,-3.0106153,-0.005001393714234019,nan,nan,nan,1.3993604183197021,0.0007574558258056641,0.00699591,5.1479485e-05,-0.33542675,-0.0056992412205964325,0.0010771858389981848,9.5519548034668,-0.011334823,-0.0024609636,-0.0022166376,0.0,0.0,-3.0,0.0,0.0,0.0,0.0,0.0,-0.0,9.81,0.0,0.0,0.0,0.0,0.7280511296522666,-0.00482177734375,-0.00067138671875,0.00323486328125
11.515458345413208,-0.0028365056,0.035306796,-3.0421646,-0.005060909091543102,nan,nan,nan,1.5132288932800293,0.0012557506561279297,0.0064590382,-4.450918e-05,-0.33436945,-0.006482940116426689,0.0008343220843936017,9.532563018798829,-0.004501256,-0.00042321326,-0.0012374527,0.0,0.0,-3.0,0.0,0.0,0.0,0.0,0.0,-0.0,9.81,0.0,0.0,0.0,0.0,0.7273015762804236,-0.0009002685546875,0.0010528564453125,0.003692626953125
11.608596086502075,-0.002475497,0.03615649,-3.0757425,-0.005102755260188806,nan,nan,nan,1.606201410293579,0.000993967056274414,0.0058395094,-0.00069921336,-0.33172342,-0.006829206303246688,0.0008401512504248032,9.516401138305662,-0.0020806831,-0.00024943854,-0.0010995456,0.0,0.0,-3.0,0.0,0.0,0.0,0.0,0.0,-0.0,9.81,0.0,0.0,0.0,0.0,0.7266762861556457,0.0011444091796875,0.000518798828125,0.003814697265625
11.701864957809448,-0.0024037862,0.03678815,-3.1061637,-0.005106968987420647,nan,nan,nan,1.699463129043579,0.0008966922760009766,0.0051715374,-0.0015613372,-0.3280893,-0.006897883753057846,0.0009691753964771177,9.500131378173828,9.132137e-05,0.002040687,-0.00069514295,0.0,0.0,-3.0,0.0,0.0,0.0,0.0,0.0,-0.0,9.81,0.0,0.0,0.0,0.0,0.7260462857244634,0.00213623046875,-0.001068115234375,0.003814697265625
11.805008172988892,-0.0024256185,0.037354425,-3.1334717,-0.005089585351999294,nan,nan,nan,1.8027997016906738,0.0008182525634765625,0.004564478,-0.0021763206,-0.32315776,-0.006758813730302683,0.0009340876269394727,9.485784225463869,0.0029949478,-0.0013562242,0.0011034015,0.0,0.0,-3.0,0.0,0.0,0.0,0.0,0.0,-0.0,9.81,0.0,0.0,0.0,0.0,0.725490285072341,0.00189208984375,-0.0016021728515625,0.00408935546875
11.91496753692627,-0.0023335477,0.038298536,-3.1677094,-0.0050403803057025255,nan,nan,nan,1.9129600524902344,0.0013816356658935547,0.003839673,-0.0025229903,-0.3157513,-0.006367455118001761,0.000679122374146468,9.47194595336914,0.0036722417,-0.0034206198,0.0014220906,0.0,0.0,-3.0,0.0,0.0,0.0,0.0,0.0,-0.0,9.81,0.0,0.0,0.0,0.0,0.7249536067571158,-0.00054931640625,-0.0009307861328125,0.0042724609375
12.001527547836304,-0.0027147506,0.0394152,-3.1967182,-0.004958402834575088,nan,nan,nan,1.9991955757141113,0.0007295608520507812,0.0030700571,-0.0021862583,-0.3085406,-0.006238161283244119,0.0005923660203250858,9.462033996582031,-0.0020893775,4.9990274e-05,0.0017217036,0.0,0.0,-3.0,0.0,0.0,0.0,0.0,0.0,-0.0,9.81,0.0,0.0,0.0,0.0,0.7245689584897979,-0.0027313232421875,-0.0019378662109375,0.004302978515625
12.104565382003784,-0.0036850688,0.040401522,-3.2231715,-0.004871003927123866,nan,nan,nan,2.102684497833252,0.0015060901641845703,0.0017776103,-0.0016101737,-0.30134514,-0.006327353795481459,0.0005031559234904837,9.452383270263672,-0.0024630115,-0.0043600835,0.0021822352,0.0,0.0,-3.0,0.0,0.0,0.0,0.0,0.0,-0.0,9.81,0.0,0.0,0.0,0.0,0.7241942540378145,-0.0039520263671875,-0.0040740966796875,0.0045166015625
12.212165355682373,-0.005031191,0.04149216,-3.2538993,-0.0047292748689905005,nan,nan,nan,2.2103264331817627,0.0019757747650146484,0.00057239505,-0.0015918722,-0.2921053,-0.006650003753714146,0.00014660803480071039,9.44389991760254,-0.0031309656,-0.0045454195,0.002415753,0.0,0.0,-3.0,0.0,0.0,0.0,0.0,0.0,-0.0,9.81,0.0,0.0,0.0,0.0,0.7238647166764292,-0.003082275390625,-0.0049896240234375,0.004730224609375
12.303207874298096,-0.006575913,0.042680494,-3.2859323,-0.004527079077716163,nan,nan,nan,2.3011868000030518,0.001247406005859375,0.0002499695,-0.0016757272,-0.28113446,-0.0070162280360015015,-0.000428174672253423,9.437366027832033,-0.0019695966,-0.0058457213,0.0019476798,0.0,0.0,-3.0,0.0,0.0,0.0,0.0,0.0,-0.0,9.81,0.0,0.0,0.0,0.0,0.7236108056405245,-0.001708984375,-0.0034027099609375,0.00518798828125
12.404074430465698,-0.008292645,0.04311959,-3.3100271,-0.004333854418655259,nan,nan,nan,2.4021570682525635,0.0014972686767578125,-0.00022998612,-0.0021993888,-0.27175415,-0.007247895128887834,-0.0008234183786148819,9.431370010375975,-0.0016151698,-0.005157925,0.0029035236,0.0,0.0,-3.0,0.0,0.0,0.0,0.0,0.0,-0.0,9.81,0.0,0.0,0.0,0.0,0.7233777193063984,0.0001068115234375,-0.00341796875,0.00543212890625
12.511444330215454,-0.0107627595,0.042882886,-3.3395736,-0.004068672099890466,nan,nan,nan,2.5095369815826416,0.001402139663696289,-0.0003970663,-0.0036616735,-0.2594155,-0.0074073069944406295,-0.0011865547867933035,9.426617660522455,-0.0010450062,-0.002327182,0.002979421,0.0,0.0,-3.0,0.0,0.0,0.0,0.0,0.0,-0.0,9.81,0.0,0.0,0.0,0.0,0.7231929260764937,0.003753662109375,-0.00384521484375,0.005706787109375
12.604982137680054,-0.0124601135,0.041765388,-3.3618882,-0.0038518803532764058,nan,nan,nan,2.6033661365509033,0.001874685287475586,0.00011133219,-0.005728979,-0.24931262,-0.007358022088432062,-0.0013945969070545683,9.424000015258784,0.0013059679,-0.001370356,0.003372323,0.0,0.0,-3.0,0.0,0.0,0.0,0.0,0.0,-0.0,9.81,0.0,0.0,0.0,0.0,0.7230911200886698,0.0076751708984375,-0.003509521484375,0.005645751953125
12.715009689331055,-0.0139416205,0.039554834,-3.3867893,-0.0035420238762766875,nan,nan,nan,2.713134527206421,0.0020437240600585938,0.0011106085,-0.007990269,-0.23717447,-0.00685294221116559,-0.0016683409133584348,9.421241226196281,0.00856792,-0.002673822,0.0019477156,0.0,0.0,-3.0,0.0,0.0,0.0,0.0,0.0,-0.0,9.81,0.0,0.0,0.0,0.0,0.722983809403438,0.0106353759765625,-0.0018310546875,0.005615234375
12.805689334869385,-0.015196504,0.036899496,-3.408296,-0.00319672514321385,nan,nan,nan,2.8036935329437256,0.0012507438659667969,0.002056156,-0.009755193,-0.22550017,-0.005952972851651235,-0.0018135953572733232,9.42004104614257,0.010898925,-0.0009463101,0.0038378744,0.0,0.0,-3.0,0.0,0.0,0.0,0.0,0.0,-0.0,9.81,0.0,0.0,0.0,0.0,0.7229371201962923,0.01116943359375,-0.000823974609375,0.005615234375
12.911644697189331,-0.016957277,0.0333902,-3.4285052,-0.002871077789379999,nan,nan,nan,2.9098072052001953,0.0016722679138183594,0.0028401841,-0.011008941,-0.21393457,-0.004834095950192232,-0.001900726472050085,9.419327316284175,0.012755043,-0.0010471869,0.00309617,0.0,0.0,-3.0,0.0,0.0,0.0,0.0,0.0,-0.0,9.81,0.0,0.0,0.0,0.0,0.7229093533843624,0.010467529296875,-0.0008392333984375,0.005401611328125
13.00240182876587,-0.0188002,0.029423177,-3.4478157,-0.0025794719969341093,nan,nan,nan,3.0001344680786133,0.0009646415710449219,0.0032507945,-0.011411125,-0.20233001,-0.0037558703229543665,-0.0019242051534404947,9.419519958496089,0.012121578,0.00084823207,0.0037867508,0.0,0.0,-3.0,0.0,0.0,0.0,0.0,0.0,-0.0,9.81,0.0,0.0,0.0,0.0,0.7229168480043253,0.009246826171875,-0.001861572265625,0.0052490234375
13.101905345916748,-0.02066627,0.025427744,-3.4659529,-0.002302663202043579,nan,nan,nan,3.0995941162109375,0.0009975433349609375,0.0036232348,-0.011185374,-0.19054791,-0.002746877831449006,-0.002023694744333726,9.420517578124995,0.010587129,-0.004346248,0.004404299,0.0,0.0,-3.0,0.0,0.0,0.0,0.0,0.0,-0.0,9.81,0.0,0.0,0.0,0.0,0.7229556585211346,0.0075531005859375,-0.0026397705078125,0.005035400390625
13.20178771018982,-0.02234882,0.021860046,-3.4842432,-0.0019310668164076287,nan,nan,nan,3.199533462524414,0.0013058185577392578,0.004594919,-0.0093247425,-0.17807308,-0.0019524496445309473,-0.002232000590180805,9.422291030883782,0.0062282598,-0.0014988802,0.0050580595,0.0,0.0,-3.0,0.0,0.0,0.0,0.0,0.0,-0.0,9.81,0.0,0.0,0.0,0.0,0.7230246462945502,0.0042266845703125,-0.0015411376953125,0.004974365234375
13.301473140716553,-0.024055425,0.019337246,-3.5017939,-0.0015821018060486023,nan,nan,nan,3.2991411685943604,0.00096893310546875,0.005371681,-0.0060917097,-0.16597165,-0.0014156838721159758,-0.002377398356711913,9.42467750549316,0.003671716,-0.0015253595,0.004787632,0.0,0.0,-3.0,0.0,0.0,0.0,0.0,0.0,-0.0,9.81,0.0,0.0,0.0,0.0,0.7231174705315836,0.00018310546875,-0.0013275146484375,0.004791259765625
13.401672124862671,-0.025146144,0.01818043,-3.517504,-0.0012532928941323602,nan,nan,nan,3.3993213176727295,0.0007708072662353516,0.0067363684,-0.002039466,-0.15528157,-0.001325299079350107,-0.0024639617037161,9.427270507812496,-0.0019890198,-0.0009555813,0.003959845,0.0,0.0,-3.0,0.0,0.0,0.0,0.0,0.0,-0.0,9.81,0.0,0.0,0.0,0.0,0.7232183145426886,-0.005828857421875,0.000274658203125,0.004669189453125
13.50920557975769,-0.025551355,0.017537469,-3.5314941,-0.0009404094955094389,nan,nan,nan,3.5073986053466797,0.0020825862884521484,0.008547509,0.0010807151,-0.14595295,-0.001581391214655603,-0.0025182454407743915,9.43017150878906,-0.004813948,3.0750543e-05,0.0038958532,0.0,0.0,-3.0,0.0,0.0,0.0,0.0,0.0,-0.0,9.81,0.0,0.0,0.0,0.0,0.7233311204408718,-0.0081939697265625,0.0029296875,0.004486083984375
13.601489782333374,-0.025283298,0.017283991,-3.548526,-0.0005175495241786403,nan,nan,nan,3.5991554260253906,0.0009617805480957031,0.01106904,0.0046825293,-0.13431875,-0.002312762486358316,-0.0022910630947861055,9.433020706176755,-0.007613389,0.0036989488,0.004260857,0.0,0.0,-3.0,0.0,0.0,0.0,0.0,0.0,-0.0,9.81,0.0,0.0,0.0,0.0,0.7234418950600433,-0.009307861328125,0.0054931640625,0.0040283203125
13.706469058990479,-0.024877453,0.017793074,-3.5612586,-0.00018731443165570473,nan,nan,nan,3.7044599056243896,0.001352071762084961,0.012575318,0.007167312,-0.12531035,-0.003106179571190234,-0.0019909376090929687,9.436378631591792,-0.009317405,0.0036963497,0.0036753642,0.0,0.0,-3.0,0.0,0.0,0.0,0.0,0.0,-0.0,9.81,0.0,0.0,0.0,0.0,0.7235724271619834,-0.009185791015625,0.00640869140625,0.003570556640625
13.802034139633179,-0.024279073,0.018569821,-3.5760016,0.00015056020843301184,nan,nan,nan,3.799652099609375,0.0007457733154296875,0.013787182,0.008853418,-0.11401242,-0.0041898003215020095,-0.0015269586781894162,9.440355453491202,-0.009164891,0.0048520025,0.0029203363,0.0,0.0,-3.0,0.0,0.0,0.0,0.0,0.0,-0.0,9.81,0.0,0.0,0.0,0.0,0.7237269874922723,-0.0066070556640625,0.0060577392578125,0.0029296875
13.901517391204834,-0.0235408,0.018885512,-3.5864928,0.00039900930455010484,nan,nan,nan,3.899132251739502,0.001270294189453125,0.014347918,0.009367868,-0.105141304,-0.004988032827592574,-0.0009530130309793883,9.444515151977528,-0.008661389,0.007261707,0.003675743,0.0,0.0,-3.0,0.0,0.0,0.0,0.0,0.0,-0.0,9.81,0.0,0.0,0.0,0.0,0.7238886205430047,-0.003692626953125,0.0042266845703125,0.00225830078125
14.001510381698608,-0.022849284,0.018999076,-3.5968072,0.0006215001507990192,nan,nan,nan,3.999135732650757,0.000911712646484375,0.014359532,0.0086664045,-0.09565954,-0.005691065182881183,-0.0003538597026755408,9.448936691284171,-0.005265931,0.004687596,0.0029379409,0.0,0.0,-3.0,0.0,0.0,0.0,0.0,0.0,-0.0,9.81,0.0,0.0,0.0,0.0,0.7240603888992616,0.000701904296875,0.001373291015625,0.00152587890625
14.107222080230713,-0.022270413,0.018989366,-3.6068132,0.000813783288628995,nan,nan,nan,4.104854106903076,0.0008666515350341797,0.0137489885,0.007374053,-0.086019345,-0.005960710825203075,3.3756925654770953e-07,9.453530120849601,0.0002931344,0.00024048005,0.0021072065,0.0,0.0,-3.0,0.0,0.0,0.0,0.0,0.0,-0.0,9.81,0.0,0.0,0.0,0.0,0.7242387923065113,0.0040130615234375,-0.0010223388671875,0.001220703125
14.204494953155518,-0.022007348,0.018987212,-3.6150718,0.0009294416325623502,nan,nan,nan,4.202540397644043,0.0012552738189697266,0.0128639545,0.0059977667,-0.07752986,-0.005792612979622047,1.122958852484146e-05,9.457872390747061,0.0030035456,-0.0012290938,0.0016305248,0.0,0.0,-3.0,0.0,0.0,0.0,0.0,0.0,-0.0,9.81,0.0,0.0,0.0,0.0,0.7244074011189956,0.0051422119140625,-0.001983642578125,0.00115966796875
14.309229850769043,-0.021500083,0.019271448,-3.6232708,0.0010499020658889702,nan,nan,nan,4.3072829246521,0.0016701221466064453,0.012291184,0.0052513806,-0.06904326,-0.005396265995244948,-0.00020188483828431636,9.461853332519524,0.003950131,-0.002729018,0.0013849357,0.0,0.0,-3.0,0.0,0.0,0.0,0.0,0.0,-0.0,9.81,0.0,0.0,0.0,0.0,0.7245619456823104,0.003997802734375,-0.00103759765625,0.001251220703125
14.407682418823242,-0.02043432,0.019778728,-3.6305377,0.0011275915976630183,nan,nan,nan,4.4054083824157715,0.001070261001586914,0.012425584,0.005194463,-0.06157036,-0.005133044596489188,-0.0003742220562257259,9.466003036499014,0.0029649849,-0.0023544934,0.0013337007,0.0,0.0,-3.0,0.0,0.0,0.0,0.0,0.0,-0.0,9.81,0.0,0.0,0.0,0.0,0.7247230071773441,0.0021820068359375,0.001312255859375,0.00140380859375
14.505549192428589,-0.018485814,0.021132087,-3.6377325,0.001248631615350291,nan,nan,nan,4.503627061843872,0.001232147216796875,0.013553633,0.005869475,-0.05371671,-0.004894404995821863,-0.0004956125071071682,9.471135253906244,0.002856356,-0.00051907665,0.00039207106,0.0,0.0,-3.0,0.0,0.0,0.0,0.0,0.0,-0.0,9.81,0.0,0.0,0.0,0.0,0.7249221539148561,-0.001251220703125,0.0056610107421875,0.001495361328125
14.601951360702515,-0.016872616,0.023125488,-3.642854,0.0013462128739981313,nan,nan,nan,4.599599599838257,0.0009682178497314453,0.014263856,0.0072653526,-0.047283728,-0.004801126952348905,-9.622038016687817e-05,9.47614356994628,-0.0006877838,0.0063092085,0.0011093637,0.0,0.0,-3.0,0.0,0.0,0.0,0.0,0.0,-0.0,9.81,0.0,0.0,0.0,0.0,0.7251164408642052,-0.006011962890625,0.006011962890625,0.001068115234375
14.701993703842163,-0.0154134175,0.02665042,-3.64786,0.0015371040776758038,nan,nan,nan,4.699602842330933,0.0008018016815185547,0.014410661,0.009577985,-0.03971203,-0.005191631011392006,0.0006136424637359639,9.48121551513671,-0.0065789595,0.0069590635,0.0017274813,0.0,0.0,-3.0,0.0,0.0,0.0,0.0,0.0,-0.0,9.81,0.0,0.0,0.0,0.0,0.7253131438532677,-0.0111846923828125,0.003387451171875,0.000274658203125
14.804805755615234,-0.014444536,0.030638585,-3.651251,0.0016515319889836171,nan,nan,nan,4.802490234375,0.001016378402709961,0.013830022,0.011377447,-0.033954114,-0.0059881551342446816,0.0010687218220819528,9.486303634643548,-0.011266311,0.0034342834,0.001403441,0.0,0.0,-3.0,0.0,0.0,0.0,0.0,0.0,-0.0,9.81,0.0,0.0,0.0,0.0,0.7255104212659947,-0.0137176513671875,0.0008087158203125,-0.00018310546875
14.901755332946777,-0.0136430105,0.03601878,-3.6542778,0.0017530951845726893,nan,nan,nan,4.899449825286865,0.0010366439819335938,0.012496845,0.012598137,-0.027113734,-0.00726097456961941,0.001414623941981441,9.491326065063467,-0.012774553,0.0023424008,0.000628158,0.0,0.0,-3.0,0.0,0.0,0.0,0.0,0.0,-0.0,9.81,0.0,0.0,0.0,0.0,0.725705099891145,-0.01397705078125,-0.00225830078125,-0.00042724609375
15.003439664840698,-0.013219043,0.040791538,-3.6559012,0.0017985839299219323,nan,nan,nan,5.001550197601318,0.0015728473663330078,0.011499944,0.012088356,-0.021412093,-0.00865817844551565,0.0012931639366065006,9.496357650756826,-0.016498355,-0.0014700505,0.0007811214,0.0,0.0,-3.0,0.0,0.0,0.0,0.0,0.0,-0.0,9.81,0.0,0.0,0.0,0.0,0.7259000817493595,-0.0103912353515625,-0.0026092529296875,-0.0003662109375
15.101627588272095,-0.012473355,0.045877755,-3.6570935,0.0018306507750558386,nan,nan,nan,5.0993101596832275,0.0009198188781738281,0.011008869,0.010297889,-0.015423266,-0.010049248780452144,0.0010757220528869738,9.501468353271473,-0.011492991,-0.0012728388,0.00014178046,0.0,0.0,-3.0,0.0,0.0,0.0,0.0,0.0,-0.0,9.81,0.0,0.0,0.0,0.0,0.7260980766363568,-0.0051116943359375,-0.00115966796875,-0.000152587890625
15.202930450439453,-0.011897362,0.0502621,-3.6582544,0.001809360802994383,nan,nan,nan,5.200575828552246,0.0008783340454101562,0.010632869,0.007797573,-0.01071056,-0.010850074934374829,0.001014539130102854,9.506482162475573,-0.005267711,2.4776577e-06,-5.6955618e-05,0.0,0.0,-3.0,0.0,0.0,0.0,0.0,0.0,-0.0,9.81,0.0,0.0,0.0,0.0,0.72629226601975,-0.00152587890625,-0.0007781982421875,-3.0517578125e-05
15.30312204360962,-0.012108744,0.05433906,-3.6595767,0.0017830693927829806,nan,nan,nan,5.300979375839233,0.0009884834289550781,0.009498576,0.004447183,-0.006013402,-0.011054879870589191,0.0009283761229659238,9.51132080078124,-0.00014767179,-0.0023081978,-0.00028118643,0.0,0.0,-3.0,0.0,0.0,0.0,0.0,0.0,-0.0,9.81,0.0,0.0,0.0,0.0,0.7264796223248803,0.000396728515625,-0.00213623046875,3.0517578125e-05
15.407895565032959,-0.013004255,0.057173,-3.660695,0.0017174258713247084,nan,nan,nan,5.405919075012207,0.0015861988067626953,0.007933986,0.0012311898,-0.0030905053,-0.011008667338939848,0.0007656454293434312,9.515825958251945,0.00060032564,-0.0036622377,-0.00095964444,0.0,0.0,-3.0,0.0,0.0,0.0,0.0,0.0,-0.0,9.81,0.0,0.0,0.0,0.0,0.7266540231224672,0.0021514892578125,-0.0042266845703125,0.0003662109375
15.502424716949463,-0.015172652,0.060289852,-3.661862,0.0015448132717767694,nan,nan,nan,5.500096559524536,0.0008718967437744141,0.0054778797,-0.0022366669,0.00044320247,-0.010721924068424964,0.00039693657716788344,9.519585189819331,0.0020842487,-0.005620878,-0.0008066026,0.0,0.0,-3.0,0.0,0.0,0.0,0.0,0.0,-0.0,9.81,0.0,0.0,0.0,0.0,0.7267995165155492,0.002655029296875,-0.007843017578125,0.000732421875
15.60335898399353,-0.017160999,0.061823178,-3.6626093,0.001407717976969528,nan,nan,nan,5.601628065109253,0.0012993812561035156,0.003790971,-0.0051955055,0.002937307,-0.01042845225736759,-0.00012038777304446135,9.5233698272705,0.0023543998,-0.0076102917,0.00036823156,0.0,0.0,-3.0,0.0,0.0,0.0,0.0,0.0,-0.0,9.81,0.0,0.0,0.0,0.0,0.726945964175321,0.0041656494140625,-0.00921630859375,0.0013427734375
15.703006029129028,-0.019137148,0.0626083,-3.663459,0.0012862146211032087,nan,nan,nan,5.701423406600952,0.0018162727355957031,0.002704559,-0.0081708515,0.0054277824,-0.01004404721566611,-0.0008433902715130337,9.526847610473627,0.0049553392,-0.008295855,-0.000155116,0.0,0.0,-3.0,0.0,0.0,0.0,0.0,0.0,-0.0,9.81,0.0,0.0,0.0,0.0,0.7270805123656644,0.005859375,-0.0084686279296875,0.001861572265625
15.801457643508911,-0.020606548,0.062119845,-3.6643455,0.0012065787763206551,nan,nan,nan,5.799095869064331,0.0008859634399414062,0.0029366375,-0.01165889,0.008135369,-0.009456505760804347,-0.0017409955051821413,9.530005874633781,0.006780728,-0.008344588,-0.0005763817,0.0,0.0,-3.0,0.0,0.0,0.0,0.0,0.0,-0.0,9.81,0.0,0.0,0.0,0.0,0.7272026777534836,0.0087890625,-0.004180908203125,0.00286865234375
15.901597261428833,-0.021279642,0.060476918,-3.6645584,0.0012209230693089814,nan,nan,nan,5.8992760181427,0.0008733272552490234,0.0043740603,-0.015016017,0.010215531,-0.008687054883278611,-0.0023725785111470277,9.532917709350576,0.011189858,-0.004457554,0.00084202766,0.0,0.0,-3.0,0.0,0.0,0.0,0.0,0.0,-0.0,9.81,0.0,0.0,0.0,0.0,0.7273152930253222,0.01141357421875,0.0009613037109375,0.003326416015625
16.001461267471313,-0.02131373,0.057726197,-3.6641374,0.0013944765977402045,nan,nan,nan,5.999075651168823,0.0008244514465332031,0.007006394,-0.01794008,0.012335468,-0.007512535649714224,-0.002532209421605369,9.535655670166005,0.012216197,0.0015727408,0.0009832282,0.0,0.0,-3.0,0.0,0.0,0.0,0.0,0.0,-0.0,9.81,0.0,0.0,0.0,0.0,0.7274211680319079,0.0122222900390625,0.0058135986328125,0.003448486328125
16.10518765449524,-0.020579651,0.054155424,-3.6635797,0.0016689675732611542,nan,nan,nan,6.103334903717041,0.0012531280517578125,0.009769304,-0.020179396,0.014118522,-0.006360634018227458,-0.002237308979613495,9.538050918579092,0.01340724,0.0046794717,0.0021549396,0.0,0.0,-3.0,0.0,0.0,0.0,0.0,0.0,-0.0,9.81,0.0,0.0,0.0,0.0,0.7275137781280809,0.0125579833984375,0.0087432861328125,0.002838134765625
16.206188917160034,-0.018875076,0.049934994,-3.6629086,0.002093427476557409,nan,nan,nan,6.204376697540283,0.0016241073608398438,0.012562991,-0.021463854,0.015622196,-0.00505566102557043,-0.0015148762729708665,9.540580444335928,0.014530072,0.008844692,0.0031711282,0.0,0.0,-3.0,0.0,0.0,0.0,0.0,0.0,-0.0,9.81,0.0,0.0,0.0,0.0,0.7276115673117303,0.01123046875,0.010223388671875,0.00177001953125
16.308908224105835,-0.016748833,0.046177603,-3.6622794,0.0024526583589779744,nan,nan,nan,6.306523084640503,0.0008370876312255859,0.014398428,-0.021719098,0.016770683,-0.0038588140099338653,-0.0006366153179080403,9.542505035400383,0.014497844,0.011266297,0.0025679492,0.0,0.0,-3.0,0.0,0.0,0.0,0.0,0.0,-0.0,9.81,0.0,0.0,0.0,0.0,0.727685961582294,0.0083770751953125,0.009765625,0.000701904296875
16.40507411956787,-0.013317917,0.04184669,-3.6613383,0.0028756554546401523,nan,nan,nan,6.402873754501343,0.001050710678100586,0.016068876,-0.02085324,0.017738437,-0.0028157619680315585,0.00047866357157166917,9.544769439697259,0.010438824,0.010944745,0.0023665836,0.0,0.0,-3.0,0.0,0.0,0.0,0.0,0.0,-0.0,9.81,0.0,0.0,0.0,0.0,0.7277734815872873,0.00518798828125,0.0089263916015625,-0.000579833984375
16.501482486724854,-0.009918137,0.03900913,-3.660504,0.0031911065373213194,nan,nan,nan,6.499157428741455,0.0008091926574707031,0.016864374,-0.0186419,0.01858575,-0.002095526000684131,0.0014112822437755135,9.546643676757805,0.008636297,0.01097764,0.0016172989,0.0,0.0,-3.0,0.0,0.0,0.0,0.0,0.0,-0.0,9.81,0.0,0.0,0.0,0.0,0.7278459136421486,0.0003509521484375,0.00787353515625,-0.001739501953125
16.602927446365356,-0.0057645896,0.037052568,-3.659647,0.00346281579897398,nan,nan,nan,6.600545167922974,0.0008475780487060547,0.016562276,-0.013988164,0.019500418,-0.0015998454143017593,0.002421891530487885,9.548603286743157,-0.0008231166,0.0069918865,0.00087078,0.0,0.0,-3.0,0.0,0.0,0.0,0.0,0.0,-0.0,9.81,0.0,0.0,0.0,0.0,0.7279216374293895,-0.0076141357421875,0.005584716796875,-0.002777099609375
16.70227813720703,-0.0028490839,0.036448844,-3.6590369,0.0035660609064392087,nan,nan,nan,6.699925422668457,0.0011408329010009766,0.015500987,-0.00990427,0.019717658,-0.0019457175884537367,0.0029712970190638455,9.550309600830072,-0.0076123197,0.005335299,-0.000951219,0.0,0.0,-3.0,0.0,0.0,0.0,0.0,0.0,-0.0,9.81,0.0,0.0,0.0,0.0,0.727987566958633,-0.0113067626953125,0.0037384033203125,-0.003265380859375
16.825527906417847,0.00041980014,0.036348574,-3.6577144,0.0035520306850632065,nan,nan,nan,6.823500871658325,0.0010259151458740234,0.013577291,-0.0051515796,0.02074928,-0.0032655133635784484,0.003357480119548617,9.551706924438472,-0.013213029,0.0038047102,-0.0012149478,0.0,0.0,-3.0,0.0,0.0,0.0,0.0,0.0,-0.0,9.81,0.0,0.0,0.0,0.0,0.7280415531526101,-0.011138916015625,0.00189208984375,-0.0035400390625
16.901607275009155,0.0015381547,0.03619893,-3.6561165,0.0034465161264936903,nan,nan,nan,6.899245023727417,0.0008151531219482422,0.011470208,-0.0035450314,0.02152518,-0.004268953910100947,0.003536504139487473,9.55303115844726,-0.01201779,0.0013650852,-0.00224001,0.0,0.0,-3.0,0.0,0.0,0.0,0.0,0.0,-0.0,9.81,0.0,0.0,0.0,0.0,0.7280927118544235,-0.0079193115234375,-0.00103759765625,-0.00347900390625
17.00153160095215,0.0015205338,0.03577382,-3.6536727,0.003233041611412268,nan,nan,nan,6.999175548553467,0.0007269382476806641,0.008071309,-0.002779079,0.02252752,-0.005306503431969352,0.0034944680217874335,9.554749450683591,-0.007411401,-0.0030980848,-0.0022465843,0.0,0.0,-3.0,0.0,0.0,0.0,0.0,0.0,-0.0,9.81,0.0,0.0,0.0,0.0,0.7281590887943974,-0.0029754638671875,-0.005767822265625,-0.003265380859375
17.103339910507202,0.00037566602,0.03511482,-3.65073,0.0030044028360763607,nan,nan,nan,7.1012725830078125,0.0011370182037353516,0.0039973413,-0.0032652593,0.023478791,-0.005917830423114572,0.0030048949481140674,9.55653968811035,-0.0030127047,-0.007825493,-0.0022175643,0.0,0.0,-3.0,0.0,0.0,0.0,0.0,0.0,-0.0,9.81,0.0,0.0,0.0,0.0,0.728228238599952,0.001953125,-0.009918212890625,-0.002685546875
17.210087060928345,-0.0013977871,0.034774255,-3.6484172,0.0027403500734502176,nan,nan,nan,7.208183288574219,0.0009715557098388672,0.0009665174,-0.0039128573,0.024080893,-0.005950653959059872,0.002239769542781378,9.558191757202147,0.0013489951,-0.008973723,-0.003354846,0.0,0.0,-3.0,0.0,0.0,0.0,0.0,0.0,-0.0,9.81,0.0,0.0,0.0,0.0,0.7282920457618978,0.003875732421875,-0.011474609375,-0.00177001953125
17.301801443099976,-0.0044322214,0.0346203,-3.645597,0.0024406332503253804,nan,nan,nan,7.299435138702393,0.000843048095703125,-0.0023222466,-0.004016197,0.024934072,-0.005710703245482997,0.0010719733779940288,9.559829483032228,0.0023893488,-0.012615421,-0.0024821889,0.0,0.0,-3.0,0.0,0.0,0.0,0.0,0.0,-0.0,9.81,0.0,0.0,0.0,0.0,0.728355293507663,0.0034332275390625,-0.0124664306640625,-0.000701904296875
17.404404401779175,-0.007260233,0.034545332,-3.6433237,0.002218481384104604,nan,nan,nan,7.403047800064087,0.002135038375854492,-0.0040834597,-0.0040018936,0.025594538,-0.005402481003129116,-1.6130712960693572e-05,9.561616668701173,0.003786917,-0.013916423,-0.002894882,0.0,0.0,-3.0,0.0,0.0,0.0,0.0,0.0,-0.0,9.81,0.0,0.0,0.0,0.0,0.7284243070990833,0.0024261474609375,-0.011322021484375,0.000518798828125
17.50958490371704,-0.010112323,0.034658127,-3.6410096,0.001989743585137164,nan,nan,nan,7.507265329360962,0.0013985633850097656,-0.0045930236,-0.0035051366,0.026324585,-0.005117490379524064,-0.001078719640066561,9.563252410888676,0.0028150561,-0.012906832,-0.0025600193,0.0,0.0,-3.0,0.0,0.0,0.0,0.0,0.0,-0.0,9.81,0.0,0.0,0.0,0.0,0.7284874669275339,0.0006103515625,-0.008453369140625,0.001739501953125
17.601611614227295,-0.013767699,0.03505971,-3.6381142,0.001789591730229905,nan,nan,nan,7.599281072616577,0.001070261001586914,-0.004199369,-0.002866662,0.02654958,-0.00503890124090788,-0.002205522850359465,9.56482429504395,2.3291965e-05,-0.007657883,-0.0025039886,0.0,0.0,-3.0,0.0,0.0,0.0,0.0,0.0,-0.0,9.81,0.0,0.0,0.0,0.0,0.728548155958951,-0.0006103515625,-0.0048828125,0.00274658203125
17.701968908309937,-0.016926082,0.03565846,-3.6357517,0.0017368016714750564,nan,nan,nan,7.699625253677368,0.0008666515350341797,-0.0030116315,-0.0019748032,0.026286846,-0.004992610356148918,-0.002878361461086998,9.566374206542974,-0.00046273632,-0.0058757965,0.0006209856,0.0,0.0,-3.0,0.0,0.0,0.0,0.0,0.0,-0.0,9.81,0.0,0.0,0.0,0.0,0.7286079917633511,-0.002349853515625,-0.002227783203125,0.00335693359375
17.801992416381836,-0.019231858,0.036276113,-3.6337655,0.001735930665699013,nan,nan,nan,7.799647331237793,0.0009267330169677734,-0.001210499,-0.00093181786,0.025832107,-0.005067591594238103,-0.003281845001567474,9.567566909790044,-0.0013778269,-0.002276564,0.0008629843,0.0,0.0,-3.0,0.0,0.0,0.0,0.0,0.0,-0.0,9.81,0.0,0.0,0.0,0.0,0.7286540339040106,-0.0038299560546875,0.000518798828125,0.003753662109375
17.903850555419922,-0.021196026,0.037223738,-3.6319504,0.0018036909390164503,nan,nan,nan,7.901550531387329,0.0008196830749511719,0.0007989132,0.00010320989,0.025419097,-0.005257487078830758,-0.00343830149009694,9.568704299926765,-0.0029550863,-0.00054654066,0.0011252065,0.0,0.0,-3.0,0.0,0.0,0.0,0.0,0.0,-0.0,9.81,0.0,0.0,0.0,0.0,0.7286979381093939,-0.0052490234375,0.0023193359375,0.00372314453125
18.001896142959595,-0.024067722,0.038529802,-3.6301126,0.001982539304078064,nan,nan,nan,7.999528884887695,0.000881195068359375,0.0025308467,0.0011697075,0.02437668,-0.005679845657520665,-0.003343389337403524,9.569593353271491,-0.005245159,0.0026322417,0.0027556415,0.0,0.0,-3.0,0.0,0.0,0.0,0.0,0.0,-0.0,9.81,0.0,0.0,0.0,0.0,0.7287322544911025,-0.0058441162109375,0.0014190673828125,0.00347900390625
18.107537269592285,-0.027103001,0.0399001,-3.6290119,0.002273756188652845,nan,nan,nan,8.105360746383667,0.0011363029479980469,0.004182174,0.0016000548,0.02329553,-0.006323339347732836,-0.0030743467025780014,9.570168151855476,-0.004495372,0.0012618349,0.002806633,0.0,0.0,-3.0,0.0,0.0,0.0,0.0,0.0,-0.0,9.81,0.0,0.0,0.0,0.0,0.7287544401714181,-0.004547119140625,-0.0009002685546875,0.002777099609375
18.201497077941895,-0.02942894,0.04082983,-3.6287768,0.0025440300501428053,nan,nan,nan,8.199161529541016,0.0009548664093017578,0.0054447087,0.001060971,0.022149896,-0.006823843570669827,-0.0029797688330759353,9.570466918945321,-0.005012045,-0.00022580147,0.003129011,0.0,0.0,-3.0,0.0,0.0,0.0,0.0,0.0,-0.0,9.81,0.0,0.0,0.0,0.0,0.7287659715148657,-0.0021514892578125,-0.0020904541015625,0.002349853515625
18.30159854888916,-0.03181677,0.041530468,-3.6289768,0.002865978665912521,nan,nan,nan,8.299226522445679,0.0008139610290527344,0.0067992345,0.000112181995,0.02043878,-0.007174984528500128,-0.0030499734167410697,9.570364151000986,-0.0023112039,-0.001046793,0.003207603,0.0,0.0,-3.0,0.0,0.0,0.0,0.0,0.0,-0.0,9.81,0.0,0.0,0.0,0.0,0.728762005059274,0.0004425048828125,-0.00213623046875,0.00201416015625
18.40567374229431,-0.034013957,0.04178685,-3.6293044,0.0031895123774708743,nan,nan,nan,8.403738737106323,0.0017313957214355469,0.008372798,-0.0010839828,0.018341761,-0.0073202520846429135,-0.003222894128352749,9.569885482788095,3.610273e-05,-0.0010172827,0.0034189788,0.0,0.0,-3.0,0.0,0.0,0.0,0.0,0.0,-0.0,9.81,0.0,0.0,0.0,0.0,0.7287435299884771,0.00286865234375,-0.00091552734375,0.00189208984375
18.50127100944519,-0.03570517,0.041380998,-3.6292808,0.003466884202007415,nan,nan,nan,8.498886108398438,0.0008704662322998047,0.009630685,-0.0027274294,0.016568255,-0.007129025019769892,-0.0032504438568974336,9.569090957641611,0.0018940751,-0.0006441497,0.0022704273,0.0,0.0,-3.0,0.0,0.0,0.0,0.0,0.0,-0.0,9.81,0.0,0.0,0.0,0.0,0.7287128628245073,0.0046234130859375,-0.000640869140625,0.0015869140625
18.611759424209595,-0.037222292,0.039971218,-3.628896,0.003676785861534484,nan,nan,nan,8.609873056411743,0.0016651153564453125,0.01130859,-0.004760722,0.015157053,-0.00674578724667999,-0.003194174444652642,9.568072814941415,0.005326832,0.0010262149,0.0011124767,0.0,0.0,-3.0,0.0,0.0,0.0,0.0,0.0,-0.0,9.81,0.0,0.0,0.0,0.0,0.7286735625858893,0.006866455078125,-4.57763671875e-05,0.00140380859375
18.70658254623413,-0.037855804,0.038392786,-3.628395,0.003829907225141942,nan,nan,nan,8.705502271652222,0.0019118785858154297,0.013150345,-0.0062259967,0.014228552,-0.00617396740317332,-0.003131647529482695,9.567172851562509,0.0073035634,-0.0012034688,0.002998147,0.0,0.0,-3.0,0.0,0.0,0.0,0.0,0.0,-0.0,9.81,0.0,0.0,0.0,0.0,0.7286388223199548,0.007293701171875,0.00146484375,0.001068115234375
18.80378007888794,-0.037140466,0.036687814,-3.6279054,0.003941114251736317,nan,nan,nan,8.801412343978882,0.0009548664093017578,0.01577007,-0.0072006024,0.013729134,-0.0054857479347279695,-0.0029854030200098247,9.566438369750985,0.008200306,0.0036965038,0.0006711367,0.0,0.0,-3.0,0.0,0.0,0.0,0.0,0.0,-0.0,9.81,0.0,0.0,0.0,0.0,0.7286104687404026,0.0066680908203125,0.005157470703125,0.00091552734375
18.907582998275757,-0.035222605,0.035019033,-3.6273737,0.004050404894549856,nan,nan,nan,8.905687093734741,0.0014903545379638672,0.018637454,-0.007221467,0.012748029,-0.004834580378062197,-0.0025715956561687126,9.565605010986337,0.005474457,0.007462809,0.0019537648,0.0,0.0,-3.0,0.0,0.0,0.0,0.0,0.0,-0.0,9.81,0.0,0.0,0.0,0.0,0.7285782968447788,0.0045928955078125,0.0087890625,0.000457763671875
19.001455068588257,-0.032015696,0.033487473,-3.6270394,0.00412414545464297,nan,nan,nan,8.999209880828857,0.0007965564727783203,0.02144422,-0.006625717,0.011979037,-0.004273483497923652,-0.0017029730541970878,9.564869613647469,0.0040726955,0.0100191105,-0.00057931873,0.0,0.0,-3.0,0.0,0.0,0.0,0.0,0.0,-0.0,9.81,0.0,0.0,0.0,0.0,0.7285499055954515,0.00177001953125,0.0108642578125,-0.0003662109375
19.11115264892578,-0.02799161,0.0325275,-3.6272116,0.004216290159205144,nan,nan,nan,9.108914852142334,0.0008876323699951172,0.023855025,-0.0054509984,0.011256469,-0.003939137813942252,-0.0006548590848785008,9.564114151000984,0.0022779675,0.010645939,0.001112839,0.0,0.0,-3.0,0.0,0.0,0.0,0.0,0.0,-0.0,9.81,0.0,0.0,0.0,0.0,0.7285207385546918,-0.0013580322265625,0.012115478515625,-0.001434326171875
19.20179271697998,-0.024255436,0.032422412,-3.6276102,0.004236956429426333,nan,nan,nan,9.199439525604248,0.0010788440704345703,0.024378354,-0.003580286,0.0102098305,-0.0038534486847235003,0.0005151800832312592,9.563396759033209,-0.0013323963,0.0126102995,-0.00043489257,0.0,0.0,-3.0,0.0,0.0,0.0,0.0,0.0,-0.0,9.81,0.0,0.0,0.0,0.0,0.7284930402873481,-0.0049591064453125,0.0096282958984375,-0.002197265625
19.30156660079956,-0.020987116,0.032827802,-3.628095,0.00425486345610292,nan,nan,nan,9.299177408218384,0.0009996891021728516,0.024058605,-0.0017419232,0.009091203,-0.004152800460630709,0.0014103924040524962,9.562508773803716,-0.005764613,0.00964034,-0.0008746542,0.0,0.0,-3.0,0.0,0.0,0.0,0.0,0.0,-0.0,9.81,0.0,0.0,0.0,0.0,0.7284587540315554,-0.0068511962890625,0.007080078125,-0.002960205078125
19.401543855667114,-0.017719997,0.033453725,-3.629024,0.00422158996161696,nan,nan,nan,9.399171113967896,0.0007688999176025391,0.022606231,-0.000110217574,0.00789048,-0.0048866883793025,0.002232127957161989,9.561509094238286,-0.009225068,0.006359594,-7.7417855e-05,0.0,0.0,-3.0,0.0,0.0,0.0,0.0,0.0,-0.0,9.81,0.0,0.0,0.0,0.0,0.7284201532083555,-0.00634765625,0.00341796875,-0.00360107421875
19.513710737228394,-0.014613924,0.03444629,-3.630292,0.004059772759940065,nan,nan,nan,9.511889219284058,0.0012164115905761719,0.019815683,0.0006346565,0.0064982134,-0.0058156302966866965,0.002797476403490151,9.56046607971192,-0.0072692228,0.0030560282,-0.0022111072,0.0,0.0,-3.0,0.0,0.0,0.0,0.0,0.0,-0.0,9.81,0.0,0.0,0.0,0.0,0.7283798769327327,-0.0036773681640625,-0.001007080078125,-0.00396728515625
19.601405143737793,-0.012476294,0.03585399,-3.630973,0.0038371688421164796,nan,nan,nan,9.599051475524902,0.0008180141448974609,0.017604772,0.0015043998,0.0054219174,-0.006410972818680456,0.002904147290627046,9.559304733276376,-0.006936754,0.0016400438,-0.0029989015,0.0,0.0,-3.0,0.0,0.0,0.0,0.0,0.0,-0.0,9.81,0.0,0.0,0.0,0.0,0.7283350286547308,-0.00323486328125,-0.002685546875,-0.00384521484375
19.7020902633667,-0.010289104,0.03785037,-3.6312957,0.0035447273070468945,nan,nan,nan,9.699776411056519,0.0008285045623779297,0.014972354,0.0017476777,0.0047126454,-0.00691338810941689,0.0027334041606397186,9.558046264648443,-0.0036820683,-0.002334507,-0.0034410928,0.0,0.0,-3.0,0.0,0.0,0.0,0.0,0.0,-0.0,9.81,0.0,0.0,0.0,0.0,0.7282864266863123,-0.002655029296875,-0.0031890869140625,-0.00323486328125
19.80158519744873,-0.008648916,0.040097624,-3.6314828,0.003234281670494784,nan,nan,nan,9.799221754074097,0.0008289813995361328,0.012616875,0.0018270592,0.0043435814,-0.007360682259325843,0.002443639613285642,9.556932373046878,-0.0038214617,-0.004515969,-0.0040097246,0.0,0.0,-3.0,0.0,0.0,0.0,0.0,0.0,-0.0,9.81,0.0,0.0,0.0,0.0,0.7282434056028935,-0.00238037109375,-0.0031585693359375,-0.00262451171875
19.902841329574585,-0.0068509933,0.04209971,-3.6315362,0.002919303607854898,nan,nan,nan,9.90056562423706,0.0009670257568359375,0.010740334,0.0010842301,0.004026456,-0.007603319530943738,0.0020462072302513956,9.555948028564458,-0.0016982735,-0.0037444306,-0.0026698727,0.0,0.0,-3.0,0.0,0.0,0.0,0.0,0.0,-0.0,9.81,0.0,0.0,0.0,0.0,0.7282053858436562,-0.001739501953125,-0.001678466796875,-0.001953125
20.002090454101562,-0.005190297,0.043161977,-3.6310856,0.0026934977441531033,nan,nan,nan,9.999744415283203,0.0008854866027832031,0.009791241,-0.00013280375,0.003988764,-0.007797657538855021,0.0017823508987528935,9.55515975952149,-0.0022614615,-0.0018820678,-0.0027765948,0.0,0.0,-3.0,0.0,0.0,0.0,0.0,0.0,-0.0,9.81,0.0,0.0,0.0,0.0,0.7281749379774647,0.000274658203125,0.000152587890625,-0.00140380859375
20.101581573486328,-0.0034595209,0.04316726,-3.6300275,0.0023975093243251504,nan,nan,nan,10.099276542663574,0.002679586410522461,0.008800467,-0.0029545506,0.00438834,-0.008054629285169994,0.0016184874028168927,9.554653320312504,-0.0022222702,-0.0016393084,-0.0021888267,0.0,0.0,-3.0,0.0,0.0,0.0,0.0,0.0,-0.0,9.81,0.0,0.0,0.0,0.0,0.7281553754743372,0.0057830810546875,0.0014801025390625,-0.0009765625
20.203625679016113,-0.0018912344,0.04240902,-3.6282542,0.0021379463221485244,nan,nan,nan,10.201287031173706,0.0008566379547119141,0.0077646715,-0.0062402445,0.0050170235,-0.00793668891213525,0.0016741426009641014,9.554517517089845,0.0050499174,0.0010381239,-0.0032785723,0.0,0.0,-3.0,0.0,0.0,0.0,0.0,0.0,-0.0,9.81,0.0,0.0,0.0,0.0,0.7281501296411471,0.0106353759765625,0.001220703125,-0.000823974609375
20.30156946182251,0.0001891428,0.041409798,-3.6257274,0.00193633257390281,nan,nan,nan,10.299288272857666,0.0007724761962890625,0.0069885734,-0.008758036,0.0058717667,-0.007056165295815341,0.0017820472024874245,9.554750823974612,0.01069321,0.001151473,-0.0027186987,0.0,0.0,-3.0,0.0,0.0,0.0,0.0,0.0,-0.0,9.81,0.0,0.0,0.0,0.0,0.7281591418416916,0.0105133056640625,0.00146484375,-0.0006103515625
20.403995990753174,0.0020741238,0.040214464,-3.6234028,0.0017569680421741863,nan,nan,nan,10.401915788650513,0.0014574527740478516,0.0062277406,-0.00996731,0.0065564704,-0.006019420542261665,0.0018881821684626487,9.55525756835938,0.011485846,0.0010445672,-0.0022792497,0.0,0.0,-3.0,0.0,0.0,0.0,0.0,0.0,-0.0,9.81,0.0,0.0,0.0,0.0,0.7281787160329811,0.0076751708984375,0.0015869140625,-0.00067138671875
20.50724482536316,0.004222818,0.03859133,-3.6212187,0.0015833255936402793,nan,nan,nan,10.505147218704224,0.001047372817993164,0.005512792,-0.010195937,0.0074169794,-0.004794175903671521,0.0020051726353376154,9.556029357910163,0.011907471,0.00185636,-0.002540497,0.0,0.0,-3.0,0.0,0.0,0.0,0.0,0.0,-0.0,9.81,0.0,0.0,0.0,0.0,0.7282085272186984,0.0029296875,0.0020751953125,-0.00048828125
20.616188764572144,0.006300727,0.037127685,-3.6191435,0.0014335848899221853,nan,nan,nan,10.614232301712036,0.0009353160858154297,0.004611948,-0.008825878,0.008113411,-0.00392660656846113,0.002153173008538456,9.557051620483406,0.0061365566,0.003343822,-0.0013210665,0.0,0.0,-3.0,0.0,0.0,0.0,0.0,0.0,-0.0,9.81,0.0,0.0,0.0,0.0,0.7282480113359681,-0.0023345947265625,0.001983642578125,-0.000457763671875
20.70197343826294,0.008150168,0.035595294,-3.617512,0.0013632597203547146,nan,nan,nan,10.699618339538574,0.0008308887481689453,0.003616259,-0.0073988386,0.008634836,-0.0036398158876864385,0.0023441212275412404,9.557983169555671,0.002118784,0.0026741677,-0.00076631724,0.0,0.0,-3.0,0.0,0.0,0.0,0.0,0.0,-0.0,9.81,0.0,0.0,0.0,0.0,0.728283989874114,-0.004608154296875,0.0011749267578125,-0.000579833984375
20.80157446861267,0.009936079,0.034097265,-3.6164558,0.0013237540566554092,nan,nan,nan,10.799206495285034,0.0008094310760498047,0.0027818645,-0.0060873916,0.008721294,-0.0036159397500599598,0.0024465487428353416,9.559103393554697,-0.000611132,0.00057548576,0.00021570834,0.0,0.0,-3.0,0.0,0.0,0.0,0.0,0.0,-0.0,9.81,0.0,0.0,0.0,0.0,0.728327253144059,-0.00518798828125,0.0011749267578125,-0.000640869140625
20.904426097869873,0.012045508,0.03296755,-3.6156712,0.0012511410368963999,nan,nan,nan,10.90212106704712,0.0010075569152832031,0.0021073986,-0.004523692,0.0085419,-0.003981826585485112,0.002552614646302409,9.560029907226571,-0.0032402663,0.001353539,-0.0007147914,0.0,0.0,-3.0,0.0,0.0,0.0,0.0,0.0,-0.0,9.81,0.0,0.0,0.0,0.0,0.7283630333679545,-0.00433349609375,0.001739501953125,-0.000579833984375
21.005491971969604,0.01385524,0.032687075,-3.61538,0.0011516169553725663,nan,nan,nan,11.003197431564331,0.0008530616760253906,0.0009808352,-0.0027623342,0.008402796,-0.0044617369190203555,0.002603004963911859,9.56077362060548,-0.005004768,0.0006930588,-0.00074868166,0.0,0.0,-3.0,0.0,0.0,0.0,0.0,0.0,-0.0,9.81,0.0,0.0,0.0,0.0,0.7283917529322437,-0.0040130615234375,0.0016326904296875,-0.00048828125
21.112255811691284,0.014788744,0.03318528,-3.6150115,0.001007286214781571,nan,nan,nan,11.11036467552185,0.0020635128021240234,-0.0007084062,-0.0009917782,0.008178116,-0.00502731458633357,0.002653035232002221,9.561241912841805,-0.005751367,0.0008395695,-0.0017120929,0.0,0.0,-3.0,0.0,0.0,0.0,0.0,0.0,-0.0,9.81,0.0,0.0,0.0,0.0,0.7284098361389445,-0.0040130615234375,-0.000152587890625,-0.000335693359375
21.201744318008423,0.015312687,0.03414533,-3.614258,0.0008784621302222869,nan,nan,nan,11.19949221611023,0.0010023117065429688,-0.0018360437,0.0004593864,0.008284596,-0.005480267800914619,0.0026848520532201103,9.561647262573247,-0.004591664,0.00031220782,-0.0018713877,0.0,0.0,-3.0,0.0,0.0,0.0,0.0,0.0,-0.0,9.81,0.0,0.0,0.0,0.0,0.7284254884495546,-0.0044708251953125,-0.0012359619140625,-0.000213623046875
21.30972719192505,0.015475988,0.035810683,-3.612835,0.0007374499033566779,nan,nan,nan,11.308064937591553,0.0020530223846435547,-0.003359196,0.0020582387,0.008819486,-0.005847490214145237,0.0025374290481838813,9.5621745300293,-0.0055200965,-0.0017238818,-0.00026637112,0.0,0.0,-3.0,0.0,0.0,0.0,0.0,0.0,-0.0,9.81,0.0,0.0,0.0,0.0,0.7284458480356535,-0.006561279296875,-0.0026702880859375,6.103515625e-05
21.402280569076538,0.015066985,0.037538234,-3.6107109,0.0006107305815436243,nan,nan,nan,11.400059700012207,0.0010144710540771484,-0.004940708,0.0030612873,0.009366543,-0.006351788914570662,0.0023352099555327133,9.562798309326174,-0.007738048,-0.0024430011,-0.00015496858,0.0,0.0,-3.0,0.0,0.0,0.0,0.0,0.0,-0.0,9.81,0.0,0.0,0.0,0.0,0.7284699335466701,-0.0068206787109375,-0.0040740966796875,0.000457763671875
21.503943920135498,0.013813528,0.03869816,-3.6080723,0.0005095575201240661,nan,nan,nan,11.502023935317993,0.001390218734741211,-0.0065487856,0.0028332209,0.009968649,-0.0070670427474525096,0.001930798516809773,9.56375915527344,-0.007782862,-0.0051018684,-0.00033256446,0.0,0.0,-3.0,0.0,0.0,0.0,0.0,0.0,-0.0,9.81,0.0,0.0,0.0,0.0,0.728507032416539,-0.0035400390625,-0.0052490234375,0.00079345703125
21.608527898788452,0.012254787,0.039804712,-3.6053102,0.0004517007318685295,nan,nan,nan,11.60623550415039,0.0010302066802978516,-0.008055424,0.0022653288,0.010537853,-0.007627122975332005,0.001356122500455026,9.564890060424803,-0.0060559227,-0.0068402146,-0.00037825553,0.0,0.0,-3.0,0.0,0.0,0.0,0.0,0.0,-0.0,9.81,0.0,0.0,0.0,0.0,0.7285506949923805,-0.0005340576171875,-0.005615234375,0.001312255859375
21.723440170288086,0.009443991,0.041460503,-3.6013355,0.00040999535348665165,nan,nan,nan,11.722216606140137,0.0021979808807373047,-0.009470555,0.0011790604,0.010995985,-0.007968218753501498,0.0005761406997890628,9.566311950683591,-0.0032300325,-0.005931112,0.00077768596,0.0,0.0,-3.0,0.0,0.0,0.0,0.0,0.0,-0.0,9.81,0.0,0.0,0.0,0.0,0.7286055884102577,0.001678466796875,-0.005889892578125,0.00201416015625
21.801733016967773,0.006447996,0.04277522,-3.597165,0.0004139835894293041,nan,nan,nan,11.799434661865234,0.0007722377777099609,-0.010230817,6.126436e-05,0.011408954,-0.008000958068882317,-8.114842679285417e-05,9.567232742309569,-0.0011811454,-0.006985911,0.00058790855,0.0,0.0,-3.0,0.0,0.0,0.0,0.0,0.0,-0.0,9.81,0.0,0.0,0.0,0.0,0.7286411342653084,0.0024566650390625,-0.00604248046875,0.002349853515625
21.902159929275513,0.0042413864,0.043296494,-3.5937357,0.00048727683307740136,nan,nan,nan,11.899804592132568,0.0009605884552001953,-0.01014078,-0.0014079406,0.011693647,-0.007949566032573133,-0.0007179362600926442,9.568842773437499,0.0016692164,-0.0071380804,0.0006846356,0.0,0.0,-3.0,0.0,0.0,0.0,0.0,0.0,-0.0,9.81,0.0,0.0,0.0,0.0,0.7287032831239112,0.0041046142578125,-0.0043182373046875,0.0029296875
22.0026798248291,0.0019928906,0.043151252,-3.58952,0.0007100970943097803,nan,nan,nan,12.000366687774658,0.0013294219970703125,-0.009248008,-0.0034257527,0.011705107,-0.007572026594900529,-0.0013086139663007756,9.570455017089841,0.0056440574,-0.0031071645,0.0017229917,0.0,0.0,-3.0,0.0,0.0,0.0,0.0,0.0,-0.0,9.81,0.0,0.0,0.0,0.0,0.7287655121491611,0.00537109375,-0.001800537109375,0.0030517578125
22.106662034988403,0.00029877928,0.042677857,-3.5861957,0.0009570336570146648,nan,nan,nan,12.104371070861816,0.00093841552734375,-0.00841483,-0.004917721,0.011448768,-0.00700440818926395,-0.00155683375778648,9.571873779296872,0.0062487316,-0.0020689408,0.0029104361,0.0,0.0,-3.0,0.0,0.0,0.0,0.0,0.0,-0.0,9.81,0.0,0.0,0.0,0.0,0.7288202688845863,0.005126953125,-0.0007476806640625,0.00311279296875
22.20167303085327,-0.0013063861,0.042415727,-3.5833075,0.0012030670074638455,nan,nan,nan,12.199284315109253,0.001123189926147461,-0.0074340357,-0.005444399,0.010872265,-0.006388305528465327,-0.001604185240648759,9.573299255371094,0.006838117,-0.00031507912,0.0029953283,0.0,0.0,-3.0,0.0,0.0,0.0,0.0,0.0,-0.0,9.81,0.0,0.0,0.0,0.0,0.7288752806530867,0.0028076171875,-0.00067138671875,0.00286865234375
22.31068181991577,-0.00373498,0.04296208,-3.5797193,0.0015864042794247629,nan,nan,nan,12.308420419692993,0.0013506412506103516,-0.0064116823,-0.004838495,0.010048188,-0.005803997809393292,-0.001618499343596147,9.574444732666016,0.0013060812,-0.00014613943,0.0021208737,0.0,0.0,-3.0,0.0,0.0,0.0,0.0,0.0,-0.0,9.81,0.0,0.0,0.0,0.0,0.7289194837809275,-0.001861572265625,-0.001617431640625,0.002288818359375
22.401911735534668,-0.0059387595,0.04369072,-3.5773365,0.0018012758763121914,nan,nan,nan,12.399617195129395,0.0009603500366210938,-0.005934469,-0.0039551533,0.008944576,-0.005691534356600312,-0.001656922932603333,9.575423660278322,0.00028703496,-0.0016742822,0.0024028888,0.0,0.0,-3.0,0.0,0.0,0.0,0.0,0.0,-0.0,9.81,0.0,0.0,0.0,0.0,0.7289572577833686,-0.004486083984375,-0.0029144287109375,0.0020751953125
22.503353595733643,-0.008421889,0.044956915,-3.5754895,0.0020504645141568873,nan,nan,nan,12.501128196716309,0.0008652210235595703,-0.0055118515,-0.0025896116,0.007940435,-0.005921535849224238,-0.0018012914877578723,9.576234970092774,-0.0044853245,-0.0041027865,0.0025001979,0.0,0.0,-3.0,0.0,0.0,0.0,0.0,0.0,-0.0,9.81,0.0,0.0,0.0,0.0,0.7289885624336042,-0.00640869140625,-0.0039215087890625,0.00201416015625
22.60345697402954,-0.011270112,0.04647896,-3.574014,0.002310307455524651,nan,nan,nan,12.601631164550781,0.0014388561248779297,-0.0047746133,-0.0014922587,0.0063694594,-0.006410432328649954,-0.0020852170581044938,9.576688385009763,-0.0062634004,-0.0019482103,0.0023957184,0.0,0.0,-3.0,0.0,0.0,0.0,0.0,0.0,-0.0,9.81,0.0,0.0,0.0,0.0,0.7290060570164247,-0.0068206787109375,-0.004119873046875,0.00189208984375
22.70772409439087,-0.013751673,0.04780404,-3.5728264,0.0025386041399228024,nan,nan,nan,12.70575475692749,0.0015630722045898438,-0.003413644,-0.0015236058,0.005010225,-0.007074645447951101,-0.002441121031271365,9.576850585937498,-0.007545907,-0.004066684,0.0026149908,0.0,0.0,-3.0,0.0,0.0,0.0,0.0,0.0,-0.0,9.81,0.0,0.0,0.0,0.0,0.7290123152841935,-0.004302978515625,-0.0024566650390625,0.001983642578125
22.808525323867798,-0.01588418,0.048122257,-3.5718267,0.0027404695506986773,nan,nan,nan,12.80617642402649,0.0008044242858886719,-0.0021036188,-0.002747123,0.0039847894,-0.007642050077107433,-0.0027689362140776996,9.576827621459957,-0.0046818154,-0.0022095044,0.0017413794,0.0,0.0,-3.0,0.0,0.0,0.0,0.0,0.0,-0.0,9.81,0.0,0.0,0.0,0.0,0.7290114292391551,0.0004730224609375,-0.000701904296875,0.002105712890625
22.903635501861572,-0.017974224,0.04761521,-3.5711138,0.0029091272691750456,nan,nan,nan,12.901806831359863,0.001543283462524414,-0.00073724793,-0.004580856,0.0027950194,-0.007863067157139912,-0.0028268261632564684,9.57664138793945,0.0018628981,0.0005606713,0.0019583614,0.0,0.0,-3.0,0.0,0.0,0.0,0.0,0.0,-0.0,9.81,0.0,0.0,0.0,0.0,0.7290042436984574,0.0048370361328125,-0.00048828125,0.001953125
23.001551628112793,-0.01986271,0.046394706,-3.57092,0.003127729675119811,nan,nan,nan,12.999216794967651,0.0015497207641601562,0.0005375594,-0.0068394206,0.0015830526,-0.0075971892630739305,-0.002794938488418275,9.576287994384765,0.0056209937,0.00062454015,0.0029740564,0.0,0.0,-3.0,0.0,0.0,0.0,0.0,0.0,-0.0,9.81,0.0,0.0,0.0,0.0,0.7289906083468047,0.00787353515625,-0.000732421875,0.0015869140625
23.114807844161987,-0.021484418,0.043924235,-3.571162,0.0033393877479926224,nan,nan,nan,13.112878799438477,0.0017294883728027344,0.0020840769,-0.009583616,-0.00031640107,-0.006932368489469581,-0.002800113308780272,9.575663833618167,0.009374849,-0.0014446477,0.0021258716,0.0,0.0,-3.0,0.0,0.0,0.0,0.0,0.0,-0.0,9.81,0.0,0.0,0.0,0.0,0.7289665250871469,0.01055908203125,-0.000244140625,0.001220703125
23.202452659606934,-0.022507543,0.040588908,-3.5716963,0.003486369189133887,nan,nan,nan,13.200092792510986,0.0007555484771728516,0.00400991,-0.011869794,-0.0021611752,-0.0059561791523436835,-0.002781232808025891,9.57492179870606,0.011239126,0.002358089,0.002154254,0.0,0.0,-3.0,0.0,0.0,0.0,0.0,0.0,-0.0,9.81,0.0,0.0,0.0,0.0,0.7289378926292115,0.0115966796875,0.0011138916015625,0.0010986328125
23.30143165588379,-0.022902241,0.037516613,-3.5726604,0.0036090045958706452,nan,nan,nan,13.299105167388916,0.0007250308990478516,0.0056862095,-0.013141894,-0.0037405947,-0.0050152672794340665,-0.0026956549839447508,9.573714523315434,0.012510399,0.0017813889,0.0007913635,0.0,0.0,-3.0,0.0,0.0,0.0,0.0,0.0,-0.0,9.81,0.0,0.0,0.0,0.0,0.7288913058437446,0.0116729736328125,0.0029754638671875,0.00091552734375
23.402198314666748,-0.022842105,0.034078076,-3.5740688,0.003710943906848804,nan,nan,nan,13.399847984313965,0.0007662773132324219,0.0076470585,-0.013636055,-0.005262511,-0.003973444601446684,-0.0024477752069509418,9.57231330871583,0.012983647,0.0030033702,0.0015372115,0.0,0.0,-3.0,0.0,0.0,0.0,0.0,0.0,-0.0,9.81,0.0,0.0,0.0,0.0,0.7288372315777447,0.0101470947265625,0.004486083984375,0.00067138671875
23.507346630096436,-0.022694668,0.030623231,-3.5758274,0.00382074624798759,nan,nan,nan,13.505370855331421,0.0015156269073486328,0.009498708,-0.012444324,-0.0069594937,-0.0028344597191198163,-0.001976572419549738,9.570832366943367,0.009048975,0.004491524,0.00040787208,0.0,0.0,-3.0,0.0,0.0,0.0,0.0,0.0,-0.0,9.81,0.0,0.0,0.0,0.0,0.7287800762586755,0.0052642822265625,0.0043487548828125,-6.103515625e-05
23.605878591537476,-0.022496853,0.028271036,-3.5771096,0.0038743508734165877,nan,nan,nan,13.60396933555603,0.001474142074584961,0.010551333,-0.0103261825,-0.008020423,-0.0021733463650654185,-0.0015204907877377494,9.569410552978521,0.006872771,0.0044744783,-0.0008997229,0.0,0.0,-3.0,0.0,0.0,0.0,0.0,0.0,-0.0,9.81,0.0,0.0,0.0,0.0,0.7287251987515082,0.000732421875,0.0033416748046875,-0.0003662109375
23.70265531539917,-0.021962112,0.025745844,-3.5783732,0.003965487408372803,nan,nan,nan,13.700435876846313,0.0008037090301513672,0.011358429,-0.00712791,-0.008887109,-0.001870748984533269,-0.000988799576505217,9.568002624511728,-0.0008649289,0.0030921039,0.0007028026,0.0,0.0,-3.0,0.0,0.0,0.0,0.0,0.0,-0.0,9.81,0.0,0.0,0.0,0.0,0.7286708531630594,-0.0032958984375,0.0019073486328125,-0.00091552734375
23.802046537399292,-0.021293804,0.023498662,-3.579635,0.003929002599212293,nan,nan,nan,13.799764156341553,0.0008552074432373047,0.011547102,-0.0046101077,-0.00961338,-0.002035898274406281,-0.0007911896144596753,9.56635528564454,-0.00338726,0.0011480282,-0.0005922849,0.0,0.0,-3.0,0.0,0.0,0.0,0.0,0.0,-0.0,9.81,0.0,0.0,0.0,0.0,0.7286072613333365,-0.003875732421875,0.001678466796875,-0.00115966796875
23.905510187149048,-0.020293348,0.022125473,-3.5808778,0.003842714968717866,nan,nan,nan,13.90313720703125,0.0010743141174316406,0.011636162,-0.00196689,-0.010078357,-0.0023387125121777297,-0.0006220409814650107,9.564809494018562,-0.0035744926,0.0027915766,-0.0018483931,0.0,0.0,-3.0,0.0,0.0,0.0,0.0,0.0,-0.0,9.81,0.0,0.0,0.0,0.0,0.7285475845279503,-0.0047454833984375,0.0017547607421875,-0.0010986328125
24.015543937683105,-0.018444791,0.021603875,-3.5821984,0.003746385796241879,nan,nan,nan,14.013625144958496,0.0012254714965820312,0.0121172955,0.0015494012,-0.010332965,-0.002882613085592517,-0.00039968111939492346,9.563668594360356,-0.0055350927,0.001823287,-0.0019698387,0.0,0.0,-3.0,0.0,0.0,0.0,0.0,0.0,-0.0,9.81,0.0,0.0,0.0,0.0,0.7285035358819435,-0.006500244140625,0.003082275390625,-0.0010986328125
24.106353521347046,-0.016538521,0.021928215,-3.583098,0.003705467492306204,nan,nan,nan,14.104193925857544,0.001127481460571289,0.012541524,0.004236887,-0.01035935,-0.003439459422308282,-0.000180428748522532,9.562515792846684,-0.0071977503,0.00441855,-0.0005809093,0.0,0.0,-3.0,0.0,0.0,0.0,0.0,0.0,-0.0,9.81,0.0,0.0,0.0,0.0,0.7284590250521052,-0.0078125,0.004302978515625,-0.00128173828125
24.201751232147217,-0.014217801,0.022856202,-3.584264,0.0036709441904147575,nan,nan,nan,14.199517011642456,0.0008099079132080078,0.012669609,0.006907426,-0.0101379715,-0.0042539459793783044,0.0002632730753220347,9.56144844055176,-0.0076824394,0.003542375,-0.0010296543,0.0,0.0,-3.0,0.0,0.0,0.0,0.0,0.0,-0.0,9.81,0.0,0.0,0.0,0.0,0.7284178111107282,-0.008392333984375,0.004180908203125,-0.0015869140625
24.30177664756775,-0.012629256,0.023636105,-3.5852926,0.0036578915127027183,nan,nan,nan,14.29939317703247,0.0007410049438476562,0.012222785,0.008263767,-0.009828118,-0.00495842235813071,0.0006645271544154507,9.560581130981449,-0.008845347,0.0056252326,-0.00021212232,0.0,0.0,-3.0,0.0,0.0,0.0,0.0,0.0,-0.0,9.81,0.0,0.0,0.0,0.0,0.7283843197750559,-0.007537841796875,0.0027313232421875,-0.00189208984375
24.40558409690857,-0.010994912,0.024327748,-3.5870423,0.0036016188208109396,nan,nan,nan,14.403274059295654,0.0009057521820068359,0.010811781,0.008392423,-0.009523087,-0.0060579540977756165,0.0011507073205729856,9.559866180419924,-0.007890863,0.0037429286,-0.00061440363,0.0,0.0,-3.0,0.0,0.0,0.0,0.0,0.0,-0.0,9.81,0.0,0.0,0.0,0.0,0.728356710671249,-0.002685546875,-0.0006103515625,-0.002166748046875
24.501651763916016,-0.00974918,0.024988133,-3.5888147,0.0035234598431362237,nan,nan,nan,14.499298572540283,0.0009090900421142578,0.009635817,0.0077963164,-0.009902468,-0.006715924898603759,0.001287891296048338,9.559145431518557,-0.0051797256,0.0007429617,-0.0018791539,0.0,0.0,-3.0,0.0,0.0,0.0,0.0,0.0,-0.0,9.81,0.0,0.0,0.0,0.0,0.7283288766090944,0.0010528564453125,-0.0018310546875,-0.002197265625
24.60165047645569,-0.008304388,0.02615786,-3.5907793,0.0034085710661107766,nan,nan,nan,14.599453926086426,0.0007674694061279297,0.008370808,0.007121269,-0.010170341,-0.006966349927883766,0.001186104784425046,9.55833114624024,-0.0008160277,-0.0001120825,-0.0026275555,0.0,0.0,-3.0,0.0,0.0,0.0,0.0,0.0,-0.0,9.81,0.0,0.0,0.0,0.0,0.7282974290731723,0.00225830078125,-0.001617431640625,-0.001953125
24.70760488510132,-0.0071332273,0.02704716,-3.592061,0.0033086407393724013,nan,nan,nan,14.70560073852539,0.0009386539459228516,0.0072660916,0.0063571045,-0.010180943,-0.006892134583730352,0.001140976650776171,9.557668151855474,0.0007390584,-0.0015658643,-0.0020518969,0.0,0.0,-3.0,0.0,0.0,0.0,0.0,0.0,-0.0,9.81,0.0,0.0,0.0,0.0,0.7282718233722064,0.0020751953125,-0.001800537109375,-0.0018310546875
24.809911251068115,-0.005084084,0.028282737,-3.593712,0.0031384051995680335,nan,nan,nan,14.80774974822998,0.0013380050659179688,0.0065556243,0.006041176,-0.010368981,-0.006804534789361276,0.0009594480259480509,9.556829376220708,0.0012551224,-0.001828383,-0.001493552,0.0,0.0,-3.0,0.0,0.0,0.0,0.0,0.0,-0.0,9.81,0.0,0.0,0.0,0.0,0.7282394274993758,0.00103759765625,0.0004119873046875,-0.001373291015625
