time,x,y,z,yaw,platform,trajectory,controller,feedforward,traj_time,comp_time,vx,vy,vz,roll,pitch,f,p,q,r,x_ref,y_ref,z_ref,yaw_ref,vx_ref,vy_ref,vz_ref,roll_ref,pitch_ref,f_ref,u_ff_df,u_ff_dphi,u_ff_dpsi,u_ff_dth,throttle,p_cmd,q_cmd,r_cmd
10.069137573242188,-0.018688831,0.008517161,-2.657089,0.002016282639985054,SIM,fig8_heading,contraction,0.0,0.06671428680419922,0.0036208629608154297,0.0015909657,-0.013646921,-0.17357686,-0.001793954495837629,-0.0041971869494725755,9.808530958592891,0.0044625895,0.0025607836,-0.0082204705,0.04191237,0.041896008,-3.0,0.7848121,0.6280732,0.62733746,0.0,-0.0029973642,0.00074963254,9.810047,0.0014023166,-0.04488131,-0.01758137,0.01123343,0.7378978822214604,0.9524424076080322,-0.9480555653572083,0.775349497795105
10.108424663543701,-0.018818079,0.007456086,-2.6737676,0.001005382384698398,nan,nan,nan,nan,0.09748506546020508,0.0027282238006591797,0.0031392712,-0.014327856,-0.16306575,-0.0013969726418380263,-0.004022378425995177,9.80739585608244,0.0113938125,-0.011752351,-0.009177388,0.06123466,0.061183613,-3.0,0.78414583,0.62779474,0.62622434,0.0,-0.0043772417,0.0010952195,9.810101,0.0020444684,-0.044801217,-0.025728468,0.011228271,0.7378546053367865,0.9751909971237183,-0.9718945026397705,0.7815330624580383
10.202561855316162,-0.018342013,0.00556864,-2.6916008,0.001403053235241666,nan,nan,nan,nan,0.19984197616577148,0.0025141239166259766,0.01165274,-0.010258781,-0.18108045,0.012570098594577113,-0.020294810106636918,9.802210332751274,0.22938009,-0.23659031,0.026238715,0.12541783,0.12497867,-3.0,0.78011185,0.6261184,0.6195335,0.0,-0.008941133,0.0022431042,9.810417,0.0041340785,-0.04431985,-0.053214904,0.011197232,0.7376568703667371,0.9341421723365784,-0.9143648147583008,0.7906861901283264
10.30675458908081,-0.014433674,0.004864815,-2.7129447,0.006892775589139408,nan,nan,nan,nan,0.3049592971801758,0.0034475326538085938,0.0667188,0.033884,-0.22500457,0.08735839938435626,-0.10025911227881767,9.790572848021986,0.9420177,-0.79353255,0.16479526,0.19109091,0.18953395,-3.0,0.7729916,0.62319916,0.60792434,0.0,-0.013559029,0.0034174854,9.81096,0.006158637,-0.043484837,-0.082481,0.011143242,0.737212917976003,0.5877721309661865,-0.3572087287902832,0.8505440950393677
10.412482976913452,-0.0005956516,0.012568496,-2.7361836,0.025312715847969944,nan,nan,nan,nan,0.40970659255981445,0.002123117446899414,0.19007783,0.16030589,-0.2503594,0.16879376035798832,-0.1542568835302931,9.788510156348352,0.7919237,-0.18820481,0.34422973,0.2561645,0.25240135,-3.0,0.76275575,0.6190885,0.59166926,0.0,-0.018055633,0.0045809266,9.811703,0.007994832,-0.0423161,-0.11328253,0.011067351,0.7371342018949294,0.24850815534591675,0.33547288179397583,0.9069271087646484
10.504940032958984,0.0287586,0.03750525,-2.761556,0.07228470048719715,nan,nan,nan,nan,0.5026233196258545,0.004198551177978516,0.32862303,0.3585126,-0.2633537,0.21968022618484984,-0.14412350403958873,9.787870650310072,0.3945831,0.5409814,0.522315,0.31347966,0.30655757,-3.0,0.7508882,0.6144444,0.57343453,0.0,-0.021928586,0.0056054257,9.812513,0.009428818,-0.041005604,-0.1425027,0.010981797,0.7371097954924212,-0.22125214338302612,0.651301920413971,0.8589507341384888
10.60949158668518,0.0642676,0.07608686,-2.7836215,0.13651617677513522,nan,nan,nan,nan,0.606731653213501,0.0022573471069335938,0.40747306,0.55034864,-0.26914135,0.22420904261649488,-0.10235494769745901,9.77741089733318,-0.10756972,0.75515753,0.64578646,0.37713012,0.36501595,-3.0,0.7342322,0.6081357,0.548884,0.0,-0.026108466,0.0067428704,9.813568,0.01077582,-0.03924214,-0.17802541,0.010865879,0.7367104914427557,-0.676099419593811,0.56742262840271,0.6995450258255005
10.703608512878418,0.11836764,0.15245813,-2.8129551,0.2478354431404585,nan,nan,nan,nan,0.7009117603302002,0.0019638538360595703,0.43235052,0.78290683,-0.27905166,0.17500340287599772,-0.045841497936681685,9.748295904416594,-0.7458846,0.55540824,0.73771363,0.43409613,0.41552073,-3.0,0.7158284,0.6014322,0.5230741,0.0,-0.029718917,0.0077605695,9.81463,0.011727225,-0.037389338,-0.21336107,0.0107430685,0.7355978922264491,-1.0248773097991943,0.21577125787734985,0.447007417678833
10.802500247955322,0.16670841,0.24347572,-2.8413765,0.3682259867129723,nan,nan,nan,nan,0.7997221946716309,0.0019481182098388672,0.39704034,0.92586136,-0.29500416,0.08083453981104277,-0.01821251921247935,9.709740089196718,-1.1855302,0.12786113,0.7304012,0.4931352,0.46572405,-3.0,0.6927514,0.5933932,0.4924999,0.0,-0.033307053,0.008814995,9.815825,0.012427965,-0.03519593,-0.2545012,0.01059626,0.7341219616696852,-1.0374771356582642,-0.0961548388004303,0.2703036963939667
10.90513563156128,0.21440737,0.3509343,-2.874391,0.48539176278456586,nan,nan,nan,nan,0.9031131267547607,0.005391836166381836,0.37723857,0.9558122,-0.31548107,-0.04782397967660856,-0.014003656351284421,9.677468816954649,-1.2253864,-0.14238557,0.6476078,0.5540051,0.5148345,-3.0,0.6639834,0.5838937,0.45690116,0.0,-0.03681625,0.009901783,9.817134,0.012817073,-0.032643873,-0.30301672,0.010423399,0.732884351371398,-0.6436597108840942,-0.19920891523361206,0.15964823961257935
11.0111985206604,0.2564257,0.43614426,-2.9040349,0.553930773206478,nan,nan,nan,nan,0.9978089332580566,0.003557920455932617,0.42642763,0.8839827,-0.3273654,-0.14271778709271038,-0.024016669892613196,9.661792081315077,-0.90986097,-0.21765855,0.5439239,0.6088471,0.55643654,-3.0,0.6329528,0.57423186,0.42128354,0.0,-0.039788228,0.010880665,9.818352,0.01285676,-0.03009227,-0.3533937,0.010248217,0.7322824004877321,-0.19457785785198212,-0.06124517321586609,0.10407013446092606
11.11325979232788,0.31389138,0.5120895,-2.9371028,0.585824811187351,nan,nan,nan,nan,1.1110572814941406,0.0038230419158935547,0.5577787,0.73789465,-0.3280254,-0.20875323536160298,-0.03383899120071887,9.646463616210974,-0.35550928,-0.017423084,0.4243028,0.6731686,0.6015722,-3.0,0.5891118,0.5614923,0.3752285,0.0,-0.043011844,0.012028439,9.819792,0.012507854,-0.0267954,-0.42262378,0.010018125,0.7316933500202166,0.3008875250816345,0.17786502838134766,0.026660148054361343
11.210090398788452,0.398317,0.5664854,-2.9721515,0.570508420845172,nan,nan,nan,nan,1.2074236869812012,0.0029840469360351562,0.7346534,0.5368245,-0.3186879,-0.21590835598065836,-0.022121925153048894,9.63114489169792,0.22486962,0.21263847,0.30131188,0.72671455,0.635733,-3.0,0.5451823,0.5496558,0.33336404,0.0,-0.045451038,0.012983712,9.82097,0.011881664,-0.023800686,-0.4905942,0.009805168,0.7311042061218014,0.6268394589424133,0.2871321439743042,-0.03153037652373314
11.307394027709961,0.5041563,0.5897718,-3.005883,0.5223904504507725,nan,nan,nan,nan,1.2977862358093262,0.002189159393310547,0.8693906,0.3233722,-0.31072822,-0.17184922916971448,0.010522078665453405,9.609777430612604,0.63125706,0.3034314,0.19190584,0.7758504,0.6640071,-3.0,0.49764732,0.5377428,0.29212964,0.0,-0.04746949,0.013860181,9.822007,0.011035673,-0.020852821,-0.5629648,0.009591548,0.7302816503246065,0.7048861980438232,0.19080251455307007,-0.05226794257760048
11.403613567352295,0.61015445,0.5864313,-3.0361698,0.47362313111237997,nan,nan,nan,nan,1.4008474349975586,0.002925395965576172,0.9153285,0.1465588,-0.3090111,-0.10817785879471883,0.04244194142194346,9.581171129662554,0.73539823,0.20207308,0.10623953,0.8305308,0.69160354,-3.0,0.434906,0.52321637,0.24307187,0.0,-0.0494392,0.014835464,9.823083,0.009791722,-0.017347662,-0.65660685,0.009331915,0.7291789971675179,0.5999031662940979,0.04811794310808182,-0.08792203664779663
11.51041316986084,0.7208392,0.5632614,-3.0686357,0.4281963867890847,nan,nan,nan,nan,1.508138656616211,0.002294778823852539,0.8860814,0.0073547806,-0.3097192,-0.036737651573237606,0.06216198365234571,9.566334106940786,0.6667031,0.061697267,0.033386193,0.8858099,0.714856,-3.0,0.35865885,0.5070584,0.19008222,0.0,-0.05109855,0.015821414,9.824051,0.0082206335,-0.013563609,-0.7667957,0.009044063,0.7286064437412354,0.39694035053253174,-0.07011997699737549,-0.13259008526802063
11.613370895385742,0.8114452,0.5330075,-3.098948,0.39446093771629304,nan,nan,nan,nan,1.610673427581787,0.002240896224975586,0.8133666,-0.058967765,-0.31068683,0.019191634645390532,0.06449017198732787,9.556910335440199,0.49519262,-0.061930284,-0.024952848,0.9369681,0.73168635,-3.0,0.2741742,0.4906593,0.13800152,0.0,-0.05229943,0.01673394,9.824808,0.006503005,-0.009846086,-0.8825507,0.008752754,0.7282425544339959,0.18373438715934753,-0.12201516330242157,-0.18144571781158447
11.70189380645752,0.88224787,0.5043128,-3.126694,0.3678371094169219,nan,nan,nan,nan,1.6991233825683594,0.0032951831817626953,0.73128635,-0.07001472,-0.31046033,0.05733477315320262,0.056858448565371145,9.548909798879187,0.31027496,-0.12766953,-0.07072019,0.9797139,0.7418736,-3.0,0.19149986,0.47578472,0.09224306,0.0,-0.05302624,0.017496549,9.825312,0.0048913267,-0.006580822,-0.9871976,0.008489116,0.7279334810527669,-0.013246994465589523,-0.14286957681179047,-0.223279669880867
11.8131582736969,0.9517243,0.47680923,-3.1590862,0.3379773674064773,nan,nan,nan,nan,1.8105056285858154,0.0020139217376708984,0.63827443,-0.036325444,-0.30767933,0.07574967001416752,0.03945037407124752,9.53418190361933,0.016997378,-0.16911022,-0.1198226,1.0316226,0.74890554,-3.0,0.0742544,0.4561273,0.033931848,0.0,-0.0535279,0.018422881,9.825738,0.00274826,-0.0024206429,-1.1166329,0.008141361,0.7273641804119321,-0.2021937072277069,-0.13884103298187256,-0.2897864282131195
11.902524709701538,1.0054469,0.4620376,-3.1886597,0.31130191254296896,nan,nan,nan,nan,1.8997573852539062,0.0018084049224853516,0.57251376,0.0149842035,-0.30432558,0.06750193980489437,0.02286658685422127,9.521890461463492,-0.19545159,-0.13536465,-0.17023568,1.0716025,0.74983865,-3.0,-0.029630257,0.43965703,-0.013030964,0.0,-0.05359447,0.019136604,9.825906,0.0009863161,0.0009296013,-1.2086049,0.007850403,0.7268887231449588,-0.2715246379375458,-0.07228794693946838,-0.34415528178215027
12.003363132476807,1.0561068,0.4579849,-3.2207608,0.2818415058123416,nan,nan,nan,nan,2.0006513595581055,0.0022530555725097656,0.5261024,0.065106414,-0.302168,0.04141111767193825,0.010644046810399432,9.506153841633362,-0.31111997,-0.062379356,-0.22430044,1.1149912,0.74584854,-3.0,-0.15580131,0.4202997,-0.06601829,0.0,-0.053309813,0.019911539,9.825905,-0.0010001154,0.0047097476,-1.2868212,0.0075087403,0.7262795514224883,-0.29303544759750366,0.0030263960361480713,-0.4246576428413391
12.110594987869263,1.0953941,0.46221402,-3.2477055,0.2553070011245457,nan,nan,nan,nan,2.1079163551330566,0.002462148666381836,0.50240934,0.088977695,-0.30093974,0.012162313676451084,0.008142064625294099,9.495047662276784,-0.35690978,0.030471414,-0.27578238,1.1589341,0.7357672,-3.0,-0.29640928,0.3988977,-0.12182587,0.0,-0.052590583,0.020696843,9.825686,-0.0030450914,0.008691725,-1.3265021,0.0071311533,0.7258493226102718,-0.29270586371421814,0.07730908691883087,-0.5334621071815491
12.205594062805176,1.1396621,0.47185516,-3.2790391,0.2199523579526254,nan,nan,nan,nan,2.202899694442749,0.0021903514862060547,0.48224637,0.08465876,-0.29911658,-0.024929183581022016,0.014676422820936175,9.480480813998739,-0.33761737,0.13235483,-0.34400326,1.1958957,0.72187984,-3.0,-0.42233717,0.3792726,-0.17043705,0.0,-0.051599726,0.021357825,9.825315,-0.0047469847,0.012161169,-1.318239,0.006784883,0.725284653525797,-0.1996762454509735,0.13588395714759827,-0.6296953558921814
12.306966304779053,1.1786492,0.48099294,-3.3075624,0.18096976015117527,nan,nan,nan,nan,2.304229736328125,0.002707958221435547,0.45995468,0.047969744,-0.2968001,-0.05438392192710094,0.02898674630873943,9.469369131941356,-0.25478485,0.22385897,-0.42246765,1.2332387,0.70203066,-3.0,-0.5536641,0.3576752,-0.2210998,0.0,-0.050183333,0.02202612,9.824749,-0.006399918,0.01577838,-1.2672635,0.006403601,0.7248536287255068,-0.09673343598842621,0.1821398288011551,-0.7392483949661255
12.402723789215088,1.2092152,0.4854051,-3.3312545,0.14203030376275289,nan,nan,nan,nan,2.400021553039551,0.001992464065551758,0.43079424,-0.0033901979,-0.29411784,-0.07317073432830089,0.04564597842201845,9.460019953865565,-0.15619485,0.25712654,-0.4926602,1.2664993,0.6786145,-3.0,-0.6714784,0.3366651,-0.2675354,0.0,-0.048512146,0.022621833,9.824069,-0.007766877,0.019095322,-1.1886188,0.006032326,0.7244907759342915,0.008768156170845032,0.19385896623134613,-0.8409961462020874
12.505457878112793,1.2446095,0.48320472,-3.3615096,0.08119346056128639,nan,nan,nan,nan,2.5031447410583496,0.0037124156951904297,0.3714439,-0.08810809,-0.28828305,-0.0848157357734083,0.06697915207047878,9.450842151064428,0.005793437,0.23332077,-0.5969959,1.300025,0.6485287,-3.0,-0.7888157,0.31344214,-0.31559187,0.0,-0.046364553,0.023222819,9.823202,-0.0089859925,0.022529943,-1.084966,0.005621385,0.7241343999802969,0.13880078494548798,0.10742451250553131,-0.9218433499336243
12.606659650802612,1.2722721,0.4701191,-3.3913558,0.008150307044076231,nan,nan,nan,nan,2.604433536529541,0.003676891326904297,0.2885223,-0.17597724,-0.2807244,-0.08219796324492715,0.0793434505235644,9.444355209786448,0.15496668,0.12640615,-0.7041467,1.3305937,0.6142678,-3.0,-0.8932543,0.2900629,-0.36050385,0.0,-0.04391841,0.023771299,9.822244,-0.009895618,0.025741873,-0.9771914,0.0052069565,0.7238824063409495,0.240062415599823,0.007005736231803894,-0.9690372943878174
12.702975988388062,1.2899742,0.448847,-3.4184914,-0.06945328642330553,nan,nan,nan,nan,2.700261116027832,0.002251863479614258,0.20044307,-0.2437093,-0.272947,-0.06828089672979229,0.08035578578052571,9.433684543091806,0.25100887,-0.009706703,-0.7950794,1.3573105,0.5777802,-3.0,-0.9821226,0.26746276,-0.40061137,0.0,-0.041312713,0.024251105,9.821266,-0.010470982,0.028612118,-0.87863195,0.004805562,0.7234677021294041,0.25883153080940247,-0.1056971400976181,-0.977384090423584
12.80158519744873,1.2991462,0.4226735,-3.4429803,-0.14845986001357653,nan,nan,nan,nan,2.7988407611846924,0.002531290054321289,0.120897934,-0.2863408,-0.26564875,-0.05018514373594679,0.06843057345669501,9.421293303091081,0.27540773,-0.16484258,-0.86475307,1.3825123,0.5363637,-3.0,-1.064084,0.24376439,-0.43917537,0.0,-0.03835435,0.024704117,9.820217,-0.010758956,0.031373803,-0.7859649,0.004383784,0.722985835222917,0.2102283537387848,-0.1894734799861908,-0.9601764678955078
12.909576892852783,1.3018568,0.38956034,-3.4692898,-0.24103753119284096,nan,nan,nan,nan,2.9068315029144287,0.002389192581176758,0.051002182,-0.31144822,-0.25785467,-0.030919157797263536,0.0441843173312666,9.411130999047312,0.21803051,-0.27895713,-0.9193763,1.4074135,0.486808,-3.0,-1.1440539,0.21732812,-0.477976,0.0,-0.03481372,0.02515215,9.819054,-0.010713619,0.03415449,-0.69746494,0.00391218,0.7225904099646446,0.10183404386043549,-0.22245639562606812,-0.9149272441864014
13.007577896118164,1.2999214,0.35816413,-3.492674,-0.3296619054740655,nan,nan,nan,nan,3.005293846130371,0.003959178924560547,0.011507737,-0.32065222,-0.25033072,-0.01753736443216178,0.017884070544031738,9.402565366346394,0.13120452,-0.2857159,-0.9484308,1.4276092,0.43814355,-3.0,-1.2092726,0.1928355,-0.5099534,0.0,-0.031335924,0.02551585,9.818014,-0.010346564,0.036447868,-0.6292439,0.0034742176,0.7222569469165416,-0.023070797324180603,-0.2247120440006256,-0.8619718551635742
13.115177392959595,1.2956839,0.31542006,-3.5239363,-0.4509418074703744,nan,nan,nan,nan,3.112959861755371,0.003923892974853516,-0.0024810245,-0.33022678,-0.23809078,-0.011604567658852677,-0.017558910522448734,9.394122762102638,-0.029074166,-0.26107103,-0.95118195,1.4469124,0.38153225,-3.0,-1.2735891,0.16567956,-0.5409434,0.0,-0.02728925,0.02586377,9.816937,-0.009603972,0.038671996,-0.56767845,0.0029875152,0.7219281247421617,-0.10909515619277954,-0.11585798859596252,-0.7760210037231445
13.208127737045288,1.2946469,0.28326386,-3.5462682,-0.5358000226720974,nan,nan,nan,nan,3.2058143615722656,0.0037178993225097656,0.011124699,-0.3480445,-0.22781365,-0.015143111491983385,-0.038160881490599596,9.38867767455057,-0.10204899,-0.16962896,-0.9348378,1.4611983,0.33019996,-3.0,-1.3242333,0.14198673,-0.5641465,0.0,-0.02361916,0.02612146,9.816086,-0.008697018,0.040338323,-0.52461684,0.0025619853,0.7217159713297218,-0.16299568116664886,-0.03149688243865967,-0.7304542660713196
13.305109024047852,1.2973024,0.24597234,-3.5696843,-0.6224629438850129,nan,nan,nan,nan,3.3028342723846436,0.0057086944580078125,0.035982534,-0.38293195,-0.21532099,-0.02388548061107859,-0.04966110762282838,9.384249699134385,-0.14048222,-0.022584377,-0.90088284,1.4737636,0.2744366,-3.0,-1.3733127,0.11700222,-0.58474344,0.0,-0.019631544,0.026348256,9.815298,-0.0075125378,0.04181828,-0.48856938,0.002112446,0.7215434016368832,-0.14755511283874512,0.07932665944099426,-0.6870518326759338
13.403098344802856,1.3056,0.20081061,-3.5935986,-0.708740386750627,nan,nan,nan,nan,3.4003584384918213,0.0027387142181396484,0.059789635,-0.43400508,-0.20034802,-0.03363070630283699,-0.04806043718581332,9.381410786211497,-0.12327333,0.10577498,-0.852729,1.4839414,0.21655807,-3.0,-1.4195338,0.091693275,-0.6015562,0.0,-0.015492012,0.026532054,9.814632,-0.006111281,0.04302691,-0.46064007,0.0016563347,0.7214327404133534,-0.08668659627437592,0.15816625952720642,-0.6494191288948059
13.507699966430664,1.3148458,0.16180381,-3.6109078,-0.7704509975446087,nan,nan,nan,nan,3.504960536956787,0.0030982494354248047,0.06944145,-0.47610867,-0.18831733,-0.03862236984833278,-0.03921888216807945,9.379262441098698,-0.06616624,0.1817909,-0.8142368,1.4921055,0.15288357,-3.0,-1.4665169,0.06437855,-0.6151259,0.0,-0.010937341,0.02667956,9.81408,-0.004418751,0.044002794,-0.4390579,0.0011634077,0.721348986489752,-0.03670281916856766,0.18503066897392273,-0.6415975093841553
13.603320837020874,1.3273065,0.11041013,-3.6299317,-0.840431169469128,nan,nan,nan,nan,3.600538730621338,0.0023026466369628906,0.06865951,-0.51959795,-0.17363472,-0.03848868463860966,-0.02331312651857509,9.378718014210468,0.010470002,0.20731217,-0.7700797,1.4970613,0.093663886,-3.0,-1.5078208,0.039310854,-0.6233996,0.0,-0.0067009116,0.026769135,9.813737,-0.0027461324,0.044597983,-0.4263114,0.0007105825,0.7213277603094652,0.021014228463172913,0.1679321527481079,-0.6241641640663147
13.704487800598145,1.3394983,0.055058565,-3.6471448,-0.907087055137406,nan,nan,nan,nan,3.7017414569854736,0.0024344921112060547,0.057254605,-0.5487454,-0.15906009,-0.033380231827180584,-0.007247924569534048,9.379271562546498,0.06894591,0.18438447,-0.73083967,1.4996935,0.030313332,-3.0,-1.5505695,0.012700214,-0.6278051,0.0,-0.0021687085,0.026816713,9.813552,-0.00089547684,0.04491496,-0.41964972,0.00022960045,0.7213493421125966,0.0668855533003807,0.12321904301643372,-0.611833930015564
13.804688692092896,1.3509258,-0.006981412,-3.6639442,-0.9767814798773053,nan,nan,nan,nan,3.802366256713867,0.0026521682739257812,0.03938682,-0.56148416,-0.1434993,-0.023132048999890797,0.006257896161742105,9.380640678256757,0.12039309,0.12043764,-0.69674337,1.4996392,-0.032892346,-3.0,-1.5927474,-0.013781231,-0.62771404,0.0,0.0023532186,0.026815733,9.813556,0.000971512,0.044908404,-0.41978663,-0.0002491429,0.7214027186104052,0.08185907453298569,0.06669454276561737,-0.594761848449707
13.911002397537231,1.3604559,-0.073309734,-3.6801682,-1.0499931899957362,nan,nan,nan,nan,3.90828275680542,0.0026073455810546875,0.022853488,-0.5549993,-0.12684299,-0.009198973298042645,0.014563906439743812,9.383780307024724,0.13690722,0.04751154,-0.667736,1.4967043,-0.099161066,-3.0,-1.6375368,-0.041627955,-0.62280256,0.0,0.0070941783,0.02676268,9.813762,0.0029043257,0.04455503,-0.4272208,-0.0007524524,0.7215251058217876,0.05678565800189972,0.012007221579551697,-0.5731964111328125
14.007015705108643,1.3651174,-0.11448336,-3.6898875,-1.096334394967187,nan,nan,nan,nan,3.9981019496917725,0.0019936561584472656,0.016648764,-0.5427894,-0.116016105,-0.0014231556245534183,0.016162094162217144,9.38789212092758,0.104955696,0.002352793,-0.6500271,1.491907,-0.15476736,-3.0,-1.6764215,-0.06518047,-0.61479515,0.0,0.0110720955,0.026675975,9.814094,0.0044706226,0.04397901,-0.43957385,-0.0011778877,0.7216853592362953,0.03746206685900688,-0.02930498868227005,-0.566820502281189
14.102933645248413,1.3705943,-0.17119992,-3.7027392,-1.1621277117574833,nan,nan,nan,nan,4.100728750228882,0.004060029983520508,0.014820825,-0.52051145,-0.100945465,0.0059810551256385125,0.01369315082532263,9.392732086181649,0.055798125,-0.043064557,-0.62962604,1.4838414,-0.21721257,-3.0,-1.7225602,-0.0919766,-0.60139054,0.0,0.015538827,0.026530253,9.814639,0.0061279414,0.043015,-0.46090874,-0.0016614441,0.7218739465864,-0.014244742691516876,-0.030336953699588776,-0.5443391799926758
14.209392786026001,1.3751966,-0.2244551,-3.7140992,-1.226382252909303,nan,nan,nan,nan,4.207098484039307,0.004094362258911133,0.019192029,-0.49858135,-0.08637352,0.007813020496034717,0.009420845920508958,9.398375780582436,-0.0034607681,-0.050979044,-0.6086833,1.4725885,-0.28023565,-3.0,-1.7731494,-0.11956988,-0.5828099,0.0,0.02004626,0.026327038,9.815373,0.0076440317,0.041679315,-0.49186695,-0.0021586802,0.7220937895770428,-0.052488505840301514,-0.021372973918914795,-0.526394784450531
14.316990852355957,1.3800945,-0.27450085,-3.7237062,-1.2887055189078132,nan,nan,nan,nan,4.314638137817383,0.0031280517578125,0.02492936,-0.4803682,-0.07227083,0.004252443118286209,0.005705535711344911,9.403992659747608,-0.051255178,-0.03377822,-0.5870092,1.4582406,-0.34168953,-3.0,-1.828178,-0.14722526,-0.55932397,0.0,0.024440685,0.026068095,9.816266,0.008916785,0.03999191,-0.5333521,-0.002656139,0.722312522485963,-0.07346071302890778,0.0009440258145332336,-0.515073299407959
14.413712501525879,1.3841026,-0.311362,-3.7300398,-1.335202626059389,nan,nan,nan,nan,4.411526679992676,0.004675388336181641,0.026917465,-0.46929985,-0.06171555,-0.0009779554630112708,0.004158567463682594,9.410489781647927,-0.07415655,-0.011379835,-0.57136965,1.4427793,-0.39469713,-3.0,-1.8820604,-0.17188735,-0.534273,0.0,0.028230382,0.025789255,9.817175,0.0098030185,0.038193133,-0.5805404,-0.0030988741,0.722565452405384,-0.08300521969795227,0.02063509076833725,-0.5206587910652161
14.511386632919312,1.3886083,-0.3545234,-3.7363374,-1.3894030671172959,nan,nan,nan,nan,4.509090900421143,0.004519939422607422,0.023878768,-0.4586749,-0.049178187,-0.008996270392614858,0.004290804287025551,9.417883297130473,-0.08444357,0.021086274,-0.55549884,1.4248092,-0.44544744,-3.0,-1.9414381,-0.19643535,-0.5054928,0.0,0.031857945,0.025465406,9.818164,0.010419196,0.036127865,-0.6384807,-0.003538649,0.7228531723178436,-0.07094556093215942,0.04811453819274902,-0.5254472494125366
14.612958431243896,1.393208,-0.40719777,-3.742427,-1.4551828413543615,nan,nan,nan,nan,4.610645055770874,0.003895282745361328,0.009513866,-0.44471726,-0.034220416,-0.018905697078476447,0.00807071001516424,9.426255051419144,-0.07298115,0.05454387,-0.54176056,1.4035774,-0.4951094,-3.0,-2.0098448,-0.22163823,-0.47195357,0.0,0.035406895,0.025083102,9.819242,0.010746529,0.033722747,-0.7108156,-0.003989148,0.7231788242535598,-0.03675563633441925,0.06513898074626923,-0.5312126278877258
14.70201849937439,1.3950716,-0.4415707,-3.7458303,-1.4982468106831053,nan,nan,nan,nan,4.699503421783447,0.0027112960815429688,-0.005893279,-0.43248886,-0.024955083,-0.024464853329243974,0.012104920570737754,9.437749680653221,-0.05380815,0.070999414,-0.5372066,1.3829155,-0.5356364,-3.0,-2.076209,-0.24336287,-0.43979797,0.0,0.038302388,0.024711369,9.820199,0.010761113,0.0314184,-0.78450197,-0.0043766303,0.7236257170572288,-0.014923810958862305,0.07223910093307495,-0.5578945279121399
14.801612377166748,1.3951266,-0.487843,-3.7498047,-1.5582892404601725,nan,nan,nan,nan,4.798851490020752,0.002039670944213867,-0.03290016,-0.40894592,-0.013131561,-0.029190741245083474,0.01862159666650487,9.45061453633011,-0.016200699,0.07409645,-0.5378113,1.3575475,-0.577425,-3.0,-2.1586916,-0.26725164,-0.40097064,0.0,0.04128734,0.024255367,9.821257,0.010474959,0.02863784,-0.8777541,-0.004801809,0.7241255594553017,0.01067439466714859,0.06600403785705566,-0.5899734497070312
14.906412601470947,1.3926709,-0.51901233,-3.7518594,-1.6015891258364374,nan,nan,nan,nan,4.904069423675537,0.0037543773651123047,-0.054022104,-0.3868587,-0.005648786,-0.03064120290255401,0.022949251144448013,9.463003250136978,0.0036959888,0.06557936,-0.5454726,1.3281186,-0.6173178,-3.0,-2.2566864,-0.29204637,-0.35682857,0.0,0.044136196,0.02372687,9.822328,0.00983089,0.025478952,-0.9861994,-0.0052421466,0.7246065807041315,0.02543628215789795,0.0597291924059391,-0.6441570520401001
15.004716634750366,1.385163,-0.5592961,-3.7539132,-1.6637391735812654,nan,nan,nan,nan,5.002435922622681,0.0040743350982666016,-0.083486855,-0.34995285,0.0033865708,-0.03033663326372893,0.02740741782728584,9.471646689847118,0.026110979,0.04924481,-0.5658784,1.298272,-0.6502831,-3.0,-2.358849,-0.3147144,-0.31304803,0.0,0.046489798,0.023191378,9.823253,0.008927303,0.022348078,-1.0908427,-0.0056439154,0.7249419963370783,0.039351530373096466,0.04229056090116501,-0.6878642439842224
15.111427307128906,1.3737463,-0.5929315,-3.755243,-1.7240881568975086,nan,nan,nan,nan,5.109306812286377,0.0034432411193847656,-0.10842845,-0.31092224,0.010419233,-0.029105878701080057,0.029961404109359435,9.481345465257771,0.030591905,0.030626478,-0.59617317,1.2633488,-0.6810895,-3.0,-2.4812431,-0.33873555,-0.26308414,0.0,0.04868879,0.02256539,9.824141,0.00764314,0.018777292,-1.1972362,-0.0060689333,0.7253181829595139,0.045042626559734344,0.02463487535715103,-0.7514305114746094
15.202734231948853,1.3603823,-0.62007695,-3.7563155,-1.783032000944057,nan,nan,nan,nan,5.200028419494629,0.0026836395263671875,-0.12805657,-0.27260962,0.015571947,-0.02768056205037417,0.030422139178255314,9.49033963128925,0.033542298,0.011152948,-0.63294613,1.2317134,-0.7029679,-3.0,-2.593332,-0.35859618,-0.21899994,0.0,0.050250214,0.021998813,9.824777,0.006334435,0.01562842,-1.2701625,-0.006419866,0.7256668679723098,0.04628133028745651,0.0075834207236766815,-0.8041411638259888
15.311862230300903,1.3448626,-0.6430429,-3.7570317,-1.8459195943213518,nan,nan,nan,nan,5.3092591762542725,0.0025420188903808594,-0.14444722,-0.23403463,0.019516323,-0.02635692569736614,0.028647374701938233,9.501133191734557,0.030792456,-0.0139053725,-0.6783728,1.1912682,-0.72391474,-3.0,-2.7353058,-0.3818192,-0.1642677,0.0,0.05174493,0.02127505,9.825372,0.0045364406,0.011720794,-1.3215652,-0.0068298234,0.726085093698919,0.028508231043815613,-0.027045391499996185,-0.8796349167823792
15.403154134750366,1.3287159,-0.6605079,-3.757375,-1.9075963426200317,nan,nan,nan,nan,5.4004292488098145,0.0024423599243164062,-0.15765665,-0.19990519,0.02170915,-0.025720652690842782,0.02585784985953654,9.50783837974072,0.017902562,-0.021471873,-0.7237062,1.1555977,-0.736766,-3.0,-2.8562498,-0.40059242,-0.11751299,0.0,0.052661844,0.0206372,9.825711,0.0028899214,0.008383959,-1.3252519,-0.0071610506,0.72634478474614,0.006368771195411682,0.00773032009601593,-0.9363047480583191
15.512428522109985,1.3074052,-0.67742336,-3.7581027,-1.985881988114221,nan,nan,nan,nan,5.509813547134399,0.0027811527252197266,-0.1722155,-0.16208422,0.022429861,-0.027328274491894566,0.022102137495149332,9.514813760742552,-0.014498307,-0.01974269,-0.7834087,1.1105818,-0.74651074,-3.0,-2.9992254,-0.42234313,-0.060537428,0.0,0.053357054,0.01983277,9.825913,0.00079589244,0.004318721,-1.2803595,-0.007544798,0.7266148431710782,-0.026299335062503815,-0.020022384822368622,-0.9959989786148071
15.614959239959717,1.2858068,-0.6895325,-3.7592814,-2.0637445254338798,nan,nan,nan,nan,5.612298965454102,0.002919435501098633,-0.18734421,-0.12843241,0.022187414,-0.031534234483290735,0.018879470507179308,9.519828074350958,-0.041740183,-0.0133078825,-0.84229547,1.0662879,-0.74995756,-3.0,-3.126466,-0.44191837,-0.0066852667,0.0,0.053602945,0.01904171,9.825892,-0.0012250452,0.00047691225,-1.1971856,-0.007890333,0.726808915878044,-0.04349766671657562,-0.004075750708580017,-1.0424988269805908
15.7030668258667,1.26662,-0.69680095,-3.7602417,-2.132921209913608,nan,nan,nan,nan,5.700305223464966,0.002100706100463867,-0.2021352,-0.099783644,0.021352429,-0.036505811985247716,0.016266457728518757,9.523841383382683,-0.04980724,0.002815248,-0.89014083,1.0266807,-0.748508,-3.0,3.055331,-0.4580796,0.039613042,0.0,0.05349954,0.018334672,9.825707,-0.00295999,-0.002825939,-1.1045462,-0.00817587,0.7269642091389397,-0.04920962452888489,0.03201955556869507,-1.0730640888214111
15.809962272644043,1.2348552,-0.70307297,-3.7614324,-2.2436206656379767,nan,nan,nan,nan,5.807717323303223,0.004196882247924805,-0.2284695,-0.053415004,0.020843657,-0.044364375986509774,0.01328205773190394,9.527123750634496,-0.048254922,0.019555306,-0.955686,0.976455,-0.74123037,-3.0,2.9433668,-0.47695878,0.09580365,0.0,0.052980345,0.017438402,9.825278,-0.005019415,-0.0068348767,-0.97905725,-0.008509908,0.7270911946010006,-0.03326892852783203,0.044597089290618896,-1.0728060007095337
15.902886867523193,1.2085408,-0.7040772,-3.7619202,-2.3292198683804903,nan,nan,nan,nan,5.9005632400512695,0.003046751022338867,-0.2511302,-0.015876662,0.020821333,-0.049589573774875495,0.011811024586775076,9.529498050920667,-0.041906677,0.035242002,-0.99634874,0.9314439,-0.7301032,-3.0,2.8575742,-0.49250132,0.1437661,0.0,0.052186474,0.016635401,9.824733,-0.006699995,-0.010257497,-0.86947656,-0.008785439,0.7271830358984089,-0.02839888632297516,0.03310222923755646,-1.071925401687622
16.009447813034058,1.1744769,-0.70091325,-3.7622063,-2.433962472957008,nan,nan,nan,nan,6.0069239139556885,0.0018894672393798828,-0.2787369,0.032615196,0.021172492,-0.0546219778721273,0.009094497051939765,9.532416332922878,-0.028201565,0.018469654,-1.0332011,0.8781544,-0.711936,-3.0,2.7715058,-0.5093894,0.19762422,0.0,0.05089018,0.015684867,9.823926,-0.008456382,-0.014102079,-0.7505824,-0.009085536,0.7272959035068263,-0.01503714919090271,0.025732338428497314,-1.0511530637741089
16.105204105377197,1.1434929,-0.6942599,-3.7625282,-2.5248458608998217,nan,nan,nan,nan,6.102484464645386,0.0019953250885009766,-0.3016595,0.07581363,0.021656295,-0.057033071026053817,0.005536534866575238,9.534388105385009,-0.00976278,0.018519187,-1.0547222,0.82878613,-0.69079065,-3.0,2.7045035,-0.5237016,0.24468876,0.0,0.04938118,0.014804348,9.82305,-0.009836254,-0.017463155,-0.65338856,-0.009340575,0.7273721540889292,-0.013204731047153473,0.003542989492416382,-1.023410439491272
16.201765537261963,1.1039122,-0.68148106,-3.7630017,-2.6331960488123505,nan,nan,nan,nan,6.199055194854736,0.002215147018432617,-0.32886556,0.12742427,0.0221121,-0.057339808893919875,-0.0009323101163969394,9.536150410994889,0.010469754,-0.020830305,-1.0615863,0.7775479,-0.66492736,-3.0,2.6457274,-0.53731245,0.29065692,0.0,0.047535174,0.01389046,9.8220415,-0.01100182,-0.020747568,-0.5656552,-0.009583845,0.7274402976880363,-0.004947369918227196,-0.011216044425964355,-0.9680695533752441
16.307321071624756,1.0604082,-0.66356003,-3.763377,-2.7408305364814973,nan,nan,nan,nan,6.304566144943237,0.0018355846405029297,-0.35807413,0.1762797,0.02269661,-0.055479731302170876,-0.010593244009130087,9.537170574013148,0.014150863,-0.05581655,-1.0524919,0.7201147,-0.6317038,-3.0,2.5905817,-0.5511778,0.33869714,0.0,0.045163363,0.012865977,9.820827,-0.011975504,-0.024182076,-0.48163936,-0.009832511,0.7274797417597162,-0.016068264842033386,-0.02154555916786194,-0.9073097109794617
16.402750730514526,1.0239747,-0.64631534,-3.7633827,-2.822089114602449,nan,nan,nan,nan,6.400110244750977,0.002123117446899414,-0.3835633,0.21171089,0.023535205,-0.05361289204348241,-0.019525529290031596,9.537683637756858,0.0056701438,-0.066651605,-1.0329579,0.6668903,-0.5973553,-3.0,2.5478017,-0.5628053,0.37992737,0.0,0.042710703,0.011916421,9.819653,-0.012561154,-0.027131654,-0.41531226,-0.010041796,0.7274995783048237,-0.04610969126224518,-0.04017317295074463,-0.8616282939910889
16.50197672843933,0.972369,-0.62006146,-3.7626889,-2.9244945904916744,nan,nan,nan,nan,6.499241590499878,0.0020189285278320312,-0.4225825,0.25443313,0.024683991,-0.05137324346033023,-0.031815882867928025,9.537931147161876,-0.012546272,-0.06094424,-0.99747735,0.6105397,-0.5576769,-3.0,2.5096843,-0.57391644,0.4201308,0.0,0.03987683,0.010910873,9.81839,-0.012853119,-0.03000972,-0.35506514,-0.010242508,0.7275091475516413,-0.05497680604457855,-0.004925727844238281,-0.7905056476593018
16.603028297424316,0.9246345,-0.5947288,-3.7615426,-3.007491531616611,nan,nan,nan,nan,6.600380182266235,0.00196075439453125,-0.46079868,0.28967878,0.026174275,-0.05031231146310522,-0.040387604551631595,9.538253161404288,-0.027643032,-0.047904953,-0.9573354,0.55196446,-0.5132359,-3.0,2.4765537,-0.5842327,0.45816165,0.0,0.036702044,0.009865355,9.817089,-0.012809794,-0.032734204,-0.30127344,-0.010429556,0.7275215971301349,-0.076894111931324,0.00010862946510314941,-0.7367679476737976
16.702035903930664,0.86268604,-0.5611884,-3.7597444,-3.100371273771998,nan,nan,nan,nan,6.699265718460083,0.0020859241485595703,-0.5107823,0.3324867,0.028352628,-0.04975187232033895,-0.04785839331098796,9.538546657282865,-0.03712005,-0.002606558,-0.9037935,0.49373522,-0.466222,-3.0,2.4490988,-0.59330565,0.49216917,0.0,0.03334264,0.008825709,9.815838,-0.012433498,-0.035172213,-0.2549469,-0.010594664,0.727532943960647,-0.06369446218013763,0.041971415281295776,-0.6692827343940735
16.802185535430908,0.80062336,-0.5270861,-3.7578819,-3.180718506643538,nan,nan,nan,nan,6.7994043827056885,0.0026597976684570312,-0.5572179,0.37368664,0.030728808,-0.048781147999953145,-0.05024866761388824,9.53903577873484,-0.024496784,0.033576984,-0.84729177,0.4339056,-0.41535503,-3.0,2.4256968,-0.60145634,0.5231664,0.0,0.029707078,0.007757166,9.814626,-0.0117244795,-0.03739597,-0.21323639,-0.010743511,0.727551853474482,-0.056131377816200256,0.054077714681625366,-0.6131423115730286
16.906772136688232,0.72801435,-0.4866479,-3.7558777,-3.2613739668334887,nan,nan,nan,nan,6.903995037078857,0.0019288063049316406,-0.6039594,0.41909134,0.033172157,-0.04661835658345459,-0.049898118323670415,9.539396380130208,-0.014514033,0.046075903,-0.78027624,0.37060267,-0.35911325,-3.0,2.4054713,-0.60883945,0.5516099,0.0,0.02568645,0.0066262395,9.813453,-0.010650823,-0.03943789,-0.17420723,-0.010878794,0.7275657940718451,-0.04284822940826416,0.06794604659080505,-0.5552486777305603
17.004193782806396,0.6622861,-0.4497657,-3.7542036,-3.324058105740425,nan,nan,nan,nan,7.001479625701904,0.002322673797607422,-0.64015126,0.45694083,0.034587637,-0.044451440613683335,-0.04842325993683905,9.539568879846492,-0.0033601206,0.059177898,-0.7254005,0.31095785,-0.30420268,-3.0,2.3901224,-0.61466914,0.574314,0.0,0.021760192,0.005560354,9.812475,-0.009369856,-0.04106879,-0.1411673,-0.010985933,0.7275724626968806,-0.03527472913265228,0.0644468367099762,-0.5099804401397705
17.10443902015686,0.58691585,-0.40611598,-3.7524054,-3.38689384800847,nan,nan,nan,nan,7.101688385009766,0.0027327537536621094,-0.67460686,0.4967651,0.03600532,-0.040916428413531936,-0.04468179991661381,9.539538667239258,0.0070561757,0.07461848,-0.66578704,0.24910656,-0.24564743,-3.0,2.3775656,-0.61959356,0.593661,0.0,0.017572587,0.0044547515,9.811612,-0.0078055337,-0.04245928,-0.109832756,-0.011076669,0.7275712947193208,-0.03745994716882706,0.06269174814224243,-0.46458256244659424
17.207788467407227,0.49514806,-0.35053122,-3.7501009,-3.453326932408041,nan,nan,nan,nan,7.205045461654663,0.005094766616821289,-0.7065619,0.53967804,0.037649292,-0.037426602629987205,-0.03951547572972225,9.539398060850809,0.0036446124,0.07268488,-0.5994586,0.18485366,-0.18344459,-3.0,2.36779,-0.62352914,0.6092339,0.0,0.013123455,0.0033059577,9.810899,-0.005972871,-0.043579023,-0.07963414,-0.011149341,0.7275658590467092,-0.02715703845024109,0.06816154718399048,-0.4141048192977905
17.312868356704712,0.41418624,-0.29931813,-3.7477891,-3.5049872953187777,nan,nan,nan,nan,7.310242176055908,0.0019474029541015625,-0.72709906,0.57348675,0.03903492,-0.03530511616224752,-0.03520064842554871,9.539297767747206,-0.0041489475,0.06268982,-0.54682046,0.119102485,-0.11872645,-3.0,2.360958,-0.6263347,0.6203959,0.0,0.008493863,0.0021301627,9.810376,-0.0039324234,-0.04438189,-0.05047134,-0.0112012355,0.7275619818123662,-0.02363271266222,0.05553388595581055,-0.3738638162612915
17.404875993728638,0.3321234,-0.24478689,-3.7451832,-3.5522299362447978,nan,nan,nan,nan,7.40215802192688,0.002191305160522461,-0.74163854,0.60516244,0.040429197,-0.03377869298671499,-0.03091727220890439,9.53938227975742,0.00014632313,0.06515487,-0.49683475,0.061458535,-0.061406925,-3.0,2.3574562,-0.6277909,0.62620896,0.0,0.0043932176,0.0010992236,9.8101015,-0.0020518827,-0.044800114,-0.025823105,-0.011228199,0.7275652489662596,-0.012703295797109604,0.05915039777755737,-0.3351507782936096
17.501601696014404,0.2565385,-0.19134493,-3.7427056,-3.5919132455230818,nan,nan,nan,nan,7.498854160308838,0.0020439624786376953,-0.7496332,0.6327465,0.041842505,-0.032486127807514587,-0.02687451532349261,9.539795493055147,0.0011059134,0.058656354,-0.4524416,0.00071941613,-0.0007194161,-3.0,2.3561947,-0.6283185,0.62831825,0.0,5.1469306e-05,1.2867328e-05,9.81,-2.4115383e-05,-0.04495188,-0.00030134848,-0.011237974,0.7275812231907708,-0.007686961442232132,0.050909653306007385,-0.30135029554367065
17.602515697479248,0.16786969,-0.12400119,-3.739536,-3.634643777364592,nan,nan,nan,nan,7.599827527999878,0.0024509429931640625,-0.7527009,0.6634118,0.043399543,-0.031057757239212114,-0.02243885579898408,9.54057677479462,0.0075839795,0.05783214,-0.4022503,-0.062705845,0.06265103,-3.0,2.357508,-0.6277693,0.6261225,0.0,-0.004482224,-0.001121532,9.810105,0.0020931812,-0.04479389,0.026350528,-0.011227801,0.7276114254599639,0.007755935192108154,0.05634227395057678,-0.2630281448364258
17.705110788345337,0.09317766,-0.0639937,-3.7373154,-3.66713617217052,nan,nan,nan,nan,7.7023561000823975,0.002814769744873047,-0.75126773,0.6866766,0.044227127,-0.029421845299988147,-0.01841829010630458,9.541537064258023,0.016980458,0.05890958,-0.36332354,-0.12699251,0.12653658,-3.0,2.3616157,-0.62606275,0.61931145,0.0,-0.00905258,-0.002271265,9.810428,0.004184196,-0.044303875,0.05390062,-0.011196202,0.7276485459964834,0.015873195603489876,0.04581880569458008,-0.23084920644760132
17.801642417907715,0.019387275,-0.001829998,-3.7355998,-3.6963490688755325,nan,nan,nan,nan,7.798882484436035,0.002184152603149414,-0.7464582,0.7067058,0.04465714,-0.027351154738283867,-0.0149525425712429,9.54259710038082,0.019392412,0.04913057,-0.32644412,-0.18730354,0.18583757,-3.0,2.3681052,-0.62340087,0.6087247,0.0,-0.013294626,-0.003349764,9.810923,0.006046019,-0.0435424,0.08075043,-0.011146968,0.727689520127957,0.025839783251285553,0.045355841517448425,-0.19957122206687927
17.90601921081543,-0.065809555,0.07378032,-3.7337987,-3.7269665588607084,nan,nan,nan,nan,7.903356075286865,0.0019342899322509766,-0.7370326,0.72589594,0.045425236,-0.024000515183803195,-0.01047141582523281,9.54377349758522,0.035848282,0.05223835,-0.28281498,-0.2522326,0.24864098,-3.0,2.3781238,-0.61937165,0.5927857,0.0,-0.01778669,-0.0045106364,9.811652,0.007889697,-0.04239636,0.11135707,-0.011072574,0.7277349893611201,0.03662380576133728,0.05011022463440895,-0.16471822559833527
18.012775421142578,-0.14239475,0.14503933,-3.7319624,-3.75169210054017,nan,nan,nan,nan,8.010180711746216,0.0029571056365966797,-0.7255594,0.7380443,0.045708813,-0.02008282257046612,-0.005909160350946463,9.545472293887299,0.04159923,0.056517705,-0.24563524,-0.3181219,0.3108853,-3.0,2.3917909,-0.61402553,0.57179695,0.0,-0.022238055,-0.005688395,9.812586,0.0095363,-0.04088794,0.14497407,-0.010974091,0.7278006450321621,0.046877242624759674,0.048029765486717224,-0.13211537897586823
18.111679553985596,-0.2229062,0.22231302,-3.7294495,-3.7748401359921555,nan,nan,nan,nan,8.109090566635132,0.002608776092529297,-0.7102068,0.7432048,0.04612569,-0.015173525845632696,-0.00038784587099871537,9.547348839584748,0.049201082,0.05872931,-0.20716679,-0.37856495,0.36631048,-3.0,2.4077816,-0.6079793,0.54827833,0.0,-0.026201019,-0.006768507,9.813594,0.010802873,-0.039198652,0.17887062,-0.01086301,0.7278731636328398,0.04835892096161842,0.050656892359256744,-0.1000497117638588
18.203525066375732,-0.29464912,0.2932867,-3.7264555,-3.7929470282615814,nan,nan,nan,nan,8.201234102249146,0.0036301612854003906,-0.69392276,0.7408353,0.046834473,-0.010371686170817407,0.0048086406559531,9.549028202611964,0.048656344,0.05736752,-0.17311217,-0.4342903,0.4156896,-3.0,2.4258332,-0.6014076,0.5229799,0.0,-0.02973099,-0.0077640377,9.814633,0.011730024,-0.03738258,0.2134883,-0.01074262,0.7279380561199572,0.04291316866874695,0.04478413611650467,-0.07018394768238068
18.308714628219604,-0.3699164,0.3693802,-3.722945,-3.809073473485178,nan,nan,nan,nan,8.297638893127441,0.002051115036010742,-0.6749564,0.73062617,0.04749048,-0.005272983834929468,0.010051280802329865,9.551494749579591,0.048250806,0.0483928,-0.13665085,-0.49189934,0.4646978,-3.0,2.4483123,-0.59357315,0.49317983,0.0,-0.033233717,-0.008792925,9.8158,0.012416468,-0.035244696,0.25358522,-0.010599542,0.7280333559406744,0.038791585713624954,0.0417221263051033,-0.03888542950153351
18.40606665611267,-0.431576,0.43280447,-3.719753,-3.8198722645773073,nan,nan,nan,nan,8.403329133987427,0.0027475357055664062,-0.65803564,0.716852,0.04809828,-0.0013963317960277166,0.014114663309510611,9.554891450572768,0.043166593,0.04550641,-0.10761607,-0.5541315,0.51493347,-3.0,2.477675,-0.5838727,0.45682293,0.0,-0.03682332,-0.00990404,9.817137,0.012817511,-0.03263827,0.303125,-0.010423016,0.7281645739261583,0.03726833686232567,0.03839956223964691,-0.0033423779532313347
18.50861668586731,-0.49668583,0.5001227,-3.7160654,-3.8287558552960386,nan,nan,nan,nan,8.506290435791016,0.003920078277587891,-0.6386603,0.696458,0.04865705,0.0024213973320932336,0.01821511517447627,9.557961546350281,0.039367806,0.041659106,-0.07425436,-0.6137141,0.55999595,-3.0,2.511658,-0.57332206,0.41796032,0.0,-0.04004247,-0.010967525,9.818461,0.012845494,-0.029854285,0.35822016,-0.01023175,0.7282831547567522,0.03670614957809448,0.03749561309814453,0.034164197742938995
18.60308289527893,-0.5647421,0.5699691,-3.7119386,-3.8349510615545808,nan,nan,nan,nan,8.600357294082642,0.002146482467651367,-0.61740583,0.6686019,0.04907735,0.006312896070107321,0.0224074697955583,9.561439420077958,0.038881082,0.038313575,-0.03935868,-0.6671542,0.59753335,-3.0,2.5479965,-0.5627504,0.37973073,0.0,-0.04272342,-0.011921128,9.819658,0.012558997,-0.027117586,0.415617,-0.010040806,0.7284174627911126,0.03142156824469566,0.04198072850704193,0.07120195031166077
18.70717453956604,-0.62488747,0.6311552,-3.7080286,-3.8374436667766743,nan,nan,nan,nan,8.704838991165161,0.004039764404296875,-0.5969286,0.6375141,0.048933994,0.009808061640652843,0.02633847627222896,9.565263962093749,0.0349086,0.040994935,-0.0048466157,-0.7252939,0.6348702,-3.0,2.5951452,-0.54998493,0.33451614,0.0,-0.045389432,-0.01295837,9.820939,0.011902259,-0.023883073,0.4886521,-0.009811081,0.7285651302152144,0.029546715319156647,0.040951669216156006,0.11595059931278229
18.813152074813843,-0.6775764,0.68385386,-3.7041898,-3.836929065182084,nan,nan,nan,nan,8.810923099517822,0.0038366317749023438,-0.5771982,0.6043941,0.04890479,0.012993182031199257,0.030041544815570864,9.569929339904345,0.034262437,0.041304123,0.026482742,-0.7829031,0.66780466,-3.0,2.6514149,-0.5359463,0.28598976,0.0,-0.04774056,-0.013985977,9.822151,0.010893,-0.020414017,0.5742304,-0.009559391,0.728745222752921,0.03010958433151245,0.037129685282707214,0.16665710508823395
18.90765881538391,-0.7321734,0.7371789,-3.6994774,-3.8331350938351783,nan,nan,nan,nan,8.904947757720947,0.001953601837158203,-0.5545197,0.563573,0.048533306,0.016410887861409762,0.033859081430999804,9.574194909427323,0.031245526,0.03763799,0.065132,-0.832675,0.6925962,-3.0,2.709387,-0.5226181,0.24108016,0.0,-0.049510032,-0.014873706,9.823123,0.009736562,-0.017205399,0.6605834,-0.009321242,0.7289098435110258,0.022779371589422226,0.03182944655418396,0.215993732213974
19.009952306747437,-0.78798217,0.79036725,-3.6941319,-3.824770673992599,nan,nan,nan,nan,9.007620334625244,0.003904104232788086,-0.5287761,0.5149865,0.047732256,0.01981581240394803,0.03725516620397107,9.579093939978637,0.026609207,0.031469293,0.11143111,-0.88554704,0.71475744,-3.0,2.7825365,-0.5071389,0.19034225,0.0,-0.05109152,-0.015816724,9.824047,0.008228821,-0.013582172,0.76623404,-0.009045497,0.7290988661378718,0.016316533088684082,0.02717706561088562,0.276467889547348
19.10483455657959,-0.8289666,0.8279731,-3.689957,-3.8149449591182307,nan,nan,nan,nan,9.102572441101074,0.004676103591918945,-0.5087225,0.4751679,0.046954963,0.02226549610624784,0.039425575098080534,9.583447667676962,0.024946522,0.028531717,0.14969666,-0.93298817,0.73055166,-3.0,2.8603077,-0.49198818,0.14215808,0.0,-0.05221847,-0.016662946,9.824754,0.0066451994,-0.010142732,0.8731188,-0.008776334,0.7292668084129726,0.0184185653924942,0.028356492519378662,0.3410606384277344
19.20749855041504,-0.87644875,0.8691299,-3.6851633,-3.7988716862411467,nan,nan,nan,nan,9.205212116241455,0.0029239654541015625,-0.48469973,0.4249898,0.04519482,0.02535288573995431,0.04142024208024875,9.587651625666775,0.024477215,0.02353335,0.19883135,-0.98260784,0.7424256,-3.0,2.9561262,-0.47473648,0.08907138,0.0,-0.053065624,-0.017548183,9.825341,0.0047769,-0.006354521,0.99443895,-0.008470555,0.729428937218785,0.015785932540893555,0.03042471408843994,0.41770970821380615
19.30947971343994,-0.92505443,0.9083478,-3.6807172,-3.77572122659015,nan,nan,nan,nan,9.306739807128906,0.0025322437286376953,-0.45869252,0.36813384,0.042002782,0.028777446181477373,0.043162550636387076,9.591991818491378,0.022300491,0.02434065,0.2596399,-1.029904,0.74877405,-3.0,3.0631418,-0.45680827,0.03591071,0.0,-0.053518515,-0.018392203,9.825727,0.0028220613,-0.0025618146,1.1124412,-0.008153398,0.7295962827366496,0.008506983518600464,0.031078338623046875,0.49887901544570923
19.40174126625061,-0.9679065,0.9394755,-3.677315,-3.7483893875915877,nan,nan,nan,nan,9.399033546447754,0.0022852420806884766,-0.4349371,0.31366786,0.03818908,0.0323701831904839,0.04470613977732629,9.596018749270595,0.025252245,0.025254963,0.3241783,-1.0712845,0.74984795,-3.0,-3.112836,-0.43979293,-0.012650505,0.0,-0.05359513,-0.019130927,9.825905,0.0010006297,0.00090246,1.2079309,-0.007852802,0.7297515159023824,-0.0009844452142715454,0.029153496026992798,0.5766574144363403
19.50966215133667,-1.0056131,0.96364576,-3.6743886,-3.7175933227529017,nan,nan,nan,nan,9.507357120513916,0.003400087356567383,-0.4130865,0.26148292,0.034018155,0.03596421948691653,0.04584550581535196,9.599173535201704,0.025108479,0.025204461,0.38946855,-1.1178052,0.745394,-3.0,-2.9771488,-0.41898614,-0.06952753,0.0,-0.05327739,-0.019961813,9.825897,-0.001130636,0.004960114,1.2907362,-0.007485564,0.7298731062179035,0.00020802021026611328,0.03819867968559265,0.6796774864196777
19.612179279327393,-1.0539016,0.9894702,-3.6715956,-3.665761698150369,nan,nan,nan,nan,9.609414339065552,0.0019428730010986328,-0.38258037,0.1874082,0.027017396,0.040825892694897004,0.04693507262225238,9.600500680450354,0.014033826,0.024543794,0.48567778,-1.1595316,0.7355841,-3.0,-2.843196,-0.39859298,-0.1225994,0.0,-0.052577518,-0.020707522,9.825682,-0.0030728604,0.008746926,1.3266926,-0.0071257777,0.7299242504719982,-0.02393685281276703,0.02803795039653778,0.7603406310081482
19.71663522720337,-1.0895394,1.0040377,-3.6705818,-3.6156783688492338,nan,nan,nan,nan,9.714318037033081,0.0034646987915039062,-0.35656944,0.12636672,0.021260645,0.044259056567717225,0.04702760412592166,9.601426900113008,0.008821953,0.015396791,0.56628346,-1.2002131,0.7199005,-3.0,-2.7042222,-0.3768721,-0.17621487,0.0,-0.051458497,-0.021435063,9.82526,-0.004942525,0.0125736175,1.3145332,-0.0067425175,0.7299599421449486,-0.02026967704296112,0.02269001305103302,0.848147988319397
19.813185930252075,-1.1217299,1.013108,-3.6700706,-3.5576018995390752,nan,nan,nan,nan,9.810529232025146,0.0029153823852539062,-0.32914624,0.065287285,0.014539283,0.04740247177569734,0.045691868979334194,9.601046128114689,0.005466692,0.009692405,0.64867145,-1.235488,0.7006278,-3.0,-2.5799575,-0.35631052,-0.22420125,0.0,-0.050083216,-0.022066394,9.824708,-0.0064960998,0.015999869,1.2628676,-0.006379498,0.7299452693873318,-0.015713870525360107,0.010960996150970459,0.9141260981559753
19.911289930343628,-1.150391,1.0164822,-3.670338,-3.4913094764862795,nan,nan,nan,nan,9.908716917037964,0.0035271644592285156,-0.30063075,0.0042855386,0.007931172,0.050464421072556664,0.04259354849526109,9.600187962194909,-0.001614709,0.0009653956,0.73135537,-1.2694186,0.6762699,-3.0,-2.4598129,-0.3347303,-0.27167016,0.0,-0.048344795,-0.022674143,9.824001,-0.0078803,0.019390756,1.1804384,-0.005998113,0.7299121995533661,-0.0003223419189453125,-0.003057345747947693,0.968953013420105
20.005704164505005,-1.1719908,1.0148169,-3.6711268,-3.4301539463534088,nan,nan,nan,nan,10.003073930740356,0.003060579299926758,-0.2770931,-0.04583527,0.0020920318,0.05373737081139218,0.03863894851240457,9.597259858986364,0.021969723,-0.021863565,0.794878,-1.300003,0.64855087,-3.0,-2.352853,-0.3134581,-0.31556,0.0,-0.04636613,-0.023222424,9.823203,-0.0089852605,0.022527663,1.0850397,-0.0056216675,0.7297993525695105,0.030711621046066284,-0.015802204608917236,1.0163140296936035
20.102368116378784,-1.195249,1.0072955,-3.672159,-3.3501763170235916,nan,nan,nan,nan,10.099782466888428,0.002348661422729492,-0.2507307,-0.106451474,-0.0043594027,0.05982305227391849,0.030869644085307568,9.592307030623784,0.043509886,-0.04175708,0.8676319,-1.3292423,0.6159395,-3.0,-2.252894,-0.29114795,-0.35849643,0.0,-0.044037778,-0.023747042,9.822289,-0.009860496,0.025598265,0.98211384,-0.0052262074,0.7296084349470854,0.03948886692523956,-0.013708967715501785,1.0427886247634888
20.213887929916382,-1.2180135,0.99251455,-3.6735556,-3.256160579783951,nan,nan,nan,nan,10.211405038833618,0.002850055694580078,-0.22718439,-0.17412739,-0.010109388,0.0673148426954151,0.02059406261260177,9.58745259164833,0.05977891,-0.04363675,0.9374873,-1.3602765,0.57329047,-3.0,-2.1497395,-0.26480573,-0.40511304,0.0,-0.04099204,-0.024304401,9.821149,-0.010519177,0.028934399,0.8676464,-0.004758319,0.7294212621236584,0.1080622673034668,-0.03955838829278946,1.060778260231018
20.306567430496216,-1.2378839,0.9725299,-3.6753352,-3.163712672501357,nan,nan,nan,nan,10.30392336845398,0.0020029544830322266,-0.21078523,-0.2406978,-0.014512867,0.07509060091111519,0.010840552540015258,9.583716619750488,0.071225666,-0.028538218,0.9900318,-1.3837484,0.5341264,-3.0,-2.0735247,-0.24253076,-0.44108495,0.0,-0.038194515,-0.024726348,9.820162,-0.010765298,0.031510606,0.78148156,-0.004361803,0.7292771818168322,0.06301414221525192,0.013623952865600586,1.0565608739852905
20.409618377685547,-1.2578472,0.94335186,-3.6777213,-3.0587734832717626,nan,nan,nan,nan,10.407313346862793,0.0047914981842041016,-0.19619314,-0.31867832,-0.01754767,0.0839221438254405,3.24146964654215e-05,9.57738898358308,0.079613574,-0.014615173,1.0332956,-1.4075183,0.48657748,-3.0,-1.9972025,-0.21720901,-0.47814074,0.0,-0.034797247,-0.025154036,9.819049,-0.010712572,0.034166303,0.69710195,-0.003910052,0.7290330881309185,0.03885845094919205,0.03884652256965637,1.0407013893127441
20.50484824180603,-1.27339,0.9119387,-3.6799066,-2.966907871256547,nan,nan,nan,nan,10.502699613571167,0.004233837127685547,-0.1843017,-0.39032465,-0.018366795,0.08923379526638908,-0.0074472505330278604,9.571962883463135,0.051642805,0.018048784,1.0570532,-1.4271083,0.4394648,-3.0,-1.9339536,-0.19348489,-0.5091548,0.0,-0.031430356,-0.025506824,9.818042,-0.010360129,0.03639058,0.63089067,-0.0034858424,0.7288237076998271,0.02569664642214775,0.04930123686790466,1.0210027694702148
20.60920810699463,-1.290564,0.86627156,-3.6825702,-2.856296787829673,nan,nan,nan,nan,10.606435060501099,0.0018205642700195312,-0.16788319,-0.47809103,-0.018120946,0.09143445530222194,-0.014718808305222986,9.5671664982196,0.016031936,0.028079193,1.0703278,-1.445826,0.38505584,-3.0,-1.8717182,-0.16733529,-0.53918827,0.0,-0.027541151,-0.025844187,9.817,-0.009658694,0.038545985,0.5710419,-0.0030172223,0.7286385770632537,-0.019716117531061172,0.0593925416469574,0.9803274869918823
20.703075885772705,-1.3052216,0.8155831,-3.6848764,-2.7536759000813156,nan,nan,nan,nan,10.700334787368774,0.003515958786010742,-0.14982884,-0.55884004,-0.016887046,0.08889515947075277,-0.020603008841266757,9.562085434114563,-0.036713608,0.029482642,1.0689964,-1.4604166,0.33328727,-3.0,-1.8202399,-0.143391,-0.5628709,0.0,-0.023839911,-0.026107356,9.8161335,-0.008756956,0.040246688,0.5269165,-0.0025872283,0.7284424077793936,-0.06026361137628555,0.05085679888725281,0.9331759214401245
20.802485942840576,-1.3181882,0.75636864,-3.686717,-2.652013960119369,nan,nan,nan,nan,10.79989743232727,0.0021581649780273438,-0.1307434,-0.6351586,-0.015010627,0.0804371285170673,-0.02649095543908886,9.55559773324989,-0.08845021,0.017559769,1.0557393,-1.473419,0.27615267,-3.0,-1.7697158,-0.11776139,-0.5841761,0.0,-0.01975427,-0.026342029,9.81532,-0.0075516356,0.041777506,0.489535,-0.0021261165,0.7281918554091602,-0.07448618859052658,0.04818955063819885,0.886064350605011
20.90159773826599,-1.3294872,0.69026965,-3.687853,-2.5523379373731316,nan,nan,nan,nan,10.898862600326538,0.002913951873779297,-0.11384311,-0.70280933,-0.0128452,0.0675887749823525,-0.03181232105317733,9.549285456975923,-0.11508426,0.012218369,1.0292037,-1.483804,0.21745741,-3.0,-1.7227479,-0.09208259,-0.6013284,0.0,-0.015556338,-0.026529577,9.814641,-0.006134169,0.04301053,0.46100956,-0.0016633559,0.7279479962155712,-0.06359249353408813,0.04271945357322693,0.8368673920631409
21.011204719543457,-1.3390776,0.6183885,-3.6884942,-2.4555373378069207,nan,nan,nan,nan,11.00891399383545,0.003761768341064453,-0.10125973,-0.7600592,-0.011328535,0.05366303952788676,-0.036516209896460206,9.54338381140493,-0.107821114,0.0015890268,0.9930309,-1.492358,0.15045051,-3.0,-1.673341,-0.06334328,-0.61554676,0.0,-0.010763291,-0.026684126,9.814062,-0.0043516154,0.044033073,0.43840197,-0.001144714,0.7277199278100044,-0.02587825059890747,0.04232947528362274,0.7934616208076477
21.115089416503906,-1.3452708,0.56128126,-3.6886458,-2.385113097637872,nan,nan,nan,nan,11.112883567810059,0.003084897994995117,-0.09518766,-0.7971203,-0.009626929,0.04414291827497019,-0.03947548014647251,9.541123116416856,-0.0843564,0.018986715,0.9634156,-1.4975266,0.08596249,-3.0,-1.6285158,-0.036067355,-0.6241778,0.0,-0.0061499514,-0.026777545,9.8137045,-0.0025237014,0.044653974,0.42512834,-0.0006519688,0.7276325448358236,0.025589413940906525,0.03477980196475983,0.7710857391357422
21.20536780357361,-1.352852,0.48174557,-3.6883678,-2.294465656802292,nan,nan,nan,nan,11.202701330184937,0.002113819122314453,-0.090416506,-0.8400759,-0.007976993,0.03407986844376598,-0.04190753171304107,9.537379417745393,-0.05235737,0.0107955225,0.9209522,-1.4997057,0.029709652,-3.0,-1.5906196,-0.012447193,-0.6278254,0.0,-0.0021255198,-0.026816934,9.813551,-0.0008776741,0.044916417,0.4196193,-0.00022502638,0.7274878163336881,0.04712432622909546,0.07631516456604004,0.7228971719741821
21.30833649635315,-1.3608047,0.399183,-3.6879797,-2.2077530705866204,nan,nan,nan,nan,11.306036949157715,0.003741741180419922,-0.08873858,-0.8775624,-0.005245407,0.027856217770888536,-0.04020999208926024,9.533839881336311,-0.004533913,0.07286295,0.8780419,-1.4995868,-0.035196982,-3.0,-1.5473037,0.014747339,-0.6276263,0.0,0.0025180983,-0.026814785,9.81356,0.0010394265,0.04490209,0.4199185,0.00026660782,0.7273509544610977,0.07150644063949585,0.10485517978668213,0.6793639659881592
21.402246236801147,-1.368926,0.31422362,-3.687507,-2.125402406697116,nan,nan,nan,nan,11.399473667144775,0.002068042755126953,-0.084528916,-0.9087704,-0.0026860065,0.026170381790179054,-0.03398684951349629,9.530918537238609,0.028998762,0.10643411,0.83241284,-1.4970608,-0.093672134,-3.0,-1.5078152,0.039314326,-0.62339866,0.0,0.0067015016,-0.026769126,9.813737,0.00274637,0.044597913,0.42631277,0.0007106453,0.7272379768507412,0.06457554548978806,0.12824448943138123,0.6308700442314148
21.501821517944336,-1.3774532,0.22018729,-3.687063,-2.041282266468117,nan,nan,nan,nan,11.499198913574219,0.002120494842529297,-0.07244016,-0.93357396,0.00022264577,0.02741800947450468,-0.023541791174120474,9.529052537688983,0.035523698,0.13788997,0.78246534,-1.4918352,-0.15544245,-3.0,-1.4646883,0.06546793,-0.61467564,0.0,0.011120387,-0.02667468,9.814098,0.004489188,0.043970406,0.43976048,0.0011830779,0.727165803687775,0.040992043912410736,0.1453293114900589,0.5799349546432495
21.60731554031372,-1.3841388,0.13293801,-3.6866014,-1.968242625523223,nan,nan,nan,nan,11.597509145736694,0.0022940635681152344,-0.05298265,-0.94550556,0.0032265217,0.028851536149609225,-0.011111097242876289,9.528961843363938,0.02189943,0.15983267,0.7332086,-1.4841361,-0.21527621,-3.0,-1.4205146,0.091138564,-0.601879,0.0,0.015400326,-0.026535576,9.814619,0.006078603,0.04305012,0.46011674,0.0016463308,0.727162295631028,0.022729676216840744,0.14329323172569275,0.5393345355987549
21.706766843795776,-1.3886743,0.039646085,-3.6861346,-1.8940393399520943,nan,nan,nan,nan,11.704049348831177,0.0021102428436279297,-0.02383212,-0.94276273,0.0061017177,0.029756326750184026,0.003491043692193996,9.530554639566684,0.0015441407,0.15469462,0.6819664,-1.4729519,-0.27845812,-3.0,-1.369941,0.118782155,-0.5834076,0.0,0.019919142,-0.0263336,9.81535,0.0076039173,0.04172227,0.4908458,0.0021444971,0.727223902564868,0.009315220639109612,0.11794683337211609,0.5024054050445557
21.813095331192017,-1.3902104,-0.05090533,-3.6862206,-1.825140941049339,nan,nan,nan,nan,11.810335636138916,0.002568483352661133,0.009911897,-0.9232933,0.008570951,0.029924535071287228,0.016486151171787977,9.533536391872909,-0.007813351,0.127186,0.6307356,-1.4588716,-0.33928096,-3.0,-1.3157051,0.14612424,-0.5603521,0.0,0.024268473,-0.026079478,9.816228,0.008871469,0.04006576,0.53148043,0.0026363533,0.7273392183700159,0.0038791298866271973,0.08365151286125183,0.4752458930015564
21.901833534240723,-1.3886608,-0.117609255,-3.6867442,-1.775465623341324,nan,nan,nan,nan,11.89910888671875,0.0017888545989990234,0.037576597,-0.8981026,0.010483791,0.030029926953968666,0.02433151098368702,9.537664179075508,-0.009091016,0.10337305,0.5950475,-1.4448941,-0.38804206,-3.0,-1.2666993,0.1687418,-0.53768367,0.0,0.027754633,-0.02582738,9.817054,0.009704253,0.038437966,0.57393706,0.003042455,0.7274988259850176,0.008310724049806595,0.058212608098983765,0.46665555238723755
22.004066944122314,-1.3824581,-0.20728455,-3.6873865,-1.7104882332583107,nan,nan,nan,nan,12.001441240310669,0.0021681785583496094,0.076880135,-0.8528802,0.013227705,0.030775777704530438,0.031186390361198635,9.542669145110994,-0.0066916035,0.05976521,0.55478424,-1.4263045,-0.44157195,-3.0,-1.2050192,0.19452217,-0.50787365,0.0,0.031580955,-0.025492342,9.818085,0.0103813745,0.036298666,0.6335389,0.003504409,0.7276923048280526,0.007693324238061905,0.03242437541484833,0.4566441774368286
22.102270126342773,-1.3715844,-0.2891925,-3.6881645,-1.6496820201869502,nan,nan,nan,nan,12.099488496780396,0.001949310302734375,0.11614853,-0.7991542,0.015673602,0.03262069991069538,0.033993558395912116,9.547359771933406,0.003424854,0.025923565,0.51477766,-1.4060346,-0.4898228,-3.0,-1.1396296,0.21888846,-0.4758094,0.0,0.035029147,-0.025127329,9.819121,0.010726656,0.03399916,0.70225036,0.0039400477,0.7278735860896138,0.005601845681667328,0.019406944513320923,0.4585239291191101
22.205519676208496,-1.3572428,-0.3608947,-3.6899061,-1.592411906866206,nan,nan,nan,nan,12.2027428150177,0.0020761489868164062,0.15463547,-0.74027175,0.0045288075,0.03583845340787839,0.03473623497081535,9.550770158749073,0.022346642,0.020668808,0.49019393,-1.3821256,-0.53705955,-3.0,-1.062837,0.2441489,-0.43857822,0.0,0.03840405,-0.024697164,9.820234,0.0107568065,0.03133102,0.7873693,0.0043906346,0.728005361246708,0.006741426885128021,0.013794153928756714,0.4775146245956421
