time,x,y,z,yaw,platform,trajectory,controller,feedforward,traj_time,comp_time,vx,vy,vz,roll,pitch,f,p,q,r,x_ref,y_ref,z_ref,yaw_ref,vx_ref,vy_ref,vz_ref,roll_ref,pitch_ref,f_ref,u_ff_df,u_ff_dphi,u_ff_dpsi,u_ff_dth,throttle,p_cmd,q_cmd,r_cmd
10.03244686126709,-0.008170691,0.0054403185,-2.6341193,-2.0122054987208385e-05,SIM,spiral,contraction,1.0,0.030914783477783203,0.0006568431854248047,-0.0016499155,-0.014335384,-0.19496278,-0.007995669069728067,-0.0020026865956641604,9.812781448364259,0.002049701,-0.010353199,-4.3021715e-05,0.05179243,1.9993293,-3.0,0.0,1.6749543,-0.04338953,0.0,-0.14207464,0.0036680442,9.909915,9.531177e-11,0.0030419857,0.0,0.11862417,0.7380599140278471,1.2228143215179443,-2.3484015464782715,-0.0062255859375
10.10116171836853,-0.011446314,0.0026530495,-2.6508815,0.0003076656409846134,nan,nan,nan,nan,0.09964513778686523,0.0008561611175537109,-0.0021318516,-0.010624071,-0.21063834,-0.00048333142785476706,-0.02221269057330555,9.819833602905277,0.30356753,-0.7762036,0.010307389,0.1667632,1.9930354,-3.0,0.0,1.6696815,-0.13970722,0.0,-0.14163336,0.011810755,9.909915,-3.7960274e-10,0.009795933,0.0,0.11825818,0.7383286699694424,1.0572354793548584,-2.29058575630188,0.0164794921875
10.201115369796753,-0.011892299,0.001666632,-2.6734135,0.0008259003387714736,nan,nan,nan,nan,0.19957733154296875,0.0006115436553955078,0.053578988,0.016285673,-0.2875153,0.03454245890111595,-0.10230830768360488,9.812333145150914,0.4892297,-1.3652341,0.02652864,0.33283922,1.97211,-3.0,0.0,1.6521511,-0.27883875,0.0,-0.1401658,0.023574475,9.909915,1.0039546e-09,0.01955964,0.0,0.117040925,0.7380428260342264,0.6748330593109131,-1.7994325160980225,0.0953369140625
10.301100969314575,0.001800434,0.007053247,-2.7056136,-0.008517024960543074,nan,nan,nan,nan,0.29956984519958496,0.0006020069122314453,0.2518024,0.100133575,-0.3157368,0.10573116829566212,-0.28403299297583606,9.786682205209505,0.5925777,-1.4442749,0.041041024,0.49668172,1.9373454,-3.0,0.0,1.6230267,-0.41609913,0.0,-0.13772635,0.035183184,9.909915,6.3174854e-10,0.02920794,0.0,0.115016945,0.7370644370093755,0.06022905558347702,-0.4558601379394531,0.276123046875
10.40097689628601,0.050164595,0.026289986,-2.7373128,-0.011701348979458376,nan,nan,nan,nan,0.3994565010070801,0.0005388259887695312,0.59405214,0.2421748,-0.27831864,0.13724698811054278,-0.36128308101039486,9.76327827454544,-0.011582495,-0.09680986,0.08739153,0.6568733,1.889052,-3.0,0.0,1.5825685,-0.5503009,0.0,-0.13433485,0.046537783,9.909915,9.382224e-10,0.038664065,0.0,0.11220192,0.7361706351356853,-0.5005510449409485,0.5199015140533447,0.35858154296875
10.50168752670288,0.13519341,0.059165556,-2.7614107,0.004823209183898024,nan,nan,nan,nan,0.5002796649932861,0.0006761550903320312,0.92679656,0.3734869,-0.23611255,0.10327850786074955,-0.32892398879072293,9.751335754701863,-0.52976274,0.68681395,0.15577699,0.8139014,1.8269002,-3.0,0.0,1.5305004,-0.68185246,0.0,-0.12996551,0.057673976,9.909915,-2.4675422e-09,0.04796254,0.0,0.1085734,0.735714134558531,-0.7709461450576782,0.8755564093589783,0.3245849609375
10.601347208023071,0.26875955,0.10796118,-2.7828286,0.031002333505187295,nan,nan,nan,nan,0.5997388362884521,0.0008294582366943359,1.226319,0.46021673,-0.21427703,0.022063897957179543,-0.23968198209987812,9.74840759310405,-0.82991433,0.9849954,0.22074436,0.963124,1.7528241,-3.0,0.0,1.4684424,-0.80686486,0.0,-0.12475137,0.06826323,9.909915,1.7211923e-09,0.056831945,0.0,0.10424059,0.735602163465866,-0.7665780782699585,0.9075242877006531,0.230743408203125
10.702022075653076,0.41986525,0.15691331,-2.8013728,0.05141218381139391,nan,nan,nan,nan,0.7006938457489014,0.0010068416595458984,1.4165831,0.45886672,-0.21595322,-0.0634149583873063,-0.14492355869339701,9.748450013003593,-0.8238999,0.9608159,0.24747322,1.1077513,1.6651988,-3.0,0.0,1.3950337,-0.9280276,0.0,-0.118574746,0.0785337,9.909915,6.8129316e-09,0.06546491,0.0,0.09910433,0.7356037856966849,-0.6176405549049377,0.7836288809776306,0.13739013671875
10.803101062774658,0.59945655,0.20184378,-2.822504,0.06582912566051141,nan,nan,nan,nan,0.8018083572387695,0.0009686946868896484,1.5274155,0.36441436,-0.22557822,-0.14231492835985482,-0.052448199065505685,9.747498169930466,-0.64690506,0.7940821,0.23658903,1.2446687,1.565503,-3.0,0.0,1.3115127,-1.0427313,0.0,-0.11153622,0.08826432,9.909915,4.9823066e-09,0.073676094,0.0,0.09324675,0.7355673842624869,-0.36251163482666016,0.6049807667732239,0.05157470703125
10.901387929916382,0.7682693,0.22580563,-2.8431604,0.0725852689333402,nan,nan,nan,nan,0.8997886180877686,0.000934600830078125,1.5531098,0.20659436,-0.22953868,-0.1936494996248584,0.01723889055282246,9.745323640161939,-0.42223293,0.6319429,0.20123379,1.3688362,1.4581796,-3.0,0.0,1.2216017,-1.1467535,0.0,-0.10394679,0.09709602,9.909915,3.4225502e-09,0.08115911,0.0,0.08692552,0.7354842168243743,-0.12210322171449661,0.4451255798339844,-0.007598876953125
11.016146659851074,0.9309032,0.22638127,-2.8640692,0.07446654321709713,nan,nan,nan,nan,1.0152337551116943,0.0014650821685791016,1.5181955,0.0029992396,-0.22551847,-0.22132193920755555,0.07080235133604496,9.743262254351565,-0.15695767,0.45545438,0.14897408,1.5032474,1.3191843,-3.0,0.0,1.1051573,-1.2593576,0.0,-0.094099894,0.10666491,9.909915,-6.363008e-09,0.08930299,0.0,0.078716666,0.7354053681418553,0.05767151713371277,0.3187221586704254,-0.047637939453125
11.101001501083374,1.0807891,0.20031184,-2.8842278,0.07287480862676438,nan,nan,nan,nan,1.0994327068328857,0.0006103515625,1.4355197,-0.22108829,-0.2147873,-0.22515598680219362,0.1091709193577648,9.742807542709622,0.065195054,0.31824774,0.0938645,1.5924851,1.2099551,-3.0,0.0,1.0136496,-1.3341172,0.0,-0.08634878,0.11302322,9.909915,3.5505e-09,0.094737075,0.0,0.072249524,0.7353879741497465,0.24198439717292786,0.19334328174591064,-0.073638916015625
11.202378273010254,1.2129008,0.14766379,-2.903329,0.06875414425551284,nan,nan,nan,nan,1.2009494304656982,0.0010786056518554688,1.31528,-0.44244587,-0.2022056,-0.2088991294664692,0.13405268063466313,9.743834535847407,0.26084584,0.18384334,0.04228527,1.6895078,1.0703099,-3.0,0.0,0.89666075,-1.4153988,0.0,-0.076424226,0.11994145,9.909915,3.3436607e-09,0.100671835,0.0,0.063962705,0.7354272589328552,0.31975752115249634,0.10716033726930618,-0.085296630859375
11.30083179473877,1.3337512,0.06486154,-2.9228249,0.062035079155206854,nan,nan,nan,nan,1.2991862297058105,0.0007648468017578125,1.1557106,-0.65571636,-0.19118823,-0.17592814550884084,0.14873511121251237,9.745827104928892,0.36542353,0.082229525,-0.004785684,1.7717751,0.9278,-3.0,0.0,0.7772719,-1.4843189,0.0,-0.06628052,0.12581204,9.909915,2.917378e-09,0.105727054,0.0,0.0554864,0.7355034732495043,0.34562572836875916,0.025762278586626053,-0.086456298828125
11.400638341903687,1.4291445,-0.039306544,-2.9414449,0.053345496830715905,nan,nan,nan,nan,1.399021863937378,0.0005362033843994141,0.9767746,-0.8283485,-0.18493895,-0.13675798345884455,0.15346960895306205,9.74761039963457,0.3883325,0.0054665315,-0.040392186,1.8430907,0.7765416,-3.0,0.0,0.650554,-1.544064,0.0,-0.055499196,0.13090464,9.909915,2.0246713e-09,0.11012734,0.0,0.04647103,0.7355716763672207,0.3124130964279175,-0.03314933180809021,-0.07806396484375
11.503694772720337,1.4954189,-0.14827272,-2.9583833,0.043833256237960465,nan,nan,nan,nan,1.502331256866455,0.001434326171875,0.8046273,-0.9469857,-0.1837431,-0.10207904347649854,0.15161355780188268,9.748047792973221,0.34877628,-0.04457702,-0.060218014,1.9033165,0.61431766,-3.0,0.0,0.51464957,-1.5945188,0.0,-0.043921966,0.135208,9.909915,3.5581002e-10,0.113857,0.0,0.03678415,0.7355884037708188,0.23975726962089539,-0.05264761298894882,-0.0634765625
11.60113000869751,1.542697,-0.2636944,-2.9754398,0.03378402594548225,nan,nan,nan,nan,1.5995512008666992,0.0005235671997070312,0.6342423,-1.0283861,-0.18577754,-0.07251078719425691,0.14568412084063032,9.74647568006184,0.28439686,-0.07292952,-0.070749246,1.946986,0.4574336,-3.0,0.0,0.3832187,-1.6311032,0.0,-0.032714576,0.1383299,9.909915,3.3830297e-10,0.116569445,0.0,0.02740201,0.7355282790953795,0.16512291133403778,-0.047167692333459854,-0.04705810546875
11.701017379760742,1.5720598,-0.38113028,-2.9929457,0.02368149415252902,nan,nan,nan,nan,1.6994147300720215,0.0004966259002685547,0.46960795,-1.0783025,-0.19024868,-0.05008030110449948,0.1390597476183255,9.742608569042051,0.20768575,-0.071284175,-0.070649095,1.9784012,0.29313576,-3.0,0.0,0.24557684,-1.6574216,0.0,-0.02096879,0.1405766,9.909915,2.333147e-09,0.118525065,0.0,0.017565485,0.7353803627227748,0.10735563188791275,-0.05836224928498268,-0.0281982421875
11.800929307937622,1.5849609,-0.4970359,-3.0109165,0.014142604524664957,nan,nan,nan,nan,1.7993955612182617,0.0005993843078613281,0.31238967,-1.1032085,-0.195752,-0.03411410304466976,0.13172255850730097,9.737093661205138,0.14688483,-0.08236962,-0.06435666,1.9959897,0.12659155,-3.0,0.0,0.10605309,-1.6721565,0.0,-0.009056513,0.14183478,9.909915,4.9094157e-10,0.11962157,0.0,0.0075870636,0.7351693675941896,0.05538206547498703,-0.04693258926272392,-0.011199951171875
11.906500101089478,1.5828865,-0.6185802,-3.031139,0.0049677683629529255,nan,nan,nan,nan,1.9053337574005127,0.0007767677307128906,0.15285999,-1.1097317,-0.20259184,-0.022932718777874714,0.12450628773462769,9.729030154125057,0.08536232,-0.06416191,-0.053239007,1.9993542,-0.050819498,-3.0,0.0,-0.042574443,-1.6749752,0.0,0.0036357723,0.14207548,9.909915,-2.3138887e-10,0.11983145,0.0,-0.003045891,0.7348607579013752,0.017429716885089874,-0.03412804380059242,0.00433349609375
12.00120234489441,1.5676707,-0.7262547,-3.0509603,-0.0021195698791447865,nan,nan,nan,nan,1.9996578693389893,0.0006017684936523438,0.014677733,-1.1032271,-0.20900974,-0.017162014231145613,0.11916156096143671,9.719339678661191,0.045900792,-0.052775692,-0.040236868,1.9891036,-0.20848723,-3.0,0.0,-0.17466186,-1.6663876,0.0,0.014914732,0.14134215,9.909915,-4.8280574e-11,0.11919214,0.0,-0.012494476,0.7344897109911257,0.0023403316736221313,-0.02959957718849182,0.01556396484375
12.10484504699707,1.538176,-0.83817786,-3.0735161,-0.008041034946682051,nan,nan,nan,nan,2.103640556335449,0.0008854866027832031,-0.12629186,-1.0882939,-0.21646085,-0.013823912101237863,0.11414813598708973,9.708261645213927,0.023465792,-0.04149421,-0.024954759,1.9634223,-0.380753,-3.0,0.0,-0.3189789,-1.6448729,0.0,0.027233543,0.13950527,9.909915,2.551881e-09,0.11759217,0.0,-0.022812303,0.7340653080153233,0.0006640702486038208,-0.01965373381972313,0.024444580078125
12.200729846954346,1.4993471,-0.93703604,-3.0955079,-0.012056962252012797,nan,nan,nan,nan,2.1991426944732666,0.0006020069122314453,-0.2497541,-1.0700455,-0.22323671,-0.011955861481863648,0.11108287849993648,9.69595382966217,0.018552193,-0.03774865,-0.011258316,1.9267108,-0.53645635,-3.0,0.0,-0.44942063,-1.6141175,0.0,0.03836096,0.13688028,9.909915,3.3065545e-10,0.115309246,0.0,-0.03212932,0.7335935076435851,0.010130412876605988,-0.01827434077858925,0.0289306640625
12.300885915756226,1.4459803,-1.0393003,-3.1206496,-0.01492571813999256,nan,nan,nan,nan,2.2993545532226562,0.0006833076477050781,-0.3769158,-1.046243,-0.22987972,-0.009460462518784372,0.10796958102438814,9.682703860179748,0.025550626,-0.027524756,0.0010961931,1.8749405,-0.69613063,-3.0,0.0,-0.5831891,-1.5707465,0.0,0.04976228,0.13318011,9.909915,-4.995479e-09,0.11209814,0.0,-0.041671544,0.7330852564821174,0.026114866137504578,-0.023132115602493286,0.0313720703125
12.401012659072876,1.3872,-1.1294119,-3.1445518,-0.01636747601759659,nan,nan,nan,nan,2.3994951248168945,0.0005161762237548828,-0.48862782,-1.0204893,-0.23535736,-0.0059558360644681434,0.10511483918341846,9.66883957184967,0.038850725,-0.03232507,0.009974547,1.810014,-0.8507933,-3.0,0.0,-0.71275896,-1.5163538,0.0,0.06079345,0.12854224,9.909915,-4.9462487e-09,0.10808431,0.0,-0.05089884,0.7325530684216113,0.039099328219890594,-0.01095132902264595,0.031494140625
12.50088882446289,1.3198917,-1.215583,-3.1694324,-0.016903969993428594,nan,nan,nan,nan,2.4992947578430176,0.0005981922149658203,-0.59499866,-0.99031,-0.24020694,-0.0011480776983976773,0.10249515923898023,9.654715273455942,0.051436696,-0.0220856,0.018032392,1.732641,-0.99897707,-3.0,0.0,-0.83690107,-1.4515339,0.0,0.07134867,0.123018906,9.909915,-8.583467e-09,0.10331959,0.0,-0.059722222,0.7320105072340976,0.05240101367235184,-0.00112847238779068,0.029815673828125
12.601593494415283,1.2389373,-1.3038393,-3.1968503,-0.016802885240425065,nan,nan,nan,nan,2.60001277923584,0.0004875659942626953,-0.70441914,-0.9513465,-0.24449684,0.005238550650194228,0.10141592957666701,9.640372927264536,0.06311058,-0.016675647,0.021923812,1.642286,-1.1414452,-3.0,0.0,-0.9562549,-1.3758383,0.0,0.0814818,0.11657359,9.909915,-6.2361503e-09,0.097779766,0.0,-0.06818653,0.7314591638480326,0.0633254200220108,-0.018076665699481964,0.02508544921875
12.70098614692688,1.1572078,-1.3804545,-3.2223518,-0.01632992129396912,nan,nan,nan,nan,2.69940447807312,0.0005381107330322266,-0.80047965,-0.9090116,-0.24705891,0.012349901421820879,0.09958837209009119,9.626386034564344,0.073101446,-0.020278897,0.023945503,1.5416619,-1.2740796,-3.0,0.0,-1.0673704,-1.2915397,0.0,0.0909005,0.10940146,9.909915,4.0768393e-09,0.091639444,0.0,-0.07604779,0.7309210895326331,0.0718793123960495,-0.01699627935886383,0.020355224609375
12.808471202850342,1.075997,-1.446144,-3.2457387,-0.015819482498359048,nan,nan,nan,nan,2.807319402694702,0.0008976459503173828,-0.8845954,-0.86388105,-0.2484904,0.019492513468074176,0.09765447475999434,9.612788164542286,0.07906901,-0.024761077,0.024527214,1.4203378,-1.4080627,-3.0,0.0,-1.1796159,-1.1898994,0.0,0.10039857,0.10076138,9.909915,-2.1584454e-09,0.08427397,0.0,-0.083968475,0.7303976060039166,0.08779875189065933,0.016068145632743835,0.01470947265625
12.900806665420532,0.97244215,-1.5173553,-3.2736237,-0.015472519756955504,nan,nan,nan,nan,2.8992319107055664,0.0005292892456054688,-0.978829,-0.8020553,-0.24938294,0.02853695768337698,0.09477092260080688,9.599686205313766,0.084369324,-0.030925917,0.022107523,1.3078146,-1.5131493,-3.0,0.0,-1.267653,-1.0956322,0.0,0.10783555,0.0927548,9.909915,-3.5044183e-09,0.07747703,0.0,-0.09016512,0.7298928634273386,0.08249717205762863,-0.020951256155967712,0.009918212890625
13.001006841659546,0.8609765,-1.5814114,-3.3014073,-0.015520616412017662,nan,nan,nan,nan,2.999431610107422,0.0005056858062744141,-1.0671003,-0.7316482,-0.2484888,0.03767382822428853,0.09066224352307661,9.587209932581745,0.084212415,-0.044193964,0.017285194,1.1763402,-1.6174744,-3.0,0.0,-1.3550522,-0.98548853,0.0,0.11520682,0.08340728,9.909915,-3.7788506e-09,0.06957333,0.0,-0.09630209,0.7294119046636394,0.07979671657085419,-0.0397072434425354,0.005767822265625
13.102123022079468,0.7610587,-1.6295972,-3.3248718,-0.015941952967098792,nan,nan,nan,nan,3.100661039352417,0.0006535053253173828,-1.136114,-0.66549015,-0.24692293,0.04529940311614287,0.08604174796130115,9.57545631602522,0.08036329,-0.05592273,0.01515445,1.035106,-1.7113024,-3.0,0.0,-1.4336574,-0.86716837,0.0,0.12182572,0.07337394,9.909915,-2.8220476e-10,0.061123755,0.0,-0.10180821,0.7289585178414852,0.09333506226539612,-0.02215733379125595,0.00213623046875
13.201103687286377,0.62717676,-1.6825205,-3.3545718,-0.016946194913023346,nan,nan,nan,nan,3.199735164642334,0.0007803440093994141,-1.2158046,-0.5731911,-0.2441179,0.05469455161707738,0.07954575965814459,9.564445878789984,0.079611756,-0.06387524,0.009756967,0.88966715,-1.7912265,-3.0,0.0,-1.5006144,-0.7453258,0.0,0.12745535,0.063049644,9.909915,7.710298e-09,0.052461434,0.0,-0.106487885,0.7285335461040147,0.07791309058666229,-0.05682052671909332,-0.000213623046875
13.301166534423828,0.5077931,-1.7194012,-3.3797486,-0.018246180727754944,nan,nan,nan,nan,3.2996675968170166,0.0008351802825927734,-1.2754273,-0.4871476,-0.24083164,0.06245203527571756,0.07306878684083151,9.554234163091746,0.07598071,-0.06948626,0.006277695,0.7367666,-1.859348,-3.0,0.0,-1.5576838,-0.61723214,0.0,0.13224725,0.052202884,9.909915,-1.824328e-09,0.043390933,0.0,-0.11046854,0.728139184067977,0.09160870313644409,-0.043177276849746704,-0.0025634765625
13.403944492340088,0.41587403,-1.7414253,-3.3983138,-0.01949813799422259,nan,nan,nan,nan,3.4028351306915283,0.0012612342834472656,-1.3144822,-0.41866648,-0.23791333,0.06841266348540015,0.06842711883718389,9.545147858933774,0.09241781,-0.044982493,0.0034552356,0.57351375,-1.9160068,-3.0,0.0,-1.6051501,-0.48046577,0.0,0.13622819,0.040628485,9.909915,-3.963359e-09,0.033740066,0.0,-0.1137736,0.7277881066084687,0.12138655036687851,-0.01753641664981842,-0.005859375
13.51509404182434,0.2584217,-1.7663044,-3.4287124,-0.021859451128279535,nan,nan,nan,nan,3.514294385910034,0.0017583370208740234,-1.3720127,-0.29440787,-0.23186179,0.08080977765029931,0.06311997584027496,9.537648545504776,0.09886959,-0.052853968,0.00040781265,0.3923663,-1.9611346,-3.0,0.0,-1.6429563,-0.32870802,0.0,0.13939583,0.027791688,9.909915,-3.944548e-09,0.023062807,0.0,-0.11640217,0.7274982215527075,0.0762244313955307,-0.07022907584905624,-0.009765625
13.608825922012329,0.15123966,-1.7733668,-3.448467,-0.024096173549833518,nan,nan,nan,nan,3.6080973148345947,0.0019145011901855469,-1.4041681,-0.20376454,-0.22657391,0.08810826546094497,0.05767543443016909,9.532276078463763,0.08100992,-0.07600368,-0.0031953752,0.2371998,-1.9858843,-3.0,0.0,-1.6636906,-0.19871604,0.0,0.14113191,0.016799722,9.909915,4.560017e-10,0.013935478,0.0,-0.11784229,0.727290479414187,0.07379570603370667,-0.07319507002830505,-0.011566162109375
13.713477849960327,-0.00082165195,-1.7701654,-3.4754415,-0.0281231357110737,nan,nan,nan,nan,3.7140743732452393,0.0026788711547851562,-1.4382164,-0.06940705,-0.21887445,0.09539354711748887,0.04732487675492414,9.526681977511616,0.034624647,-0.11515159,-0.007020858,0.060184278,-1.9990942,-3.0,0.0,-1.6747574,-0.050419863,0.0,0.14205816,0.0042623747,9.909915,-1.6440045e-10,0.0035348902,0.0,-0.1186105,0.727074104928276,0.031580545008182526,-0.09532558917999268,-0.00927734375
13.80750823020935,-0.12111336,-1.7574888,-3.4957867,-0.031716919643389914,nan,nan,nan,nan,3.8066680431365967,0.0010411739349365234,-1.4540777,0.037753213,-0.21212235,0.09751032485605221,0.03724350685243061,9.522217789889547,0.02255447,-0.106421426,-0.009307394,-0.09491328,-1.9977466,-3.0,0.0,-1.6736283,0.07951437,0.0,0.14196368,-0.0067219855,9.909915,-2.3332747e-10,-0.00557483,0.0,-0.118532136,0.7269013888311479,0.03214489668607712,-0.09002871811389923,-0.0057373046875
13.908648490905762,-0.25243923,-1.7334911,-3.5172422,-0.03569386205906411,nan,nan,nan,nan,3.9075496196746826,0.001051187515258789,-1.4604018,0.1545171,-0.20438564,0.0987126056387202,0.026625767486143426,9.516729203463766,0.0005343045,-0.109906316,-0.010744041,-0.2632119,-1.9826043,-3.0,0.0,-1.6609427,0.22050789,0.0,0.14090188,-0.018642236,9.909915,-3.4209718e-10,-0.0154647,0.0,-0.11765149,0.7266889840093792,0.035987935960292816,-0.08722546696662903,-0.002105712890625
14.005872011184692,-0.39414802,-1.695784,-3.539469,-0.03982350021381754,nan,nan,nan,nan,4.004839181900024,0.0014111995697021484,-1.4553025,0.2787875,-0.19539414,0.09888229372211499,0.015307394417500841,9.512735673376593,-0.0025387288,-0.108323805,-0.009509476,-0.4237511,-1.9545933,-3.0,0.0,-1.6374763,0.35500088,0.0,0.13893686,-0.030015344,9.909915,2.3347981e-09,-0.02491077,0.0,-0.116021365,0.7265343984231389,0.02020946890115738,-0.09359094500541687,0.002227783203125
14.108017683029175,-0.53396875,-1.6471049,-3.5605688,-0.04355336805200778,nan,nan,nan,nan,4.106983423233032,0.0016293525695800781,-1.4381405,0.39955437,-0.1863404,0.09845842366207987,0.0040689298856788625,9.509237672482852,-0.008045985,-0.106561795,-0.006311546,-0.58925545,-1.9112242,-3.0,0.0,-1.6011435,0.4936535,0.0,0.13589232,-0.041744288,9.909915,5.06874e-09,-0.034669343,0.0,-0.11349482,0.7263989676194911,0.016996916383504868,-0.09574884921312332,0.0059814453125
14.20500636100769,-0.66072434,-1.5929244,-3.5791821,-0.046526809052573614,nan,nan,nan,nan,4.203882932662964,0.0012886524200439453,-1.41189,0.5071885,-0.17761017,0.09773343444089902,-0.0062643503110568766,9.506902848967584,-0.009711832,-0.10671209,-0.0038057454,-0.7422952,-1.8571478,-3.0,0.0,-1.5558406,0.6218638,0.0,0.13209258,-0.052594975,9.909915,4.5895862e-10,-0.04371833,0.0,-0.11034009,0.7263085572607412,0.020856864750385284,-0.09683606028556824,0.008819580078125
14.30293893814087,-0.7945549,-1.5244254,-3.598155,-0.0492213171304402,nan,nan,nan,nan,4.301822900772095,0.0011889934539794922,-1.3729297,0.62005085,-0.16827023,0.09748875021993636,-0.017368803850411618,9.505097276476445,0.0016284857,-0.10680082,-0.0017750177,-0.8920053,-1.7900633,-3.0,0.0,-1.49964,0.74728465,0.0,0.12737347,-0.06321557,9.909915,4.4785198e-09,-0.052600414,0.0,-0.10641985,0.7262386332472882,0.00501677393913269,-0.09900407493114471,0.0123291015625
14.416256427764893,-0.9335031,-1.4392169,-3.6173503,-0.051548878950087904,nan,nan,nan,nan,4.415712118148804,0.0022923946380615234,-1.3186302,0.73770386,-0.15748914,0.09727615495178508,-0.029437079521741127,9.50437278922298,-0.005801773,-0.10506504,0.0026351076,-1.0584828,-1.6969426,-3.0,0.0,-1.4216273,0.8867525,0.0,0.12081341,-0.0750341,9.909915,4.401082e-09,-0.0625196,0.0,-0.10096637,0.7262105743198443,0.0006365254521369934,-0.09855548292398453,0.015350341796875
14.505115747451782,-1.0377685,-1.3645477,-3.6310363,-0.05299386053357967,nan,nan,nan,nan,4.504103660583496,0.0011675357818603516,-1.2670434,0.8273178,-0.14843185,0.09687554009461845,-0.038886014261545254,9.504281923349408,0.0007234192,-0.10589901,0.006649592,-1.181127,-1.6139824,-3.0,0.0,-1.3521268,0.9894986,0.0,0.11496029,-0.08374746,9.909915,3.7510497e-09,-0.069860406,0.0,-0.09609691,0.7262070550672675,-0.008398003876209259,-0.09673777967691422,0.017669677734375
14.607386350631714,-1.1366624,-1.2835859,-3.643626,-0.05415896520937645,nan,nan,nan,nan,4.606274366378784,0.0013210773468017578,-1.2074596,0.9142287,-0.13900203,0.09621948341124566,-0.04821793660809415,9.505016329137069,-0.017314924,-0.10356205,0.008132495,-1.3147821,-1.5070993,-3.0,0.0,-1.2625846,1.1014694,0.0,0.10740771,-0.093250416,9.909915,5.221402e-09,-0.077897005,0.0,-0.08980877,0.7262354982617295,0.008681364357471466,-0.09981853514909744,0.01922607421875
14.705458402633667,-1.229211,-1.1961665,-3.6554537,-0.05514323275906856,nan,nan,nan,nan,4.704582214355469,0.0019519329071044922,-1.1398002,0.9979681,-0.12956192,0.09396760400847705,-0.05718637064105603,9.506351244484469,-0.027425714,-0.09838782,0.012166617,-1.4343072,-1.3938303,-3.0,0.0,-1.1676925,1.2016025,0.0,0.09939047,-0.10175581,9.909915,3.201918e-09,-0.08512003,0.0,-0.08312815,0.7262871960982713,0.020348720252513885,-0.10249155014753342,0.021240234375
14.80771279335022,-1.344312,-1.0662293,-3.6702912,-0.05616437596226214,nan,nan,nan,nan,4.806720733642578,0.0011935234069824219,-1.0360831,1.1059601,-0.116609395,0.09027289216756529,-0.06898719604852444,9.508621676245166,-0.035264783,-0.0906564,0.014673508,-1.5481803,-1.2661507,-3.0,0.0,-1.060728,1.2970005,0.0,0.09033788,-0.10986588,9.909915,-2.9299907e-09,-0.09203632,0.0,-0.0755784,0.7263751157422131,-0.03391559422016144,-0.07863015681505203,0.0255126953125
14.9105806350708,-1.4323465,-0.9431229,-3.6818967,-0.05668640456012378,nan,nan,nan,nan,4.9096033573150635,0.0011553764343261719,-0.9356743,1.1942744,-0.10515288,0.08534215485515838,-0.07804116074361711,9.511884844934034,-0.055069625,-0.077748656,0.01728579,-1.6514286,-1.128177,-3.0,0.0,-0.9451394,1.3834976,0.0,0.08053878,-0.11722554,9.909915,3.5168777e-09,-0.09833916,0.0,-0.06739909,0.726501459505796,-0.05337151139974594,-0.06686503440141678,0.02777099609375
15.013070583343506,-1.5032587,-0.8221225,-3.69128,-0.05686193765006372,nan,nan,nan,nan,5.012748718261719,0.0023207664489746094,-0.8360283,1.2687181,-0.09492491,0.07921474234521367,-0.08541967931930228,9.515497058366822,-0.06917554,-0.06688471,0.02158499,-1.7426326,-0.98144364,-3.0,0.0,-0.82221234,1.4599046,0.0,0.07010054,-0.123731956,9.909915,3.114451e-09,-0.10393379,0.0,-0.05867921,0.7266412923559401,-0.05306098610162735,-0.06618653237819672,0.029052734375
15.101144313812256,-1.5642352,-0.6956317,-3.6991909,-0.0566228970729998,nan,nan,nan,nan,5.099708318710327,0.0006597042083740234,-0.7312713,1.3349237,-0.08470958,0.07194614726335424,-0.09203270122101137,9.519275287536372,-0.076564744,-0.06375707,0.024281468,-1.8094465,-0.8519998,-3.0,0.0,-0.71376973,1.5158783,0.0,0.060879443,-0.12850173,9.909915,-1.7604288e-09,-0.108049296,0.0,-0.050970748,0.7267875234661647,-0.07849302142858505,-0.04674406349658966,0.03057861328125
15.201212882995605,-1.6145792,-0.5646644,-3.7057154,-0.05601751933769672,nan,nan,nan,nan,5.199776649475098,0.0011775493621826172,-0.62203026,1.3915576,-0.074546665,0.06314786857692108,-0.09740348612610417,9.524529422891725,-0.09678631,-0.043752458,0.026083296,-1.8744336,-0.69749445,-3.0,0.0,-0.5843316,1.5703219,0.0,0.04985961,-0.1331439,9.909915,5.1960583e-09,-0.11206675,0.0,-0.041752987,0.7269908292449739,-0.07347727566957474,-0.04738347977399826,0.031219482421875
15.300991296768188,-1.6565655,-0.41861537,-3.7120447,-0.05502332541334547,nan,nan,nan,nan,5.299472808837891,0.0016179084777832031,-0.5000941,1.4411798,-0.06424342,0.05258271552323794,-0.10220218358872413,9.530252537054407,-0.099353075,-0.039987743,0.028026886,-1.9260876,-0.53868973,-3.0,0.0,-0.45129168,1.6135955,0.0,0.03852051,-0.13683572,9.909915,3.9194417e-09,-0.115270525,0.0,-0.032262888,0.7272122180949465,-0.07672682404518127,-0.0377255342900753,0.031280517578125
15.401163816452026,-1.6832316,-0.2813892,-3.7173743,-0.053984863018419066,nan,nan,nan,nan,5.399658918380737,0.0005342960357666016,-0.3845837,1.4752963,-0.055451717,0.04289146828944804,-0.10619196199205483,9.536259540913091,-0.09316508,-0.034487445,0.029573407,-1.9644675,-0.37532294,-3.0,0.0,-0.31442982,1.6457485,0.0,0.026845343,-0.13958003,9.909915,6.951161e-10,-0.11765724,0.0,-0.022487199,0.7274445172402486,-0.06559424847364426,-0.039500750601291656,0.031646728515625
15.501079559326172,-1.6994166,-0.13128981,-3.722614,-0.05274478685029257,nan,nan,nan,nan,5.499591112136841,0.0005598068237304688,-0.2576264,1.5006804,-0.046984676,0.03298651175902686,-0.10985806300206202,9.54229156907408,-0.08786604,-0.029427541,0.0310425,-1.9889721,-0.20973764,-3.0,0.0,-0.1757094,1.6662774,0.0,0.015004171,-0.14133273,9.909915,1.0646556e-09,-0.11918393,0.0,-0.012569395,0.7276777104997811,-0.06800594925880432,-0.02654644474387169,0.032470703125
15.601656675338745,-1.7036722,0.007775145,-3.7269492,-0.05141909202562163,nan,nan,nan,nan,5.6003758907318115,0.0004963874816894531,-0.14001329,1.5141912,-0.03983047,0.024281072932758576,-0.11262833437608277,9.548199314435408,-0.080299884,-0.03283426,0.031152055,-1.9995745,-0.041253954,-3.0,0.0,-0.034560833,1.6751597,0.0,0.0029514302,-0.14209123,9.909915,2.825095e-10,-0.11984519,0.0,-0.0024725809,0.7279060276563759,-0.0629451647400856,-0.03222721815109253,0.032867431640625
15.701396942138672,-1.6962961,0.15769972,-3.7308683,-0.04980916177558946,nan,nan,nan,nan,5.699800491333008,0.00046706199645996094,-0.011806157,1.5183301,-0.033246666,0.015224645631389186,-0.11551347841368487,9.553827137311384,-0.081255905,-0.023265775,0.0324328,-1.9960744,0.12524799,-3.0,0.0,0.10492751,1.6722275,0.0,-0.008960399,-0.14184083,9.909915,-7.8692236e-10,-0.11962686,0.0,0.0075065456,0.728123460940818,-0.07009682804346085,-0.01579362526535988,0.0340576171875
15.80101466178894,-1.6799002,0.28322864,-3.733523,-0.04835914436044109,nan,nan,nan,nan,5.799467086791992,0.0005731582641601562,0.09649323,1.5134233,-0.027626343,0.007390573363266026,-0.11716842403113237,9.559255909246787,-0.082304746,-0.018706804,0.03232035,-1.9786748,0.29128343,-3.0,0.0,0.24402504,1.6576507,0.0,-0.020836323,-0.14059618,9.909915,-2.072949e-09,-0.11854211,0.0,0.017454535,0.7283331431338524,-0.06289330869913101,-0.03412017226219177,0.0350341796875
15.900943517684937,-1.6518669,0.41833985,-3.7361448,-0.04668114004335682,nan,nan,nan,nan,5.8993799686431885,0.0006227493286132812,0.21441206,1.4999924,-0.022116575,-0.0010296342428972455,-0.11903386878504452,9.564405216386001,-0.08181306,-0.012392918,0.03337217,-1.9473947,0.45569047,-3.0,0.0,0.38175836,1.6314456,0.0,-0.032589998,-0.13835913,9.909915,-2.7918918e-09,-0.11659487,0.0,0.027297704,0.7285319761970016,-0.06595095247030258,-0.03155544400215149,0.037078857421875
16.003264904022217,-1.6093726,0.56179553,-3.7385283,-0.044742531682694354,nan,nan,nan,nan,6.001782655715942,0.0005495548248291016,0.34132499,1.475937,-0.016356224,-0.010182078266187639,-0.12066393395741382,9.569238895324451,-0.08267097,-0.0065212375,0.033770315,-1.9011878,0.6208743,-3.0,0.0,0.52014244,1.5927354,0.0,-0.04439014,-0.13505584,9.909915,-2.5392046e-09,-0.11372496,0.0,0.03717599,0.7287185730349817,-0.0742199569940567,-0.012186191976070404,0.03955078125
16.10110640525818,-1.5588319,0.69150096,-3.7402327,-0.04280588119341648,nan,nan,nan,nan,6.0995705127716064,0.0005130767822265625,0.45800948,1.445941,-0.011061132,-0.018900235694148927,-0.12089148437057151,9.57388985037563,-0.08733881,0.004770264,0.03540596,-1.844005,0.774368,-3.0,0.0,0.648733,1.5448301,0.0,-0.055344164,-0.13096996,9.909915,3.8043257e-10,-0.11018387,0.0,0.046341356,0.7288980716109416,-0.08258072286844254,-0.0010219253599643707,0.041351318359375
16.20242142677307,-1.4982907,0.8180138,-3.7412953,-0.04060165144145343,nan,nan,nan,nan,6.200950384140015,0.0006470680236816406,0.5719003,1.4083875,-0.006177423,-0.02837317211942736,-0.1195972759080608,9.57847542140392,-0.09480147,0.02184123,0.037941463,-1.7716682,0.9280041,-3.0,0.0,0.77744293,1.4842293,0.0,-0.066295065,-0.12580441,9.909915,-3.5635193e-09,-0.105720475,0.0,0.05549856,0.7290750040816166,-0.09033961594104767,-0.0019660405814647675,0.0423583984375
16.302900552749634,-1.4285592,0.9409067,-3.7419345,-0.03809249734308125,nan,nan,nan,nan,6.301517009735107,0.0007584095001220703,0.6811373,1.3627881,-0.0017212463,-0.0384279255892199,-0.1170721235822687,9.582927249369598,-0.10135637,0.02879793,0.03884155,-1.6872919,1.0737998,-3.0,0.0,0.8995845,1.4135424,0.0,-0.07667245,-0.11978337,9.909915,1.2527027e-10,-0.100535974,0.0,0.06417005,0.7292467356157047,-0.09862862527370453,-0.005715206265449524,0.04278564453125
16.400705575942993,-1.3363758,1.0784698,-3.742349,-0.03479538920974225,nan,nan,nan,nan,6.399096250534058,0.0006151199340820312,0.80217373,1.2988385,0.002498627,-0.05082866578227081,-0.1138680389428337,9.587137835731186,-0.10765224,0.03992832,0.039014086,-1.5939739,1.207993,-3.0,0.0,1.0120059,1.3353645,0.0,-0.086209446,-0.11312934,9.909915,8.474094e-10,-0.094827935,0.0,0.072133236,0.7294091244298596,-0.09931401908397675,0.03450506180524826,0.042633056640625
16.501474380493164,-1.2482716,1.1895704,-3.742577,-0.03195089470586766,nan,nan,nan,nan,6.500040769577026,0.0014715194702148438,0.8998187,1.2336818,0.0061456943,-0.06167528819142902,-0.10944338667989273,9.591152270359377,-0.10648604,0.046569858,0.042224165,-1.4862429,1.3383132,-3.0,0.0,1.1211827,1.245112,0.0,-0.09545618,-0.105453834,9.909915,-5.273759e-09,-0.088270046,0.0,0.0798478,0.7295639150972296,-0.09954629093408585,0.025389179587364197,0.04254150390625
16.601022958755493,-1.1437733,1.3018041,-3.7422857,-0.02896743497975163,nan,nan,nan,nan,6.599489688873291,0.0007364749908447266,0.9981737,1.152256,0.009505975,-0.07324232757618233,-0.1043303079250768,9.594959414002874,-0.10476818,0.044599406,0.04277012,-1.3697165,1.4573526,-3.0,0.0,1.2209089,1.1474911,0.0,-0.103888266,-0.097158656,9.909915,-7.3812894e-09,-0.081212305,0.0,0.08687677,0.7297106830049547,-0.09048964828252792,0.037285707890987396,0.042022705078125
16.70086646080017,-1.0398744,1.3973691,-3.7417746,-0.02622273789646914,nan,nan,nan,nan,6.6993348598480225,0.0006449222564697266,1.0827836,1.0679162,0.01255087,-0.0834155591925271,-0.09979700249017065,9.598567888548054,-0.097314484,0.04212085,0.0425132,-1.2431675,1.5666955,-3.0,0.0,1.3125118,1.0414736,0.0,-0.11162048,-0.08815757,9.909915,7.3252565e-10,-0.073585846,0.0,0.0933169,0.7298497652116399,-0.08504519611597061,0.03771387040615082,0.04290771484375
16.805443048477173,-0.92900884,1.4844475,-3.741168,-0.02344634858493589,nan,nan,nan,nan,6.804818868637085,0.0012171268463134766,1.1611485,0.9756181,0.015107847,-0.09281598064992361,-0.09509378398795754,9.601908723858573,-0.08942185,0.04717546,0.04270658,-1.1000481,1.6702976,-3.0,0.0,1.3993053,0.9215741,0.0,-0.11893441,-0.07798647,9.909915,-1.0705583e-09,-0.06500409,0.0,0.09940352,0.7299785084373247,-0.08586285263299942,0.03183760493993759,0.04443359375
16.901196002960205,-0.81204396,1.5626218,-3.7399426,-0.020683990414051445,nan,nan,nan,nan,6.899704694747925,0.0006005764007568359,1.2333755,0.87657666,0.018185375,-0.10148684221453326,-0.08985824633819339,9.605095368956604,-0.08208351,0.05628888,0.042232588,-0.9639394,1.7523757,-3.0,0.0,1.4680669,0.80754805,0.0,-0.1247198,-0.068321116,9.909915,2.1001414e-10,-0.05688051,0.0,0.10421434,0.7301012888834705,-0.07758668810129166,0.04917588829994202,0.045501708984375
17.004122495651245,-0.67950577,1.6355956,-3.7381315,-0.01790299786228486,nan,nan,nan,nan,7.002875089645386,0.0008184909820556641,1.3031458,0.7611043,0.021340238,-0.10989012487910288,-0.08283161347894974,9.608281708916104,-0.0712652,0.069472216,0.0428927,-0.8090683,1.8290458,-3.0,0.0,1.5322978,0.6778035,0.0,-0.13011643,-0.057331122,9.909915,-5.594461e-09,-0.04767585,0.0,0.10869877,0.7302240372101417,-0.06708502769470215,0.062922403216362,0.045867919921875
17.101776361465454,-0.5525969,1.6911775,-3.7363303,-0.015595194494666849,nan,nan,nan,nan,7.100359916687012,0.0007071495056152344,1.3585281,0.6479912,0.023805393,-0.11670657492495073,-0.07515486072358679,9.611474534121728,-0.062790774,0.074881,0.043839954,-0.6571625,1.8889514,-3.0,0.0,1.5824842,0.5505432,0.0,-0.13432777,-0.046558287,9.909915,-5.3088023e-09,-0.038681164,0.0,0.11219605,0.7303470149562409,-0.058563366532325745,0.06742676347494125,0.0457763671875
17.20104432106018,-0.410458,1.739334,-3.7347612,-0.01327786600394297,nan,nan,nan,nan,7.199491024017334,0.0005860328674316406,1.4087828,0.52121997,0.026350854,-0.12268333450281126,-0.0659772887341048,9.6145916757336,-0.045753337,0.087057084,0.045622595,-0.49820447,1.9369544,-3.0,0.0,1.6226991,0.41737482,0.0,-0.13769892,-0.035291094,9.909915,-3.8786974e-09,-0.029297708,0.0,0.114994176,0.7304670579006971,-0.043442606925964355,0.08035672456026077,0.045166015625
17.30084466934204,-0.27564687,1.7729375,-3.7331805,-0.011044614850760692,nan,nan,nan,nan,7.299294471740723,0.000614166259765625,1.4458447,0.40184483,0.027842853,-0.12714496776568573,-0.057091011988064766,9.617536240422549,-0.04384855,0.08474042,0.046923265,-0.33470196,1.9717947,-3.0,0.0,1.6518869,0.28039926,0.0,-0.1401437,-0.023706436,9.909915,1.3191486e-09,-0.01966923,0.0,0.11702258,0.7305804369350015,-0.04596012085676193,0.08105761557817459,0.04486083984375
17.401973724365234,-0.12639809,1.7973121,-3.7310371,-0.00852170746514043,nan,nan,nan,nan,7.400467395782471,0.0005404949188232422,1.4762847,0.27023724,0.02982001,-0.13168758741021974,-0.04717132603655405,9.620309906785758,-0.033881865,0.09796486,0.045996938,-0.16657454,1.9930512,-3.0,0.0,1.6696947,0.13954917,0.0,-0.14163446,-0.011797392,9.909915,-2.4739288e-10,-0.0097848475,0.0,0.1182591,0.7306872197386516,-0.035038143396377563,0.09370771050453186,0.043792724609375
17.501102685928345,-0.009863437,1.8073118,-3.7288141,-0.006632524041466262,nan,nan,nan,nan,7.499624013900757,0.0005888938903808594,1.4923521,0.1676934,0.03145858,-0.134373438900041,-0.03865143970738538,9.623085709398062,-0.028633652,0.10259643,0.04398075,-0.00062812166,1.9999999,-3.0,0.0,1.675516,0.00052621396,0.0,-0.14212164,-4.448474e-05,9.909915,-2.1963336e-12,-3.689171e-05,0.0,0.11866315,0.7307940693751662,-0.06809109449386597,0.07841046154499054,0.0439453125
17.602293968200684,0.14284593,1.8086544,-3.72548,-0.004198770846892616,nan,nan,nan,nan,7.601535797119141,0.0006864070892333984,1.5033193,0.03338175,0.033521876,-0.13768951492513237,-0.027405772225314262,9.62592933732775,-0.028608985,0.1056384,0.0438592,0.16992122,1.9927686,-3.0,0.0,1.669458,-0.14235288,0.0,-0.14161466,0.012034427,9.909915,2.96842e-10,0.009981494,0.0,0.11824268,0.7309035138491762,-0.05805744603276253,0.08966296911239624,0.041900634765625
17.700911283493042,0.29563177,1.7965846,-3.7217054,-0.0018562000816904345,nan,nan,nan,nan,7.699342727661133,0.0005354881286621094,1.5025487,-0.1020357,0.035393156,-0.1408944632883437,-0.015836746775194754,9.62883247459066,-0.024159387,0.10902334,0.04417228,0.33245248,1.9721752,-3.0,0.0,1.6522057,-0.27851474,0.0,-0.14017038,0.02354708,9.909915,-6.2319794e-10,0.019536888,0.0,0.11704472,0.7310152320204579,-0.03298386186361313,0.10236576199531555,0.039459228515625
17.800867319107056,0.43517256,1.7734281,-3.7179046,0.00011484481226160803,nan,nan,nan,nan,7.799257040023804,0.0004642009735107422,1.490631,-0.22766414,0.03714172,-0.1428761147564262,-0.004517817006942648,9.631825791408687,-0.01308956,0.114826724,0.04192023,0.4961757,1.9374751,-3.0,0.0,1.6231353,-0.4156752,0.0,-0.13773546,0.035147324,9.909915,2.8375116e-09,0.029178103,0.0,0.1150245,0.7311304028370808,-0.027660885825753212,0.10245125740766525,0.037445068359375
17.90470266342163,0.58399254,1.7353237,-3.7133744,0.0020525566551984203,nan,nan,nan,nan,7.903758525848389,0.0013210773468017578,1.4659327,-0.3632632,0.038916748,-0.14356295488034987,0.007948527883567591,9.634975205657453,-0.00013577854,0.114886045,0.041419372,0.66367865,1.8866719,-3.0,0.0,1.5805746,-0.55600214,0.0,-0.13416761,0.04702028,9.909915,-1.2303751e-10,0.0390664,0.0,0.11206309,0.7312515603377171,-0.01470557227730751,0.10301462560892105,0.034698486328125
18.001224994659424,0.7182373,1.6882983,-3.708894,0.003755683939794044,nan,nan,nan,nan,7.999732255935669,0.0005736351013183594,1.4321555,-0.48678625,0.040693194,-0.14304799384241046,0.01934300642174014,9.638233720210762,0.012647617,0.112380214,0.03939748,0.81306416,1.827273,-3.0,0.0,1.5308127,-0.68115103,0.0,-0.12999174,0.057614584,9.909915,6.9474555e-09,0.047912873,0.0,0.10859518,0.7313768940703858,-0.0013577565550804138,0.10265950858592987,0.032012939453125
18.101105213165283,0.8593273,1.624567,-3.703999,0.005546096433495101,nan,nan,nan,nan,8.099631309509277,0.0011489391326904297,1.3845438,-0.61772937,0.04184338,-0.141181177644644,0.031353488670682994,9.64155601672587,0.020100368,0.110931285,0.038280446,0.9629673,1.7529101,-3.0,0.0,1.4685146,-0.8067336,0.0,-0.12475744,0.0682521,9.909915,6.3215873e-09,0.05682261,0.0,0.10424564,0.7315046592670181,0.022200416773557663,0.1023535504937172,0.02899169921875
18.20108985900879,0.9844295,1.5546558,-3.6999753,0.007066263390146849,nan,nan,nan,nan,8.199542045593262,0.000644683837890625,1.3306254,-0.73449785,0.042600155,-0.1380864984970879,0.04230709746835748,9.644800722000571,0.046266615,0.1085453,0.035986096,1.1061453,1.6662661,-3.0,0.0,1.3959279,-0.9266821,0.0,-0.118650034,0.07841962,9.909915,5.213613e-09,0.065368816,0.0,0.09916696,0.731629419299902,0.025055095553398132,0.10145577788352966,0.026458740234375
18.30099844932556,1.11293,1.4682868,-3.6953843,0.008635368514125955,nan,nan,nan,nan,8.299447298049927,0.0005400180816650391,1.2609946,-0.8539549,0.043249384,-0.13241576080642542,0.053817255224611005,9.647925111909778,0.05875648,0.1027025,0.033474945,1.2415701,1.5679616,-3.0,0.0,1.3135724,-1.0401354,0.0,-0.11170994,0.08804401,9.909915,-5.196392e-10,0.073489815,0.0,0.09339137,0.7317495333341092,0.03564801812171936,0.09574121981859207,0.0230712890625
18.405367136001587,1.2240832,1.379161,-3.6907809,0.00989572183459178,nan,nan,nan,nan,8.404183864593506,0.0007817745208740234,1.1869193,-0.95650804,0.04342159,-0.12677216032635805,0.06398317746542959,9.650914614309938,0.059026003,0.09829449,0.03019762,1.3741976,1.453128,-3.0,0.0,1.2173697,-1.1512451,0.0,-0.10358926,0.097477525,9.909915,2.3766717e-09,0.081483066,0.0,0.08662761,0.7318644435472185,0.018281161785125732,0.09492839127779007,0.020721435546875
18.503079652786255,1.3270645,1.2815927,-3.6861715,0.010996644348934638,nan,nan,nan,nan,8.501775026321411,0.0010759830474853516,1.1039308,-1.0518636,0.04325297,-0.12112228942867889,0.07358803595621488,9.653726962169085,0.052646652,0.09300898,0.027604165,1.4882786,1.336049,-3.0,0.0,1.1192858,-1.2468175,0.0,-0.09529566,0.10559881,9.909915,2.1412065e-09,0.088393666,0.0,0.079713926,0.7319725280650284,0.018767811357975006,0.08978472650051117,0.018157958984375
18.601527452468872,1.4213833,1.1760246,-3.6817439,0.011908680945049474,nan,nan,nan,nan,8.600162267684937,0.0007920265197753906,1.0128866,-1.1411519,0.04302151,-0.1163272338920567,0.08267626455217081,9.656093142738019,0.04554295,0.088811755,0.025466146,1.5932252,1.2089803,-3.0,0.0,1.012833,-1.3347373,0.0,-0.086279556,0.11307598,9.909915,6.188358e-09,0.09478225,0.0,0.07219175,0.7320634532289255,0.02750624716281891,0.0841546431183815,0.015594482421875
18.707024097442627,1.499425,1.0721867,-3.6774094,0.012513540228276193,nan,nan,nan,nan,8.706077098846436,0.001283884048461914,0.92240924,-1.2183781,0.042730186,-0.11215068035585612,0.09065151073388922,9.65831512780619,0.051970363,0.08189102,0.02230398,1.6940911,1.0630406,-3.0,0.0,0.8905708,-1.4192384,0.0,-0.07590717,0.120268404,9.909915,-6.534748e-10,0.10095291,0.0,0.06353079,0.73214882725359,0.014176174998283386,0.09394155442714691,0.01416015625
18.80304265022278,1.580892,0.94111216,-3.6719916,0.013067920178016383,nan,nan,nan,nan,8.802173852920532,0.0014376640319824219,0.80756354,-1.3040776,0.042416938,-0.10669697962174973,0.09956998785604654,9.660576404274824,0.06191413,0.07376053,0.019951733,1.7740923,0.92336154,-3.0,0.0,0.77355355,-1.4862602,0.0,-0.06596437,0.12597746,9.909915,8.3967056e-09,0.10586976,0.0,0.055222116,0.732235700866648,0.06009339541196823,0.07072504609823227,0.01068115234375
18.90273118019104,1.6452456,0.81349367,-3.667086,0.013539263142170133,nan,nan,nan,nan,8.90168833732605,0.00103759765625,0.6951027,-1.3756033,0.0418902,-0.09881536418741138,0.1060874601478734,9.662764972483188,0.08975144,0.062606536,0.01743509,1.8448213,0.772421,-3.0,0.0,0.64710194,-1.545514,0.0,-0.0552053,0.13102828,9.909915,-2.3896554e-09,0.110234335,0.0,0.046225194,0.7323197714954651,0.0735979825258255,0.06685507297515869,0.0086669921875
19.00370192527771,1.7025031,0.66893244,-3.662286,0.013902193868726827,nan,nan,nan,nan,9.00256085395813,0.001074075698852539,0.56824,-1.442458,0.041088905,-0.08830549328050238,0.11223112553083325,9.665023960133459,0.107629575,0.050804753,0.016191788,1.903435,0.61395067,-3.0,0.0,0.5143421,-1.594618,0.0,-0.043895762,0.13521644,9.909915,-7.0375883e-10,0.11386435,0.0,0.036762223,0.7324065371989432,0.09242574870586395,0.05278395116329193,0.0067138671875
19.108503818511963,1.7434685,0.53031546,-3.658427,0.014137785513418114,nan,nan,nan,nan,9.108344316482544,0.0021550655364990234,0.4473194,-1.492794,0.04012562,-0.07719276120826711,0.1171647705741663,9.666632923239286,0.112794414,0.053554893,0.011012679,1.950303,0.44307843,-3.0,0.0,0.3711925,-1.633882,0.0,-0.031688627,0.13856709,9.909915,5.1992988e-09,0.11677576,0.0,0.026542962,0.7324683298558379,0.0841372087597847,0.05934935808181763,0.00494384765625
19.2036030292511,1.7753578,0.3762941,-3.6546595,0.01423363539518243,nan,nan,nan,nan,9.202470779418945,0.001085042953491211,0.31302196,-1.534159,0.03804307,-0.06534252171153193,0.12252233841009197,9.668174595020153,0.11412434,0.043931615,0.0084987,1.9791454,0.28806877,-3.0,0.0,0.24133193,-1.658045,0.0,-0.020606436,0.14062983,9.909915,-8.5328095e-10,0.11857144,0.0,0.017261986,0.732527533347222,0.1037246361374855,0.026768211275339127,0.001861572265625
19.304457187652588,1.7929866,0.23153858,-3.6514559,0.014341330657607565,nan,nan,nan,nan,9.303666353225708,0.001481771469116211,0.18657126,-1.5606389,0.036577947,-0.05386030995410593,0.12585548384198986,9.669306339432856,0.11699489,0.032655206,0.0075606336,1.9964298,0.119448386,-3.0,0.0,0.10006885,-1.6725252,0.0,-0.00854551,0.14186625,9.909915,-2.0733758e-10,0.11964902,0.0,0.0071589816,0.7325709917471352,0.1002398431301117,0.025850998237729073,-0.00030517578125
19.412967681884766,1.7987369,0.07351361,-3.6483846,0.014327406141596033,nan,nan,nan,nan,9.41186785697937,0.0011425018310546875,0.047943003,-1.5759128,0.034318816,-0.04130820264733175,0.12858198373654472,9.669990543543735,0.11473944,0.030556943,0.006896535,1.9990461,-0.06176511,-3.0,0.0,-0.05174422,-1.674717,0.0,0.004418843,0.14205344,9.909915,-1.04153394e-10,0.11981223,0.0,-0.0037019094,0.7325972635974544,0.09696982055902481,0.021826043725013733,-0.0025634765625
19.51486086845398,1.7919236,-0.07220841,-3.6463625,0.014074923946254706,nan,nan,nan,nan,9.515424013137817,0.0033206939697265625,-0.0811507,-1.5779592,0.0316264,-0.030236149289740808,0.13090484520461532,9.670358585498668,0.11385273,0.014521795,0.0031904047,1.9861764,-0.23474124,-3.0,0.0,-0.19665636,-1.6639353,0.0,0.016792554,0.14113279,9.909915,-1.9630264e-09,0.11900964,0.0,-0.014067437,0.732611395170123,0.09300865978002548,0.02104303613305092,-0.0048828125
19.604983806610107,1.7772214,-0.1926748,-3.6451547,0.013690412575719832,nan,nan,nan,nan,9.60411262512207,0.0009603500366210938,-0.1884337,-1.5710621,0.029863555,-0.021051493437308944,0.13196903018799322,9.670524829956609,0.11290649,0.008499367,0.0013609363,1.9632714,-0.3815304,-3.0,0.0,-0.31963018,-1.6447464,0.0,0.027289119,0.13949446,9.909915,3.9824002e-10,0.117582776,0.0,-0.022858843,0.7326177783097543,0.0887894406914711,0.027113690972328186,-0.006591796875
19.708307027816772,1.7394489,-0.37036023,-3.6440008,0.012810658898488843,nan,nan,nan,nan,9.707517862319946,0.0015180110931396484,-0.3485953,-1.5460867,0.026806524,-0.007581379372652337,0.1324035997391022,9.670490497545014,0.11041,-0.004249637,-0.0017364973,1.922899,-0.5499631,-3.0,0.0,-0.46073604,-1.6109241,0.0,0.039325822,0.13660777,9.909915,-1.0756813e-09,0.11507248,0.0,-0.032937035,0.7326164600833758,0.09847091883420944,-0.028176292777061462,-0.009063720703125
19.821304321289062,1.6913389,-0.52088535,-3.6434817,0.011723573951047304,nan,nan,nan,nan,9.822943687438965,0.0015475749969482422,-0.4852734,-1.5116931,0.024360789,0.0037842797841002923,0.13095386388752916,9.67019913082584,0.10786577,-0.029547688,-0.004989234,1.8608179,-0.7330462,-3.0,0.0,-0.61411536,-1.5589153,0.0,0.052396446,0.13217106,9.909915,-7.013948e-09,0.11122383,0.0,-0.043875463,0.7326052726802411,0.09555305540561676,-0.01862216740846634,-0.0101318359375
19.904212713241577,1.6400133,-0.64512366,-3.6430666,0.01062448130287825,nan,nan,nan,nan,9.903271198272705,0.0011708736419677734,-0.597163,-1.4737502,0.02202959,0.013390627155249043,0.12789388574111338,9.669663699656866,0.10776957,-0.024611127,-0.0071267304,1.8073137,-0.8565146,-3.0,0.0,-0.717552,-1.5140916,0.0,0.061201245,0.12834941,9.909915,-9.0087955e-09,0.10791769,0.0,-0.05123984,0.7325847136665175,0.09792318195104599,-0.04083334654569626,-0.009857177734375
20.005525588989258,1.5793617,-0.7657373,-3.6425104,0.009385077019724734,nan,nan,nan,nan,10.004423379898071,0.0010128021240234375,-0.7046926,-1.4278467,0.019432308,0.022922390593509173,0.12379378923460282,9.668432315062873,0.107868314,-0.055977393,-0.009088012,1.7283328,-1.0064125,-3.0,0.0,-0.8431302,-1.4479247,0.0,0.07187791,0.12271148,9.909915,-8.954361e-09,0.10305486,0.0,-0.060164463,0.7325374298871776,0.09882817417383194,-0.01417447254061699,-0.009735107421875
20.104004621505737,1.4897612,-0.9136038,-3.6416342,0.007615738455045094,nan,nan,nan,nan,10.102914810180664,0.0012099742889404297,-0.8334044,-1.3590275,0.01708468,0.03493496454695969,0.11808987291759943,9.667072680412,0.10567065,-0.051183373,-0.009708839,1.6395059,-1.1454347,-3.0,0.0,-0.9595972,-1.3735093,0.0,0.08176533,0.11637536,9.909915,-4.286122e-09,0.09760971,0.0,-0.068423264,0.7324852179523899,0.09854049980640411,-0.04483317583799362,-0.008453369140625
20.20661997795105,1.4103379,-1.0247651,-3.6407979,0.006232904889687484,nan,nan,nan,nan,10.205642461776733,0.0012326240539550781,-0.92829555,-1.2967608,0.014916955,0.04422777003240888,0.11353017427918766,9.665628893502197,0.10635446,-0.057489216,-0.01023863,1.5349818,-1.2821196,-3.0,0.0,-1.0741061,-1.2859434,0.0,0.09147094,0.108925544,9.909915,-8.9873975e-09,0.09123285,0.0,-0.076523714,0.732429770429518,0.10414178669452667,-0.016541413962841034,-0.009185791015625
20.30348253250122,1.3065419,-1.1497623,-3.6401927,0.0046810788494882,nan,nan,nan,nan,10.30286455154419,0.002284526824951172,-1.033809,-1.2145243,0.012718138,0.055044139328760865,0.10830506260786721,9.664141924247287,0.1050801,-0.053104427,-0.010061683,1.4255831,-1.4027518,-3.0,0.0,-1.1751666,-1.1942937,0.0,0.10002242,0.101134755,9.909915,5.0494067e-09,0.08459159,0.0,-0.08365493,0.7323726601929809,0.1018340215086937,-0.04003005474805832,-0.009857177734375
20.404021978378296,1.23765,-1.2225648,-3.6400313,0.003692929006096659,nan,nan,nan,nan,10.402757167816162,0.0007877349853515625,-1.0949084,-1.159065,0.011361341,0.0617060164095765,0.10476853255341112,9.662876360021672,0.10719023,-0.04242281,-0.010037461,1.3033392,-1.5170059,-3.0,0.0,-1.2708839,-1.091883,0.0,0.10810827,0.092436485,9.909915,-4.349633e-09,0.077207334,0.0,-0.090392254,0.7323240500293043,0.12672209739685059,0.026535846292972565,-0.0123291015625
20.502535104751587,1.1085894,-1.3406669,-3.6398122,0.002096630666101003,nan,nan,nan,nan,10.50131607055664,0.0009818077087402344,-1.1970316,-1.051791,0.009394962,0.07436810467224211,0.10212347007010747,9.661521760715313,0.11086644,-0.039890207,-0.010518472,1.1737849,-1.6193298,-3.0,0.0,-1.3566066,-0.9833477,0.0,0.11533782,0.08322567,9.909915,-2.8351614e-09,0.069420084,0.0,-0.0964111,0.732272016512093,0.10306571424007416,-0.04257809370756149,-0.016876220703125
20.60076403617859,0.9792296,-1.4385294,-3.6396253,2.832256070332828e-05,nan,nan,nan,nan,10.599186420440674,0.0004942417144775391,-1.2855879,-0.94048274,0.008791761,0.08500043838084356,0.09597287734833615,9.660414430281287,0.09427955,-0.07783776,-0.013204527,1.0372195,-1.7100221,-3.0,0.0,-1.4325848,-0.86893904,0.0,0.12173546,0.07352404,9.909915,-9.624374e-10,0.06124992,0.0,-0.10173316,0.7322294784954604,0.08151359111070633,-0.08056922256946564,-0.018096923828125
20.70073437690735,0.8521866,-1.5182496,-3.6389847,-0.002354560409771611,nan,nan,nan,nan,10.699151515960693,0.0005028247833251953,-1.3593018,-0.83018905,0.008843088,0.0932839495526628,0.08784547371146578,9.659613343836881,0.08305716,-0.09248861,-0.014262352,0.89054096,-1.7907922,-3.0,0.0,-1.5002506,-0.74605787,0.0,0.12742479,0.06311165,9.909915,7.0852684e-09,0.052513372,0.0,-0.10646248,0.7321987032991577,0.07479120790958405,-0.08786201477050781,-0.017303466796875
20.801515579223633,0.70680636,-1.5917789,-3.6376286,-0.005378872706032316,nan,nan,nan,nan,10.800020694732666,0.00075531005859375,-1.4290085,-0.7031314,0.009216421,0.10103553258040704,0.07796246046729371,9.659184114033033,0.06966543,-0.103045695,-0.015488186,0.73621565,-1.8595662,-3.0,0.0,-1.5578666,-0.6167706,0.0,0.13226259,0.052163813,9.909915,-3.015003e-09,0.04335831,0.0,-0.11048128,0.7321822131286112,0.05727432668209076,-0.10683442652225494,-0.015167236328125
20.901814222335815,0.5661989,-1.6478717,-3.6362772,-0.008471989592146949,nan,nan,nan,nan,10.900339365005493,0.0006287097930908203,-1.4830054,-0.58049744,0.009198574,0.10699719970811752,0.06789760529975997,9.659016267145544,0.05517061,-0.11558752,-0.01817131,0.5775184,-1.9148035,-3.0,0.0,-1.6041421,-0.4838207,0.0,0.13614368,0.04091234,9.909915,-2.9530316e-09,0.033976447,0.0,-0.11370346,0.7321757646794393,0.05195130035281181,-0.11013290286064148,-0.012847900390625
21.003834009170532,0.44536364,-1.6858073,-3.6351645,-0.011152526719735885,nan,nan,nan,nan,11.003051042556763,0.0013265609741210938,-1.5200117,-0.47556874,0.009769181,0.11114853343936446,0.05879031561809489,9.659120637216127,0.04839335,-0.120001905,-0.017498506,0.41081968,-1.957352,-3.0,0.0,-1.6397874,-0.3441675,0.0,0.13913043,0.02909912,9.909915,-3.773145e-10,0.02414927,0.0,-0.11618198,0.7321797744422119,0.08071359992027283,-0.08438266068696976,-0.011566162109375
21.1015625,0.27198386,-1.7247155,-3.634164,-0.014897806425561703,nan,nan,nan,nan,11.100295543670654,0.0008597373962402344,-1.5583345,-0.32563,0.009895857,0.11619913243455274,0.04569158167492482,9.659374314486502,0.04171571,-0.12482271,-0.015908074,0.25017262,-1.9842917,-3.0,0.0,-1.6623564,-0.20958413,0.0,0.14102022,0.017718617,9.909915,-3.459387e-10,0.014698097,0.0,-0.11774964,0.7321895203036747,0.044376440346241,-0.1114782765507698,-0.006805419921875
21.201509714126587,0.108180024,-1.7454891,-3.6335025,-0.018362814489864862,nan,nan,nan,nan,11.200198888778687,0.0009396076202392578,-1.5793166,-0.18352285,0.010214998,0.11951343675730573,0.03275872995648221,9.659651414058624,0.025349861,-0.12630096,-0.014067158,0.08341653,-1.9982597,-3.0,0.0,-1.6740582,-0.06988287,0.0,0.14199966,0.005907748,9.909915,-4.012764e-10,0.0048995055,0.0,-0.118561976,0.7322001658650167,0.025834564119577408,-0.11602901667356491,-0.00225830078125
21.31114101409912,-0.03087807,-1.7512959,-3.6331706,-0.021189754125803324,nan,nan,nan,nan,11.310132026672363,0.0013926029205322266,-1.5859292,-0.06195702,0.010398351,0.121380938002427,0.02189182963645453,9.659939194813361,0.015112417,-0.12849015,-0.0125614125,-0.10071122,-1.9974627,-3.0,0.0,-1.6733905,0.084371634,0.0,0.14194378,-0.007132616,9.909915,-4.915479e-10,-0.005915411,0.0,-0.11851564,0.7322112216124728,0.057957880198955536,-0.09404054284095764,-0.000640869140625
21.40633225440979,-0.20669599,-1.743397,-3.6327536,-0.024402540732426294,nan,nan,nan,nan,11.405359029769897,0.00124359130859375,-1.5792394,0.09241539,0.010347228,0.1233920353866236,0.0087753115265774,9.660204011132468,0.013919138,-0.11724852,-0.008989811,-0.25957495,-1.9830837,-3.0,0.0,-1.6613444,0.217461,0.0,0.1409355,-0.018384615,9.909915,-6.1839045e-10,-0.015250868,0.0,-0.11767937,0.7322213949837908,0.008629136718809605,-0.10699822008609772,0.003814697265625
21.51168704032898,-0.34322435,-1.7256452,-3.6325612,-0.026654286149043624,nan,nan,nan,nan,11.510961294174194,0.0010752677917480469,-1.563403,0.21272165,0.010272637,0.12406541068218498,-0.0011560407326589583,9.660416337240479,0.0054062638,-0.11175389,-0.006926479,-0.43377158,-1.952394,-3.0,0.0,-1.6356338,0.36339563,0.0,0.13878253,-0.030725341,9.909915,-5.9812294e-12,-0.025500938,0.0,-0.11589332,0.7322295517532522,0.032146766781806946,-0.09601111710071564,0.004486083984375
21.613598108291626,-0.51375586,-1.6885684,-3.6328042,-0.029058574760717167,nan,nan,nan,nan,11.613209962844849,0.0020754337310791016,-1.5306329,0.3634175,0.010101931,0.12478162036809343,-0.013122128506194208,9.660559235899001,0.005936965,-0.106577285,-0.0037370839,-0.5992187,-1.908124,-3.0,0.0,-1.5985463,0.50200033,0.0,0.1356746,-0.042450532,9.909915,5.9841837e-10,-0.035257638,0.0,-0.11331409,0.7322350413310992,-0.00872260332107544,-0.10348743200302124,0.006805419921875
21.703803777694702,-0.64406556,-1.6478889,-3.6334743,-0.030698581372216725,nan,nan,nan,nan,11.702576398849487,0.0007958412170410156,-1.4953803,0.4808722,0.009590445,0.12485987052540273,-0.022547845919897336,9.660593034202956,-0.0074786847,-0.10924227,-0.0004942317,-0.7402627,-1.8579589,-3.0,0.0,-1.5565201,0.62016106,0.0,0.13214959,-0.05245082,9.909915,-4.28009e-09,-0.04359796,0.0,-0.11038744,0.7322363397167816,-0.026309750974178314,-0.10294114798307419,0.008270263671875
21.811760902404785,-0.78169495,-1.5922589,-3.6341615,-0.032295602999139195,nan,nan,nan,nan,11.81054401397705,0.0007679462432861328,-1.4475276,0.6060266,0.009530822,0.12192178678624044,-0.03309814883014672,9.660500489729365,-0.052968856,-0.10984848,0.0024515102,-0.9050622,-1.7834972,-3.0,0.0,-1.4941392,0.7582232,0.0,0.12691127,-0.06414216,9.909915,-3.525676e-09,-0.05337667,0.0,-0.106035754,0.7322327845501577,-0.011338707059621811,-0.0990319699048996,0.00933837890625
21.900802850723267,-0.92546374,-1.5193385,-3.6344445,-0.03357163182820974,nan,nan,nan,nan,11.899230718612671,0.0005931854248046875,-1.3858043,0.73449785,0.0091458205,0.11610657500968544,-0.04417994432482897,9.66032547163768,-0.06458211,-0.10326447,0.0052332575,-1.0349535,-1.7113945,-3.0,0.0,-1.4337345,0.86704063,0.0,0.12183221,-0.07336312,9.909915,-1.204315e-09,-0.061114654,0.0,-0.1018136,0.7322260610499598,-0.04356704652309418,-0.09571008384227753,0.012054443359375
22.001519203186035,-1.0521954,-1.4414577,-3.6341276,-0.03439329927498514,nan,nan,nan,nan,12.000263452529907,0.0006101131439208984,-1.3197547,0.84443843,0.008880756,0.10982453331232392,-0.05401342226230832,9.66011711297315,-0.060657807,-0.10049657,0.0065181386,-1.175929,-1.6177735,-3.0,0.0,-1.3553028,0.98514396,0.0,0.115227945,-0.08337805,9.909915,6.0464838e-09,-0.06954866,0.0,-0.09631966,0.7322180566579127,-0.026000075042247772,-0.09485481679439545,0.01300048828125
22.10222887992859,-1.1821783,-1.346763,-3.632944,-0.03488688979849451,nan,nan,nan,nan,12.100890159606934,0.0006022453308105469,-1.239101,0.954699,0.008691655,0.10344581798979181,-0.06424187548019766,9.65997009473146,-0.061269984,-0.095569536,0.009256333,-1.3079714,-1.5130138,-3.0,0.0,-1.2675395,1.0957636,0.0,0.10782598,-0.09276595,9.909915,3.3314709e-09,-0.07748648,0.0,-0.090157144,0.7322124086928029,-0.02845998853445053,-0.09191190451383591,0.01422119140625
22.200807094573975,-1.2948284,-1.2495712,-3.6309066,-0.034990843375244884,nan,nan,nan,nan,12.199231624603271,0.0004792213439941406,-1.1570444,1.0492557,0.008539667,0.09786527736713788,-0.0734647720426238,9.659919664919423,-0.053790677,-0.09386986,0.012344846,-1.4280466,-1.4002439,-3.0,0.0,-1.1730655,1.1963575,0.0,0.09984477,-0.10131012,9.909915,8.299822e-09,-0.08474079,0.0,-0.08350685,0.7322104713327104,-0.023965030908584595,-0.09168556332588196,0.015106201171875
22.30088233947754,-1.4082131,-1.1339048,-3.6279945,-0.034799003892632,nan,nan,nan,nan,12.29931092262268,0.0007274150848388672,-1.0599965,1.1450653,0.008914394,0.09214525511312971,-0.08305821751059317,9.660142443302599,-0.053011354,-0.09051568,0.012700332,-1.5402912,-1.2757363,-3.0,0.0,-1.0687584,1.2903913,0.0,0.09101805,-0.10930379,9.909915,1.9265323e-09,-0.091556005,0.0,-0.07614588,0.7322190297628632,-0.04040854424238205,-0.08647608011960983,0.016143798828125
22.404397010803223,-1.5044839,-1.0184699,-3.6250997,-0.034372963929609104,nan,nan,nan,nan,12.403387784957886,0.001111745834350586,-0.9638212,1.2274644,0.009386171,0.08699282687912399,-0.0918639628819593,9.66061188031598,-0.055300657,-0.08903932,0.01415398,-1.6455325,-1.1367598,-3.0,0.0,-0.95232964,1.3785582,0.0,0.0811488,-0.116805084,9.909915,6.3093823e-09,-0.09797838,0.0,-0.06790848,0.7322370637025182,-0.0399186909198761,-0.09082718193531036,0.01690673828125
22.50110960006714,-1.5921122,-0.8956327,-3.6221359,-0.03368070520447874,nan,nan,nan,nan,12.49957537651062,0.0005085468292236328,-0.8613474,1.3036429,0.009640972,0.08095886530566729,-0.100347680376764,9.661274264577358,-0.06771933,-0.085983045,0.014989896,-1.7316958,-1.0006148,-3.0,0.0,-0.8382731,1.4507421,0.0,0.07146524,-0.122951455,9.909915,-8.666694e-09,-0.10326151,0.0,-0.059819635,0.7322625091778203,-0.05624917894601822,-0.08682769536972046,0.01824951171875
22.60211682319641,-1.6700122,-0.7663327,-3.6191359,-0.032779556623262276,nan,nan,nan,nan,12.600878953933716,0.0009083747863769531,-0.7526116,1.3719957,0.010498091,0.07373003732121304,-0.10867878444224632,9.662120822236457,-0.078784816,-0.08455475,0.016693756,-1.8102809,-0.85022515,-3.0,0.0,-0.71228296,1.5165775,0.0,0.06075295,-0.1285613,9.909915,-1.2288437e-09,-0.108100794,0.0,-0.050864972,0.7322950283999541,-0.06102742999792099,-0.08600596338510513,0.01971435546875
22.701133728027344,-1.7420858,-0.6195641,-3.6164978,-0.03160996098225078,nan,nan,nan,nan,12.699671506881714,0.0005970001220703125,-0.62760913,1.4366642,0.011296145,0.06486372597610573,-0.11729578595011136,9.663117145184945,-0.0911718,-0.07627181,0.017712846,-1.8743732,-0.69765675,-3.0,0.0,-0.5844676,1.5702713,0.0,0.04987119,-0.13313958,9.909915,3.3318606e-09,-0.11206301,0.0,-0.04176268,0.732333298802519,-0.08377321809530258,-0.06454405188560486,0.02197265625
