time,x,y,z,yaw,platform,trajectory,controller,feedforward,traj_time,comp_time,vx,vy,vz,roll,pitch,f,p,q,r,x_ref,y_ref,z_ref,yaw_ref,vx_ref,vy_ref,vz_ref,roll_ref,pitch_ref,f_ref,u_ff_df,u_ff_dphi,u_ff_dpsi,u_ff_dth,throttle,p_cmd,q_cmd,r_cmd
10.000998973846436,0.008948056,0.014407365,-2.6436672,-6.574195023235484e-05,SIM,figure_eight,contraction,1.0,2.384185791015625e-06,0.0005724430084228516,-0.024684902,-0.009644458,-0.18384928,-0.006990102887503818,-0.002438344166842521,9.809153147339822,-0.009903526,-0.00236637,0.00052408286,2.9960563e-06,2.9960563e-06,-3.0,0.0,1.2566371,1.2566371,0.0,-4.822816e-07,1.205704e-07,9.81,1.0168557e-06,-0.20228358,0.0,0.050570894,0.7379216027087048,1.654207468032837,-1.7924467325210571,-0.00787353515625
10.101994752883911,0.0074444595,0.014922012,-2.660546,0.0002044826334403338,nan,nan,nan,nan,0.10131406784057617,0.0007581710815429688,-0.02202889,-0.007617477,-0.18817793,-0.0022991418225495326,-0.011106179316098475,9.804852698966863,0.20836897,-0.31161907,0.008536608,0.12722905,0.12697135,-3.0,0.0,1.2540919,1.2464664,0.0,-0.020436006,0.0051189694,9.812178,0.04275607,-0.20056261,0.0,0.050435625,0.7377576359118174,1.634398341178894,-1.8324226140975952,0.001495361328125
10.200880527496338,0.008977303,0.015241179,-2.6812668,0.0009292285950582013,nan,nan,nan,nan,0.19992494583129883,0.0004937648773193359,0.019770827,0.020003028,-0.25476307,0.051683299759880626,-0.08203526749196155,9.792734400779011,0.89163715,-1.2099282,0.035180997,0.2505729,0.24859855,-3.0,0.0,1.2467356,1.2171869,0.0,-0.0399961,0.010075408,9.818351,0.08181125,-0.19561994,0.0,0.050048344,0.7372953978794057,1.3204628229141235,-1.4272618293762207,0.065765380859375
10.300904512405396,0.019828709,0.021108778,-2.7061665,-0.010404818940539434,nan,nan,nan,nan,0.3000144958496094,0.0005555152893066406,0.16332893,0.12847614,-0.275827,0.17190957587076386,-0.2191621241620234,9.772590073347093,1.2441449,-1.225709,0.042953596,0.37478054,0.3681415,-3.0,0.0,1.2343764,1.1683831,0.0,-0.059191305,0.015054755,9.828324,0.11647011,-0.18741898,0.0,0.049409643,0.7365263832101663,0.5370377898216248,-0.4591505527496338,0.201446533203125
10.401086330413818,0.056367524,0.04689882,-2.7326355,-0.020962159682576365,nan,nan,nan,nan,0.40009140968322754,0.0006098747253417969,0.432565,0.36366752,-0.23849069,0.26656651598303016,-0.2920890185738423,9.759240695983175,0.4781167,-0.231092,0.070454754,0.49749106,0.48185435,-3.0,0.0,1.2171396,1.1011299,0.0,-0.07741014,0.019957945,9.841426,0.14403158,-0.17619124,0.0,0.04854258,0.7360163307096603,-0.3718089163303375,0.3384290635585785,0.280242919921875
10.501855611801147,0.11451857,0.09419021,-2.750869,-0.009319751972805573,nan,nan,nan,nan,0.5014119148254395,0.00087738037109375,0.68255323,0.60594153,-0.18991561,0.2676234626030233,-0.2825871738209067,9.761924160718923,-0.33437076,0.43193495,0.11537683,0.6197212,0.58921975,-3.0,0.0,1.194788,1.0153286,0.0,-0.09456507,0.024822934,9.857064,0.16305506,-0.16198242,0.0,0.04745636,0.7361188884281631,-0.8750103712081909,0.6408706903457642,0.264862060546875
10.601052284240723,0.20536943,0.1751077,-2.765929,0.018526622466830386,nan,nan,nan,nan,0.6001627445220947,0.0005342960357666016,0.92196,0.8443485,-0.15296052,0.1964702339329767,-0.22880927228265713,9.777994913011796,-0.91717607,0.72545546,0.16304132,0.7364392,0.6846962,-3.0,0.0,1.1683443,0.91587305,0.0,-0.10977394,0.029449647,9.873687,0.17195897,-0.14566061,0.0,0.046221677,0.7367327920357817,-1.057800531387329,0.7044247984886169,0.195159912109375
10.702687740325928,0.31712228,0.27992788,-2.7783918,0.04728796792225054,nan,nan,nan,nan,0.7020485401153564,0.0007126331329345703,1.1005547,1.0031761,-0.14586124,0.08957671874026579,-0.15937159152153746,9.799175017625098,-1.1427754,0.75701094,0.19232778,0.8538872,0.77215165,-3.0,0.0,1.1363497,0.7985154,0.0,-0.12366069,0.034087405,9.891234,0.17073342,-0.12658313,0.0,0.04479234,0.7375411031142797,-0.9876213073730469,0.6135942339897156,0.11090087890625
10.80110216140747,0.4519986,0.40702766,-2.7925704,0.07117069702064102,nan,nan,nan,nan,0.8001689910888672,0.0006742477416992188,1.220251,1.0565931,-0.16068165,-0.029912076553029132,-0.08703588810677654,9.817923158854251,-1.0720817,0.63842577,0.18978283,0.96369344,0.8444417,-3.0,0.0,1.1011351,0.6731145,0.0,-0.13510352,0.03840965,9.907524,0.15975782,-0.10638692,0.0,0.04328956,0.7382558729316163,-0.7321498394012451,0.45385780930519104,0.029449462890625
10.902585506439209,0.59200346,0.53200674,-2.8085866,0.08678871371623664,nan,nan,nan,nan,0.9026250839233398,0.0017538070678710938,1.2749007,0.9901279,-0.17918274,-0.1290646792463878,-0.028846236509102896,9.830858805924658,-0.81455445,0.4546846,0.15769228,1.0744375,0.9062267,-3.0,0.0,1.0599017,0.5312962,0.0,-0.14485551,0.0427597,9.9229,0.13888355,-0.08374184,0.0,0.041608106,0.7387486445505878,-0.42588967084884644,0.2972233295440674,-0.03179931640625
11.000732660293579,0.7196912,0.6327788,-2.8249927,0.09551413295752276,nan,nan,nan,nan,0.9997432231903076,0.0005137920379638672,1.2833719,0.8446933,-0.1892496,-0.19175744196245087,0.009163311382674122,9.838397864773874,-0.49949852,0.30925143,0.11188467,1.1753094,0.95095676,-3.0,0.0,1.01676,0.38870782,0.0,-0.15189841,0.046719387,9.935113,0.11152561,-0.061138492,0.0,0.039921544,0.7390356885613132,-0.17162738740444183,0.19296720623970032,-0.069427490234375
11.100622415542603,0.8525917,0.7161956,-2.843652,0.09980477914350458,nan,nan,nan,nan,1.099644660949707,0.0005044937133789062,1.2625535,0.6287943,-0.19124438,-0.22636121190278533,0.035765107055195644,9.841836600676185,-0.19848733,0.19523734,0.058449324,1.274504,0.9822035,-3.0,0.0,0.96843433,0.2360214,0.0,-0.15680936,0.050617337,9.944595,0.07747455,-0.03706629,0.0,0.03809989,0.7391665793282878,0.04104345291852951,0.12858450412750244,-0.092620849609375
11.201026439666748,0.9687003,0.7653046,-2.8612576,0.09916186088805522,nan,nan,nan,nan,1.2000422477722168,0.0005745887756347656,1.2239695,0.4040226,-0.18903486,-0.23394399798625037,0.0514969074908751,9.841830886006361,0.02751407,0.13501742,0.008947555,1.369133,0.99803007,-3.0,0.0,0.9160262,0.0788382,0.0,-0.15929389,0.05434693,9.950483,0.039362535,-0.012371447,0.0,0.036181763,0.7391663618261873,0.15156897902488708,0.09602673351764679,-0.1024169921875
11.30064868927002,1.0865164,0.78717864,-2.8801959,0.09390212742979803,nan,nan,nan,nan,1.2996892929077148,0.0005164146423339844,1.1658928,0.15811251,-0.18659674,-0.22286092834253862,0.06284704650719619,9.838266396373516,0.17595547,0.09602143,-0.03332932,1.45767,0.99805117,-3.0,0.0,0.86040604,-0.07841534,0.0,-0.15929718,0.05785372,9.952449,3.112769e-05,0.012305078,0.0,0.034186773,0.7390306839429743,0.21860390901565552,0.07256262749433517,-0.10382080078125
11.400707483291626,1.1882961,0.78077894,-2.8974555,0.08563048692625977,nan,nan,nan,nan,1.399749517440796,0.0005598068237304688,1.100735,-0.055001248,-0.18673402,-0.20293123123253334,0.07002358416023502,9.830716028846808,0.23651554,0.075417064,-0.062971994,1.5408258,0.9823462,-3.0,0.0,0.80116296,-0.23508184,0.0,-0.15683176,0.061170086,9.950504,-0.038538065,0.036918476,0.0,0.03208274,0.7387432073586914,0.21872694790363312,0.05729025974869728,-0.098968505859375
11.504454135894775,1.2826066,0.7517799,-2.9150164,0.07523972066533052,nan,nan,nan,nan,1.503908395767212,0.0010962486267089844,1.0255513,-0.24735753,-0.19000159,-0.1803127051831439,0.07506375562200995,9.818619989864533,0.2545015,0.05646973,-0.082482874,1.620916,0.9495273,-3.0,0.0,0.73613393,-0.3941874,0.0,-0.15167357,0.06439256,9.944541,-0.07515618,0.062004615,0.0,0.029771494,0.7382824263399081,0.19234518706798553,0.04336707293987274,-0.090362548828125
11.60530138015747,1.3624405,0.70800877,-2.9315217,0.06476828478853819,nan,nan,nan,nan,1.6047992706298828,0.00113677978515625,0.95038843,-0.40344608,-0.1951055,-0.15923108781722847,0.07812312047256209,9.802059531323616,0.24566765,0.03944488,-0.09269432,1.6918796,0.9022428,-3.0,0.0,0.67013735,-0.54189765,0.0,-0.14422752,0.06727775,9.935401,-0.10492864,0.08542845,0.0,0.027399959,0.737651119206883,0.15040037035942078,0.03547185659408569,-0.080047607421875
11.70137333869934,1.454678,0.63367355,-2.9532576,0.05116476900907192,nan,nan,nan,nan,1.7003815174102783,0.0008647441864013672,0.8492406,-0.5726042,-0.20405655,-0.13468277905797493,0.08034331671397643,9.781266974471514,0.21623458,0.023188572,-0.09756575,1.7528442,0.844071,-3.0,0.0,0.6051256,-0.67384833,0.0,-0.13504493,0.06978402,9.9242935,-0.1262586,0.10650461,0.0,0.025019621,0.7368577231304104,0.158460795879364,0.013728117570281029,-0.06610107421875
11.801016807556152,1.5205449,0.5632606,-2.970803,0.04112970700432531,nan,nan,nan,nan,1.800088882446289,0.0005595684051513672,0.76816094,-0.6841186,-0.21133521,-0.11727308696411182,0.08072149343013413,9.7571834981069,0.19927306,0.011213755,-0.0952542,1.8097017,0.770442,-3.0,0.0,0.5349865,-0.80111885,0.0,-0.12338966,0.07214873,9.91094,-0.14007159,0.1270044,0.0,0.022387248,0.7359376983577987,0.12277771532535553,0.016207437962293625,-0.05419921875
11.900897741317749,1.5861971,0.47714654,-2.990419,0.03120859146327709,nan,nan,nan,nan,1.899996042251587,0.0005657672882080078,0.6806485,-0.7862193,-0.21922487,-0.10090212201268672,0.08088264252662225,9.731057280264794,0.1665196,0.011303433,-0.08649001,1.8595512,0.68455076,-3.0,0.0,0.46260187,-0.9160447,0.0,-0.10975081,0.07424701,9.8966465,-0.14445895,0.14568865,0.0,0.019590259,0.734938352895201,0.10946428775787354,0.019132494926452637,-0.04241943359375
12.002052545547485,1.6495854,0.37590492,-3.0120308,0.021862736509860092,nan,nan,nan,nan,2.0014100074768066,0.0008831024169921875,0.58686274,-0.87622195,-0.22669116,-0.08510527018279478,0.0811320908679074,9.703994054757057,0.15480995,0.011095949,-0.079202145,1.9026599,0.58635074,-3.0,0.0,0.3872632,-1.017948,0.0,-0.09410734,0.07608286,9.882189,-0.13899468,0.16241437,0.0,0.016587876,0.7339017506679795,0.11224347352981567,0.01950230449438095,-0.0311279296875
12.101290941238403,1.7011375,0.27711415,-3.0320454,0.014634349390785072,nan,nan,nan,nan,2.100297689437866,0.000560760498046875,0.5016533,-0.9414422,-0.23236346,-0.07113395873904593,0.08178004341413181,9.677482283078135,0.14998923,0.016078899,-0.06691549,1.9372593,0.48142573,-3.0,0.0,0.3122852,-1.101426,0.0,-0.07734155,0.077572174,9.869093,-0.12442823,0.17624049,0.0,0.013509722,0.7328848682301511,0.10949854552745819,0.0240077693015337,-0.022613525390625
12.201358556747437,1.7494034,0.165664,-3.0537722,0.008349471959301774,nan,nan,nan,nan,2.2004525661468506,0.0006606578826904297,0.4100917,-0.9946561,-0.23681776,-0.05651243712787951,0.08300969482324749,9.652825845442715,0.14836146,0.014510964,-0.054692525,1.964681,0.36759564,-3.0,0.0,0.23511924,-1.1686546,0.0,-0.05910374,0.078763396,9.857721,-0.10136908,0.18746445,0.0,0.01025701,0.7319378979443808,0.11789962649345398,0.02077031508088112,-0.015899658203125
12.300946712493896,1.7859046,0.060193393,-3.0743196,0.0036893230683219605,nan,nan,nan,nan,2.299995183944702,0.0006203651428222656,0.3254936,-1.0283815,-0.23958422,-0.042711478009491856,0.08406001454833367,9.631100483946504,0.1473105,0.014104841,-0.04536621,1.9842286,0.24869567,-3.0,0.0,0.15750211,-1.2171557,0.0,-0.04001171,0.0796188,9.849059,-0.07169522,0.19561467,0.0,0.0069140955,0.7311024975601679,0.12012943625450134,0.02343936450779438,-0.010894775390625
12.411383390426636,1.8159359,-0.055253614,-3.0968294,-0.0004181579170756053,nan,nan,nan,nan,2.4108517169952393,0.0008044242858886719,0.23316512,-1.0479738,-0.24107309,-0.027554833629060856,0.08533911835675023,9.611579587571324,0.14907645,0.015728803,-0.0364014,1.9968634,0.11179267,-3.0,0.0,0.07035174,-1.24876,0.0,-0.017993564,0.0801746,9.843208,-0.03314238,0.2009505,0.0,0.0031012394,0.7303510609428905,0.1237562894821167,0.02554691769182682,-0.00689697265625
12.50123906135559,1.8353055,-0.16117579,-3.11786,-0.003467949695701746,nan,nan,nan,nan,2.5003490447998047,0.0011508464813232422,0.14807218,-1.0506604,-0.24119496,-0.013383823341957412,0.08634686841572248,9.59951061207801,0.15280184,0.007054022,-0.02899445,2.0,-0.00043877758,-3.0,0.0,-0.00027569212,-1.256637,0.0,7.0630966e-05,0.08031296,9.841723,0.00013097664,0.20228355,0.0,-1.2165821e-05,0.7298860964990588,0.13212363421916962,0.012545817531645298,-0.00433349609375
12.602825164794922,1.8478147,-0.27328277,-3.1413147,-0.006038832119296848,nan,nan,nan,nan,2.6019539833068848,0.0007891654968261719,0.05691257,-1.036644,-0.24018012,0.002448886006648424,0.08687109449810948,9.590430619828403,0.1553729,0.0077731563,-0.02116203,1.9958978,-0.1277691,-3.0,0.0,-0.0804447,-1.2463377,0.0,0.020564366,0.080132045,9.843662,0.03779865,0.20054083,0.0,-0.0035450137,0.7295360917076855,0.13494329154491425,0.005762847606092691,-0.0018310546875
12.701241731643677,1.8515333,-0.37287867,-3.163117,-0.00785762923384415,nan,nan,nan,nan,2.7002315521240234,0.0008199214935302734,-0.02635284,-1.00815,-0.2386054,0.017217850627248003,0.08735407886496249,9.585694598481059,0.15503702,0.003843817,-0.015354553,1.9841928,-0.24897179,-3.0,0.0,-0.15767983,-1.2170665,0.0,0.040056087,0.07961725,9.849075,0.07176909,0.19559965,0.0,-0.0069218157,0.7293534674144709,0.13488492369651794,0.003423643298447132,-0.000457763671875
12.80116081237793,1.8473849,-0.46704367,-3.1847765,-0.009328259614745048,nan,nan,nan,nan,2.800280809402466,0.0006067752838134766,-0.10912215,-0.9645322,-0.23634863,0.03195447473623471,0.08747785404488373,9.584939470514657,0.1516542,-0.0009726125,-0.010543667,1.9645083,-0.3684526,-3.0,0.0,-0.23568809,-1.1682284,0.0,0.059241205,0.078755856,9.857796,0.10156492,0.18739304,0.0,-0.0102812685,0.7293243449825824,0.13272079825401306,0.0029175840318202972,0.000518798828125
12.901897430419922,1.8352071,-0.5549332,-3.2065082,-0.010680899411569938,nan,nan,nan,nan,2.9011728763580322,0.0004665851593017578,-0.1905339,-0.9067428,-0.2333668,0.046284398167105084,0.08719412653462344,9.58753246173263,0.14584057,-0.007844081,-0.008569241,1.9367993,-0.48304477,-3.0,0.0,-0.31340986,-1.1003059,0.0,0.07760061,0.07755226,9.869276,0.12470766,0.17605418,0.0,-0.013556525,0.7294243420614718,0.1310407519340515,0.004540398716926575,0.00140380859375
13.001246452331543,1.813147,-0.64275116,-3.2304251,-0.011932056321921385,nan,nan,nan,nan,3.0004096031188965,0.001238107681274414,-0.27707717,-0.82935286,-0.22992885,0.061102288137967586,0.08648602005705941,9.592570127397778,0.13833775,-0.008628482,-0.005226877,1.9019538,-0.5882017,-3.0,0.0,-0.38862985,-1.0162604,0.0,0.09440265,0.07605261,9.882442,0.1391794,0.16213606,0.0,-0.016643163,0.7296185778281651,0.12005232274532318,-0.006724949926137924,0.002349853515625
13.1010000705719,1.784362,-0.7162461,-3.252476,-0.012851372774586492,nan,nan,nan,nan,3.100102186203003,0.0007071495056152344,-0.3552417,-0.74606764,-0.22627139,0.07399890469041022,0.08528831503355727,9.599102026373151,0.12793103,-0.015004665,-0.0016663317,1.8595057,-0.6846407,-3.0,0.0,-0.46267402,-0.91593856,0.0,0.10976512,0.07424508,9.896661,0.14445941,0.1456713,0.0,-0.019593088,0.7298703503786927,0.1185564249753952,-0.0055397432297468185,0.002960205078125
13.203357934951782,1.7440872,-0.786568,-3.276059,-0.013694714337307491,nan,nan,nan,nan,3.202677011489868,0.0010154247283935547,-0.43748945,-0.64400834,-0.22195747,0.08689074430838273,0.08345972875668672,9.606185531765226,0.11877437,-0.020050742,-0.003277098,1.8082191,-0.77265334,-3.0,0.0,-0.536962,-0.7977486,0.0,0.12374022,0.07208671,9.911327,0.13981295,0.12645906,0.0,-0.022462405,0.7301432878421773,0.11094087362289429,-0.010743655264377594,0.003814697265625
13.30232572555542,1.698813,-0.8416679,-3.297921,-0.014317306358089268,nan,nan,nan,nan,3.3018040657043457,0.0006802082061767578,-0.5108352,-0.53938603,-0.21804623,0.09811103084315101,0.08157230128454795,9.612663545608525,0.11198973,-0.02388469,-0.00064408465,1.75152,-0.8455405,-3.0,0.0,-0.6066374,-0.67093265,0.0,0.1352772,0.06972929,9.924568,0.12585549,0.10603709,0.0,-0.025075585,0.7303928067792964,0.10664743930101395,-0.009694725275039673,0.004302978515625
13.402068138122559,1.6416801,-0.88930124,-3.321662,-0.014901240904110234,nan,nan,nan,nan,3.4011290073394775,0.0006153583526611328,-0.58698404,-0.41598088,-0.21360117,0.10889230609060943,0.07899347644830734,9.617560467198494,0.09648825,-0.02606269,0.00072438444,1.6878952,-0.90543026,-3.0,0.0,-0.67409235,-0.5334362,0.0,0.14472997,0.067114905,9.936018,0.10337002,0.08408222,0.0,-0.027543189,0.7305813697032578,0.0856996551156044,-0.018464209511876106,0.00506591796875
13.50273323059082,1.5873498,-0.9190871,-3.34166,-0.015309453372104341,nan,nan,nan,nan,3.502089738845825,0.001767873764038086,-0.6481413,-0.30472973,-0.20963769,0.11676033691803794,0.07667422639248533,9.620123660862449,0.080698475,-0.027982391,0.0014604622,1.6164889,-0.9518648,-3.0,0.0,-0.7399671,-0.3851821,0.0,0.15204121,0.06421357,9.944986,0.07318846,0.06058129,0.0,-0.029908216,0.730680049977795,0.09618004411458969,-0.00021461211144924164,0.00531005859375
13.601166009902954,1.5221326,-0.93981934,-3.3629808,-0.015667664317545328,nan,nan,nan,nan,3.6002514362335205,0.0005166530609130859,-0.7117588,-0.17737411,-0.20517251,0.1241223110666658,0.074307199981275,9.619725276120011,0.07259747,-0.021069117,0.003927396,1.540825,-0.9823464,-3.0,0.0,-0.8011637,-0.23508015,0.0,0.1568318,0.061170053,9.950504,0.038537662,0.03691821,0.0,-0.03208277,0.7306647134449035,0.08150438964366913,0.0006015561521053314,0.005096435546875
13.70092248916626,1.4449811,-0.9472113,-3.3851173,-0.016081871506214977,nan,nan,nan,nan,3.7000763416290283,0.0005507469177246094,-0.77741516,-0.032854553,-0.19949302,0.13067273616837713,0.07210789984321209,9.616001068037008,0.049872987,-0.022010114,0.0021027143,1.4578717,-0.99803275,-3.0,0.0,-0.8602712,-0.07878471,0.0,0.15929429,0.057861738,9.952449,6.123621e-05,0.012363051,0.0,-0.03418198,0.7305213280332714,0.04295692220330238,-0.011766817420721054,0.004730224609375
13.801029682159424,1.3678478,-0.93999666,-3.4045045,-0.016502592626355637,nan,nan,nan,nan,3.8000519275665283,0.0007796287536621094,-0.8348544,0.10414297,-0.19305272,0.1344439286511608,0.07001915020785465,9.609057412315163,0.02706698,-0.023806129,0.0023915516,1.3690466,-0.9980226,-3.0,0.0,-0.9160771,0.078986876,0.0,0.15929273,0.054343518,9.9504795,-0.03939944,-0.012394783,0.0,-0.036183607,0.7302539167833326,0.019999627023935318,-0.012929212301969528,0.004150390625
13.906767845153809,1.2849585,-0.9194272,-3.4229667,-0.016926218350131257,nan,nan,nan,nan,3.906343698501587,0.0010027885437011719,-0.8899776,0.24210767,-0.18598051,0.13577720923377445,0.06751507939214263,9.59899251731113,-0.0041955053,-0.029973285,0.0023402385,1.2686955,-0.9807623,-3.0,0.0,-0.9714406,0.245303,0.0,0.15658301,0.05038884,9.944125,-0.07964729,-0.038526688,0.0,-0.038211513,0.7298661300495959,0.009202804416418076,-0.005710292607545853,0.00360107421875
14.000892162322998,1.1886283,-0.8830481,-3.4419854,-0.017153935374726044,nan,nan,nan,nan,3.9998817443847656,0.0004601478576660156,-0.9470115,0.38833037,-0.17786981,0.13365680816490505,0.06423761022917529,9.586192321944988,-0.039497916,-0.037810285,0.0021575403,1.1756908,-0.95110244,-3.0,0.0,-1.0165858,0.38814455,0.0,0.15192132,0.04673436,9.935155,-0.11140776,-0.06104947,0.0,-0.039914865,0.7293726621002775,-0.03912258893251419,-0.030317086726427078,0.00335693359375
14.100754261016846,1.085208,-0.8329809,-3.4598303,-0.01705485321944024,nan,nan,nan,nan,4.099733829498291,0.0006091594696044922,-1.0009863,0.52724594,-0.16907738,0.1279902134775352,0.060065873223600796,9.57117207722739,-0.06668192,-0.042975713,0.0024632823,1.071936,-0.90496945,-3.0,0.0,-1.0609012,0.53466964,0.0,0.14465733,0.0426615,9.922572,-0.1394627,-0.084278435,0.0,-0.041647986,0.7287931873943082,-0.06375536322593689,-0.04517276585102081,0.003387451171875
14.201137781143188,0.98368156,-0.77517235,-3.4756296,-0.016676923092509226,nan,nan,nan,nan,4.200240612030029,0.0006563663482666016,-1.0479181,0.6469646,-0.16154376,0.12059752511024321,0.05537804489709797,9.554458352345979,-0.08276974,-0.050503146,0.0016462384,0.9632422,-0.84416574,-3.0,0.0,-1.1012911,0.6736608,0.0,0.13505991,0.038391903,9.907459,-0.15982276,-0.10647454,0.0,-0.04329607,0.7281478442023018,-0.06666436046361923,-0.04645463824272156,0.003631591796875
14.300719976425171,0.8762964,-0.70739126,-3.4910207,-0.015972239545448262,nan,nan,nan,nan,4.2997987270355225,0.0005288124084472656,-1.0911638,0.75686437,-0.15423508,0.11174289671522841,0.05002666090655716,9.536670149583378,-0.09545082,-0.060462736,0.003243007,0.851787,-0.7706741,-3.0,0.0,-1.1369717,0.80076617,0.0,0.12342646,0.03400461,9.890919,-0.17084949,-0.1269473,0.0,-0.044819515,0.7274603933734395,-0.0707339197397232,-0.04892412945628166,0.00390625
14.400519371032715,0.75431955,-0.6239647,-3.5073984,-0.014919839257055735,nan,nan,nan,nan,4.399485349655151,0.0005357265472412109,-1.1327184,0.8634095,-0.14685926,0.10167807687557173,0.04398485389321527,9.518611994702377,-0.10043026,-0.06224682,0.0020176973,0.7368499,-0.68501806,-3.0,0.0,-1.1682421,0.91549295,0.0,0.10982512,0.029465895,9.873747,-0.171973,-0.1455985,0.0,-0.046217002,0.7267618537390504,-0.09379491209983826,-0.06348995119333267,0.00390625
14.512544870376587,0.62715244,-0.531887,-3.523513,-0.013679013504709701,nan,nan,nan,nan,4.511673212051392,0.0007100105285644531,-1.1688211,0.9564591,-0.13924639,0.09038354731686207,0.03730120501002676,9.49964791061358,-0.117139466,-0.07140389,0.0030666674,0.60406655,-0.5758551,-3.0,0.0,-1.1979488,1.0273659,0.0,0.092432484,0.024200972,9.854943,-0.16114494,-0.16396837,0.0,-0.047607496,0.7260275565608681,-0.10001878440380096,-0.05989082157611847,0.004150390625
14.6018226146698,0.51583993,-0.44814703,-3.5364351,-0.012481897277399914,nan,nan,nan,nan,4.601146697998047,0.0008845329284667969,-1.1944627,1.0237012,-0.1323673,0.07940154253931862,0.031020464011704663,9.485870919246238,-0.12847883,-0.07254569,0.0028063888,0.49598396,-0.48049045,-3.0,0.0,-1.2173824,1.1020707,0.0,0.0771919,0.019897835,9.8412485,-0.14374103,-0.17634773,0.0,-0.048554607,0.7254936460115902,-0.11203193664550781,-0.06117362529039383,0.004547119140625
14.701294660568237,0.38097245,-0.34375253,-3.550571,-0.01081117997741719,nan,nan,nan,nan,4.700594663619995,0.0006535053253173828,-1.2186893,1.0883119,-0.124083996,0.06543055780409653,0.023861958900707636,9.473322547543807,-0.1377096,-0.06889402,0.002225121,0.37402815,-0.36742926,-3.0,0.0,-1.2344666,1.1687372,0.0,0.05907705,0.01502464,9.828254,-0.1162786,-0.18747829,0.0,-0.049414247,0.7250070116277524,-0.13282130658626556,-0.0717073380947113,0.004638671875
14.80370020866394,0.25425565,-0.24299392,-3.5628402,-0.009105171436615548,nan,nan,nan,nan,4.802927017211914,0.0007603168487548828,-1.2347605,1.1334975,-0.11634629,0.051054796490835955,0.01683671362416983,9.46439869800584,-0.15640117,-0.075945996,0.0026444232,0.24701665,-0.24512538,-3.0,0.0,-1.2470157,1.2182988,0.0,0.039437898,0.009932643,9.818119,-0.08073939,-0.19580731,0.0,-0.05006299,0.7246607425474585,-0.1406315267086029,-0.06542859226465225,0.00482177734375
14.90108871459961,0.11653726,-0.13063194,-3.5755851,-0.0072979521756291275,nan,nan,nan,nan,4.9001991748809814,0.0007121562957763672,-1.2435343,1.1651275,-0.10789624,0.03386011892892744,0.008869757472622641,9.459669635798797,-0.17023857,-0.078037046,0.004016702,0.12533155,-0.12508522,-3.0,0.0,-1.2541673,1.2467675,0.0,0.020132516,0.005042657,9.812114,-0.042130783,-0.20061351,0.0,-0.050439622,0.7244771761865065,-0.15234996378421783,-0.06597307324409485,0.00531005859375
15.000879526138306,-0.009408766,-0.025821507,-3.5868144,-0.005805660183648714,nan,nan,nan,nan,4.999990940093994,0.0006508827209472656,-1.2430271,1.1773249,-0.10058591,0.017137421940531486,0.0020928535883544264,9.459371490497158,-0.17392169,-0.06564562,0.004296877,1.1269246e-05,-1.1269246e-05,-3.0,0.0,-1.2566371,1.2566371,0.0,1.8140347e-06,4.5350868e-07,9.81,-3.82476e-06,-0.20228358,0.0,-0.050570894,0.7244656016467428,-0.154615119099617,-0.05182211473584175,0.005462646484375
15.100792407989502,-0.14404073,0.0867164,-3.5983162,-0.004276103625999961,nan,nan,nan,nan,5.099810600280762,0.0005853176116943359,-1.2347873,1.1717383,-0.09269295,-0.0013705417565307288,-0.004076480976054286,9.463681840039808,-0.17624173,-0.0525552,0.0049271956,-0.12534378,0.1250974,-3.0,0.0,-1.2541667,1.2467655,0.0,-0.020134473,-0.0050431495,9.812114,0.042134818,-0.20061317,0.0,-0.0504396,0.7246329194709369,-0.15483680367469788,-0.04589248076081276,0.0048828125
15.20400595664978,-0.266252,0.18824588,-3.6081784,-0.002939004283353912,nan,nan,nan,nan,5.203131198883057,0.0006325244903564453,-1.2215704,1.1491784,-0.08567868,-0.018468464528602742,-0.00859757404205963,9.472377845160683,-0.17474006,-0.04525271,0.0054875407,-0.2545701,0.25249946,-3.0,0.0,-1.2464159,1.2159183,0.0,-0.04062302,-0.010235865,9.818615,0.0830114,-0.19540614,0.0,-0.050031632,0.7249703623854322,-0.15435999631881714,-0.0343303382396698,0.003265380859375
15.301562786102295,-0.37575054,0.27783123,-3.6161435,-0.0018567579531225918,nan,nan,nan,nan,5.300624847412109,0.0005526542663574219,-1.2048682,1.1139233,-0.079271495,-0.03388556287534544,-0.012106517389810056,9.485096313618143,-0.17215897,-0.033855673,0.005767124,-0.3755339,0.3688545,-3.0,0.0,-1.2342861,1.1680281,0.0,-0.059305668,-0.015084911,9.828396,0.11666158,-0.18735947,0.0,-0.049405027,0.7254636156035454,-0.15621627867221832,-0.02340405061841011,0.001373291015625
15.401012420654297,-0.50160307,0.37811393,-3.62431,-0.0008031310499152997,nan,nan,nan,nan,5.400099039077759,0.0006732940673828125,-1.1805174,1.0554082,-0.07189259,-0.05165042807402956,-0.015351939931912195,9.501109882108887,-0.16396748,-0.028078644,0.004268386,-0.4975002,0.48186263,-3.0,0.0,-1.217138,1.1011242,0.0,-0.07741146,-0.01995831,9.841427,0.14403333,-0.17619027,0.0,-0.048542507,0.7260841907603868,-0.14733590185642242,-0.025837428867816925,-0.001312255859375
15.50086784362793,-0.6138356,0.46404707,-3.6308026,-9.43315742275852e-05,nan,nan,nan,nan,5.499911308288574,0.0005941390991210938,-1.1544498,0.986186,-0.06508852,-0.06747654132891086,-0.017936847570811265,9.519753254912814,-0.15816909,-0.025487704,0.0032887238,-0.61792827,0.5876953,-3.0,0.0,-1.1951545,1.0167229,0.0,-0.09432186,-0.024751721,9.85682,0.16284452,-0.16221231,0.0,-0.047473848,0.7268060204613941,-0.1423911452293396,-0.02376168966293335,-0.003662109375
15.603829622268677,-0.7305687,0.5478318,-3.6372507,0.0004034538943686744,nan,nan,nan,nan,5.603115081787109,0.0007166862487792969,-1.1226802,0.8952625,-0.058242597,-0.0836912819418858,-0.020399712360184452,9.540068005733211,-0.14590138,-0.025368752,0.0006422171,-0.7398876,0.68739563,-3.0,0.0,-1.1674839,0.9126743,0.0,-0.110203244,-0.029586064,9.874194,0.17207275,-0.14513811,0.0,-0.04618236,0.7275917579448518,-0.12788042426109314,-0.025430407375097275,-0.00604248046875
15.700554847717285,-0.8341069,0.61534065,-3.6429746,0.000602552821253266,nan,nan,nan,nan,5.6995251178741455,0.0006182193756103516,-1.090855,0.7973091,-0.052492004,-0.0972909333773937,-0.022721614151870906,9.560758453719332,-0.12803043,-0.024145663,-0.00051684736,-0.8510184,0.7701326,-3.0,0.0,-1.1371988,0.8015885,0.0,-0.12334061,-0.033974316,9.890803,0.17089109,-0.12708037,0.0,-0.04482945,0.7283911672522277,-0.11214201152324677,-0.02662571519613266,-0.0078125
15.801457166671753,-0.9415759,0.67656964,-3.6491714,0.0005875088105319962,nan,nan,nan,nan,5.800508737564087,0.0005502700805664062,-1.0532031,0.6788357,-0.04692461,-0.10959838733932223,-0.025500291764980032,9.580783585421752,-0.103848524,-0.025186904,-0.003005038,-0.96406734,0.8446702,-3.0,0.0,-1.101006,0.6726616,0.0,-0.13513964,-0.038424347,9.907578,0.15970391,-0.10631431,0.0,-0.043284167,0.7291640476662397,-0.09139121323823929,-0.027399767190217972,-0.009185791015625
15.900898933410645,-1.0360141,0.7209185,-3.6545415,0.00029063404139464954,nan,nan,nan,nan,5.89996600151062,0.0006246566772460938,-1.0156128,0.55946666,-0.043030076,-0.11906208148023963,-0.027915893449155682,9.59889887239785,-0.08450051,-0.023073317,-0.0047523603,-1.0716178,0.90480906,-3.0,0.0,-1.061028,0.53509814,0.0,-0.14463204,-0.04264901,9.92253,0.139536,-0.0843466,0.0,-0.041653052,0.7298625210839444,-0.08092863112688065,-0.02671469748020172,-0.009979248046875
16.00073766708374,-1.1258659,0.7532311,-3.659316,-0.00018540148905395182,nan,nan,nan,nan,5.999772787094116,0.0005486011505126953,-0.9759034,0.4326498,-0.03912391,-0.12705203281930288,-0.0303116111463273,9.614350689016295,-0.073471695,-0.023872495,-0.0061055683,-1.1753399,0.95096844,-3.0,0.0,-1.016746,0.38866273,0.0,-0.15190023,-0.046720587,9.935117,0.11151616,-0.061131366,0.0,-0.039921,0.7304577780555545,-0.06920326501131058,-0.027637675404548645,-0.0107421875
16.100502729415894,-1.2176737,0.7735224,-3.664098,-0.0008905192449206734,nan,nan,nan,nan,6.099494457244873,0.00083160400390625,-0.92999566,0.2888091,-0.03524558,-0.13377044089788923,-0.03298552847477709,9.62646803643556,-0.050493427,-0.024766542,-0.0075542526,-1.2743587,0.9821681,-3.0,0.0,-0.96850973,0.23625395,0.0,-0.15680379,-0.050611626,9.944584,0.077529125,-0.037102878,0.0,-0.038102686,0.7309242452748898,-0.03724020719528198,-0.029191553592681885,-0.010833740234375
16.200875759124756,-1.2909039,0.7787648,-3.6675174,-0.0015770315161357379,nan,nan,nan,nan,6.199875116348267,0.0006699562072753906,-0.8893366,0.16355681,-0.03245736,-0.1376557230814321,-0.035324121329573854,9.634613389298336,-0.032390434,-0.024231758,-0.009580441,-1.3689797,0.99801683,-3.0,0.0,-0.9161166,0.07910185,0.0,-0.15929182,-0.054340877,9.950477,0.039427985,-0.012412828,0.0,-0.036185037,0.7312376423227284,-0.04122142121195793,-0.030920755118131638,-0.0108642578125
16.30079698562622,-1.3716658,0.7713568,-3.6708972,-0.0024366284470338367,nan,nan,nan,nan,6.2998669147491455,0.0005741119384765625,-0.8383239,0.014471473,-0.028886482,-0.14038119313036462,-0.0381935933614197,9.63862885881217,-0.015343071,-0.025876194,-0.009545672,-1.4578226,0.9980372,-3.0,0.0,-0.860304,-0.07869484,0.0,-0.15929501,-0.057859786,9.952449,-3.87647e-05,0.012348946,0.0,-0.03418314,0.7313920910263384,-0.007182303816080093,-0.031558629125356674,-0.01043701171875
16.400983095169067,-1.4405432,0.7516205,-3.6732657,-0.0031440581418896024,nan,nan,nan,nan,6.400082588195801,0.0009016990661621094,-0.7884493,-0.12271073,-0.025477178,-0.14065121102589007,-0.04095800894763868,9.638716830611246,0.010266517,-0.027051868,-0.009139985,-1.541093,0.9822677,-3.0,0.0,-0.80096006,-0.23559915,0.0,-0.15681945,-0.061180785,9.950491,-0.03866238,0.03699986,0.0,-0.03207555,0.7313954743627137,0.007596172392368317,-0.03207555040717125,-0.009857177734375
16.503650903701782,-1.5087295,0.71710473,-3.6754532,-0.0038160085720309184,nan,nan,nan,nan,6.502822160720825,0.0009741783142089844,-0.73132545,-0.26762813,-0.022223197,-0.13811020139540364,-0.043957673059105806,9.634997801743463,0.034041964,-0.026318775,-0.01078102,-1.6201159,0.9499547,-3.0,0.0,-0.736829,-0.39255798,0.0,-0.1517408,-0.06436021,9.944622,-0.074801266,0.061747048,0.0,-0.02979629,0.7312524295342554,0.030939552932977676,-0.029979394748806953,-0.009002685546875
16.605932235717773,-1.5696033,0.66981566,-3.6773198,-0.0042912730571470215,nan,nan,nan,nan,6.605163097381592,0.0010194778442382812,-0.6708031,-0.40539283,-0.019504009,-0.13322736093271112,-0.046727805111050236,9.62796055052431,0.06148444,-0.022192057,-0.010244313,-1.6921237,0.9020454,-3.0,0.0,-0.66989416,-0.5424163,0.0,-0.14419639,-0.067287736,9.935363,-0.10502351,0.08551098,0.0,-0.027391143,0.7309816805154573,0.0511024072766304,-0.026399321854114532,-0.008392333984375
16.702849626541138,-1.618464,0.61501837,-3.6785076,-0.004537835247654498,nan,nan,nan,nan,6.702282428741455,0.0013155937194824219,-0.61155874,-0.5247243,-0.016657896,-0.12691785344628803,-0.04908351468232253,9.618411209173518,0.07788516,-0.017079134,-0.011028758,-1.7539934,0.84278756,-3.0,0.0,-0.60380965,-0.67638034,0.0,-0.13484207,-0.06983154,9.924053,-0.12660588,0.1069107,0.0,-0.024970885,0.7306141238370594,0.06342314928770065,-0.0218733511865139,-0.00799560546875
16.800990104675293,-1.6639335,0.54487354,-3.6794095,-0.0045997788589694985,nan,nan,nan,nan,6.800012826919556,0.0006871223449707031,-0.54526657,-0.64357376,-0.013613361,-0.1176862703438282,-0.05095544453949152,9.607197682298734,0.097422555,-0.011395266,-0.010088932,-1.8096609,0.7705031,-3.0,0.0,-0.53504103,-0.801026,0.0,-0.12339934,-0.07214703,9.910951,-0.14006454,0.12698938,0.0,-0.022389323,0.7301822792133692,0.08499719202518463,-0.014943033456802368,-0.0078125
16.90116262435913,-1.6959223,0.47774872,-3.6800547,-0.004421786905901601,nan,nan,nan,nan,6.900228023529053,0.0006837844848632812,-0.48704803,-0.733837,-0.011378022,-0.1086537800573627,-0.05219871019635858,9.595059127695874,0.10579526,-0.00838814,-0.009276205,-1.8596585,0.68433803,-3.0,0.0,-0.46243143,-0.91629565,0.0,-0.109716974,-0.074251555,9.896612,-0.14445782,0.14572963,0.0,-0.019583572,0.7297145266424909,0.07340297102928162,-0.020102370530366898,-0.00848388671875
17.001732110977173,-1.7242751,0.39737567,-3.6806262,-0.004037075716980823,nan,nan,nan,nan,7.000901937484741,0.0012850761413574219,-0.4226606,-0.82114136,-0.009005229,-0.09845078888839638,-0.053402388116977395,9.58289440948518,0.102221906,-0.014024583,-0.00943148,-1.9024631,0.5868677,-3.0,0.0,-0.3876447,-1.0174775,0.0,-0.094189815,-0.07607444,9.882259,-0.13904655,0.16233677,0.0,-0.016603313,0.729245468946475,0.08152621984481812,-0.021272502839565277,-0.009033203125
17.103883028030396,-1.7474897,0.3035709,-3.6811643,-0.0034492668806561377,nan,nan,nan,nan,7.103010892868042,0.0007967948913574219,-0.35182413,-0.9022893,-0.006427083,-0.08738544080564174,-0.05499569386197112,9.571899984441718,0.11036012,-0.010478888,-0.010030384,-1.9381039,0.4784343,-3.0,0.0,-0.3102095,-1.1034824,0.0,-0.07686287,-0.07760872,9.868755,-0.12390789,0.17658257,0.0,-0.013423299,0.7288212802267412,0.10831475257873535,-0.014674520120024681,-0.009246826171875
17.201149463653564,-1.7622489,0.21246336,-3.6816695,-0.002793095714088728,nan,nan,nan,nan,7.200254678726196,0.0009527206420898438,-0.28524017,-0.9639212,-0.0038754274,-0.07554438935115575,-0.05604438993179928,9.56376030664893,0.13438155,-0.0026484902,-0.008337272,-1.9646345,0.36782673,-3.0,0.0,-0.23527263,-1.1685398,0.0,-0.059140813,-0.07876137,9.857741,-0.10142193,0.1874452,0.0,-0.010263552,0.7285070768707572,0.12695935368537903,-0.012216676957905293,-0.00958251953125
17.3008816242218,-1.771697,0.11034885,-3.681705,-0.0020766739038033666,nan,nan,nan,nan,7.2999107837677,0.0006680488586425781,-0.21368726,-1.01444,-0.0012930881,-0.06054852088262386,-0.05669295878266656,9.557384697161638,0.15104243,-0.004579288,-0.009458802,-1.9842153,0.24879897,-3.0,0.0,-0.15756859,-1.2171223,0.0,-0.040028315,-0.079618216,9.849065,-0.07172287,0.19560906,0.0,-0.006916983,0.728260875714162,0.14324089884757996,-0.008854849264025688,-0.010467529296875
17.40109395980835,-1.7737799,0.014634846,-3.681189,-0.0013100769532678781,nan,nan,nan,nan,7.400212049484253,0.00066375732421875,-0.14693642,-1.044329,0.0008757367,-0.045153619216331556,-0.057296176235227314,9.554390076547882,0.16260363,-0.005577601,-0.009273862,-1.9960701,0.12506834,-3.0,0.0,-0.07873747,-1.2467701,0.0,-0.0201298,-0.08013964,9.843581,-0.03701368,0.20061396,0.0,-0.0034699796,0.7281452068092988,0.14522455632686615,-0.012533700093626976,-0.01092529296875
17.506630897521973,-1.7685978,-0.08894788,-3.6800878,-0.00032035447509600606,nan,nan,nan,nan,7.507987976074219,0.0010399818420410156,-0.074397914,-1.0580574,0.0029007564,-0.027721561781674935,-0.05788805495689475,9.55510403015653,0.16626793,-0.0014428126,-0.009476176,-1.9999748,-0.0100382315,-3.0,0.0,0.006307286,-1.2565738,0.0,0.0016158741,-0.080311835,9.841736,0.002996283,0.20227286,0.0,0.00027832738,0.7281727853143203,0.14482352137565613,-0.015087272971868515,-0.011260986328125
17.603095054626465,-1.7580233,-0.18259798,-3.6789405,0.0006315708799671171,nan,nan,nan,nan,7.602716684341431,0.0013043880462646484,-0.008015403,-1.0528469,0.004373896,-0.011577737289558566,-0.058270999993120354,9.559525300646222,0.16418737,-0.00047452477,-0.00972132,-1.9958361,-0.1287198,-3.0,0.0,0.08104577,-1.2461832,0.0,0.020717338,-0.080129325,9.843691,0.038074758,0.20051469,0.0,0.0035714281,0.7283435466212824,0.14202775061130524,-0.01408299058675766,-0.0115966796875
17.703001499176025,-1.7405362,-0.27931693,-3.6780002,0.0017044852492351466,nan,nan,nan,nan,7.702297687530518,0.0006570816040039062,0.062478986,-1.027796,0.0055225077,0.005397558931436348,-0.05872501228915228,9.567420510510003,0.15619203,-0.0048409654,-0.011229407,-1.9838654,-0.25148597,-3.0,0.0,0.1592984,-1.21625,0.0,0.040460147,-0.07960287,9.849225,0.07244074,0.19546205,0.0,0.0069921208,0.728648382580458,0.13370972871780396,-0.010387640446424484,-0.011749267578125
17.800781726837158,-1.718696,-0.36328247,-3.6771877,0.0026599894816039405,nan,nan,nan,nan,7.799863338470459,0.0005307197570800781,0.12674794,-0.9884605,0.0058980444,0.020146036833826188,-0.059116837073664996,9.578238483006155,0.14145698,-0.0017315734,-0.011203739,-1.9646066,-0.3679651,-3.0,0.0,0.23536447,-1.168471,0.0,0.059163,-0.07876015,9.857753,0.10145356,0.18743367,0.0,0.010267469,0.7290658629436724,0.12751241028308868,-0.014192369766533375,-0.011566162109375
17.90212631225586,-1.689406,-0.4472866,-3.6763198,0.003545542253363291,nan,nan,nan,nan,7.901262521743774,0.00046324729919433594,0.19490603,-0.9298886,0.0059642214,0.034895366809249775,-0.059777141668463596,9.59148215980271,0.13292634,-0.010153819,-0.011774862,-1.9367713,-0.48314306,-3.0,0.0,0.31347817,-1.1002378,0.0,0.07761633,-0.07755106,9.869287,0.12472457,0.17604284,0.0,0.013559367,0.7295766337061899,0.120226189494133,-0.012594197876751423,-0.0107421875
18.000957012176514,-1.660481,-0.510822,-3.6757839,0.00422674853281901,nan,nan,nan,nan,7.999972343444824,0.0005321502685546875,0.2515363,-0.8676312,0.0058719646,0.046918250486887164,-0.06080208198094961,9.60622170315126,0.13035111,-0.012910728,-0.0111443335,-1.9021236,-0.5877577,-3.0,0.0,0.38830185,-1.0166659,0.0,0.09433181,-0.07605989,9.882381,0.13913533,0.16220292,0.0,0.016629897,0.7301446813184586,0.12312516570091248,-0.0265372171998024,-0.00933837890625
18.10303544998169,-1.6245635,-0.5713161,-3.6754782,0.004918053468700809,nan,nan,nan,nan,8.102537631988525,0.0013289451599121094,0.31262264,-0.7872585,0.005174122,0.05936550746388837,-0.06231389368355944,9.621340946862492,0.12136907,-0.017682642,-0.0112232845,-1.8583769,-0.6868679,-3.0,0.0,0.4644611,-0.9133015,0.0,0.11011932,-0.074197285,9.897012,0.14446785,0.14524056,0.0,0.01966317,0.730726909611166,0.12078072130680084,-0.03311698138713837,-0.00732421875
18.202824592590332,-1.5767671,-0.62919295,-3.6753206,0.005720068825027999,nan,nan,nan,nan,8.20220398902893,0.0009074211120605469,0.38363785,-0.67872804,0.004239078,0.07284956671970208,-0.06447573548076346,9.63613238156775,0.10905533,-0.015760234,-0.009996299,-1.808473,-0.77227587,-3.0,0.0,0.53662425,-0.79832566,0.0,0.12368038,-0.07209733,9.911261,0.1398577,0.12655243,0.0,0.02244956,0.731296071749412,0.11278900504112244,-0.032131128013134,-0.004791259765625
18.30160427093506,-1.527259,-0.66925895,-3.6752145,0.006584803414973327,nan,nan,nan,nan,8.300954818725586,0.0006563663482666016,0.44902068,-0.5645978,0.0029394086,0.08393182530706189,-0.06600529362892948,9.649428190747294,0.089322366,-0.008716545,-0.008277036,-1.7520349,-0.8449704,-3.0,0.0,0.60605025,-0.672066,0.0,0.13518707,-0.069750585,9.924461,0.12601258,0.10621881,0.0,0.025053851,0.7318073107625735,0.09979485720396042,-0.030655987560749054,-0.002410888671875
18.405018091201782,-1.4815539,-0.69223464,-3.6754458,0.007493446964517564,nan,nan,nan,nan,8.40405011177063,0.0006873607635498047,0.50322175,-0.4601848,0.0014425652,0.0913506374213545,-0.06659200009624522,9.66040212073365,0.06717868,-0.0039640362,-0.0061215344,-1.6859235,-0.90698224,-3.0,0.0,0.67603755,-0.5292564,0.0,0.14497457,-0.06703434,9.936319,0.10259266,0.08341745,0.0,0.027613573,0.7322290056113984,0.06408456712961197,-0.016530103981494904,-0.00048828125
18.50087881088257,-1.427709,-0.7054083,-3.676044,0.008567571874810255,nan,nan,nan,nan,8.499877214431763,0.00051116943359375,0.56074125,-0.34016883,-0.00020843862,0.0977338178128219,-0.06736218063450083,9.668282390320691,0.056169488,-0.013875707,-0.0044612833,-1.6181245,-0.9510089,-3.0,0.0,0.7385545,-0.38850623,0.0,0.15190661,-0.06427968,9.944823,0.07391656,0.061106633,0.0,0.02985784,0.7325316727405856,0.04561896249651909,-0.01466730609536171,0.00103759765625
18.602184772491455,-1.3696529,-0.7060993,-3.6766322,0.009851836429468755,nan,nan,nan,nan,8.601314067840576,0.0005407333374023438,0.6174114,-0.21521908,-0.0015375754,0.10199560226320506,-0.0679647953314102,9.672494176710039,0.02400848,-0.0023140172,-0.0030018494,-1.5399727,-0.9825955,-3.0,0.0,0.80181026,-0.23343037,0.0,0.15687093,-0.061135925,9.950545,0.03814103,0.03665867,0.0,0.032105695,0.73269338937989,0.039771463721990585,-0.019621599465608597,0.00274658203125
18.701895475387573,-1.307109,-0.6947981,-3.6770253,0.011327631016671384,nan,nan,nan,nan,8.70100998878479,0.0007183551788330078,0.67298603,-0.08846872,-0.0030191238,0.10418602028412743,-0.0682930413382028,9.67278065792286,0.005610767,-0.00061924773,-0.00069863297,-1.4570682,-0.9981056,-3.0,0.0,0.8608084,-0.077313274,0.0,0.15930572,-0.057829812,9.952449,-0.00030673997,0.012132107,0.0,0.034201115,0.7327043878940083,0.034211575984954834,-0.021188288927078247,0.004119873046875
18.801039934158325,-1.2340943,-0.6690538,-3.6774266,0.013049663050649321,nan,nan,nan,nan,8.80005407333374,0.0006146430969238281,0.73179483,0.048347622,-0.005156749,0.10476389902161692,-0.06859188859027765,9.668902635322896,-0.004334129,-0.0030523848,0.0015908938,-1.3690443,-0.99802244,-3.0,0.0,0.91607845,0.078990676,0.0,0.1592927,-0.054343425,9.9504795,-0.039400384,-0.012395379,0.0,0.03618366,0.7325554900099955,0.01088953297585249,-0.006708797067403793,0.00518798828125
18.90071749687195,-1.1618669,-0.63359445,-3.6778953,0.01475718762148582,nan,nan,nan,nan,8.899738311767578,0.0005917549133300781,0.78499955,0.17271322,-0.0069142506,0.10413287203823143,-0.06846269068864985,9.66090471864679,-0.016366526,0.0040053427,0.0028002318,-1.275101,-0.98234874,-3.0,0.0,0.9681241,0.23506507,0.0,0.15683217,-0.050640825,9.944643,-0.077250056,-0.036915835,0.0,0.03808838,0.7322483131874558,0.004511777311563492,-0.003568112850189209,0.0062255859375
19.000723600387573,-1.0790762,-0.58325,-3.678357,0.016756990354195277,nan,nan,nan,nan,8.999741315841675,0.0004744529724121094,0.84057784,0.30380023,-0.008279214,0.10242883145287537,-0.06786692695828411,9.64920047902503,-0.02460705,0.007277756,0.004699124,-1.175833,-0.95115674,-3.0,0.0,1.016521,0.3879345,0.0,0.15192987,-0.04673995,9.93517,-0.1113638,-0.061016265,0.0,0.03991238,0.7317985579528968,-0.023067656904459,0.011851467192173004,0.006561279296875
19.10080647468567,-0.9995116,-0.5265042,-3.6793034,0.018690141142576146,nan,nan,nan,nan,9.099921941757202,0.0005321502685546875,0.88881016,0.42011303,-0.009027719,0.09938390235440642,-0.06661428687966842,9.634556354368115,-0.04527719,0.01670134,0.005438485,-1.0717359,-0.9048685,-3.0,0.0,1.060981,0.5349393,0.0,0.14464141,-0.042653643,9.922545,-0.13950881,-0.084321335,0.0,0.041651174,0.7312354483322656,-0.03396733105182648,0.011331960558891296,0.0067138671875
19.204200506210327,-0.9171589,-0.4609567,-3.6805592,0.020654587860461253,nan,nan,nan,nan,9.203564405441284,0.0009665489196777344,0.9335007,0.5297425,-0.009425422,0.09436774917540061,-0.064680500302021,9.617402039850138,-0.056963213,0.015357231,0.006330109,-0.95957965,-0.8419193,-3.0,0.0,1.1025527,0.67808574,0.0,0.13470484,-0.03824791,9.906927,-0.16034374,-0.107184246,0.0,0.04334877,0.7305752699846114,-0.03655131161212921,0.0021500401198863983,0.006195068359375
19.300538063049316,-0.82520336,-0.37996024,-3.6816757,0.022852579529658225,nan,nan,nan,nan,9.299517631530762,0.0005521774291992188,0.9778343,0.6402147,-0.009265287,0.08758147367953859,-0.06272220119132399,9.599060933077713,-0.08040589,0.023336818,0.006785632,-0.8521065,-0.7708991,-3.0,0.0,1.1368772,0.80042416,0.0,0.123462126,-0.03401721,9.890966,-0.17083205,-0.12689196,0.0,0.044815388,0.7298687667022535,-0.07215867936611176,0.016128864139318466,0.005645751953125
19.400641918182373,-0.72968656,-0.2892135,-3.6820347,0.0250921574477209,nan,nan,nan,nan,9.399646043777466,0.0005404949188232422,1.0193033,0.74065757,-0.00864033,0.07860645472631592,-0.06051755270344339,9.580601287567994,-0.099654265,0.02331829,0.0073102866,-0.73666227,-0.68487096,-3.0,0.0,1.1682888,0.91566664,0.0,0.10980173,-0.02945847,9.87372,-0.17196657,-0.14562689,0.0,0.046219137,0.7291570154303455,-0.09861455857753754,0.02597072347998619,0.004974365234375
19.502105712890625,-0.6390838,-0.19834626,-3.6819522,0.027176711004739208,nan,nan,nan,nan,9.501402378082275,0.0008697509765625,1.0538143,0.82228136,-0.006386292,0.06796385364113064,-0.057713597216185075,9.563120289379738,-0.12436374,0.029447488,0.006593202,-0.6163575,-0.5863585,-3.0,0.0,1.1954746,1.017941,0.0,0.094108574,-0.024689322,9.856606,-0.16265836,-0.16241321,0.0,0.047489133,0.7284823656078537,-0.10446032881736755,0.01950451359152794,0.003936767578125
19.600520610809326,-0.5390014,-0.09378464,-3.6813433,0.02935158916995088,nan,nan,nan,nan,9.599571228027344,0.0007808208465576172,1.0869132,0.89601094,-0.0036843463,0.05447574031971608,-0.054541274962445874,9.54778935664334,-0.1380437,0.03289594,0.006403914,-0.49790153,-0.48222566,-3.0,0.0,1.2170733,1.1008732,0.0,0.07746955,-0.019974314,9.841475,-0.14411049,-0.17614852,0.0,0.048539303,0.727890186262461,-0.12164412438869476,0.027985714375972748,0.002899169921875
19.70060443878174,-0.44466436,0.0063228556,-3.6808014,0.03117570802051243,nan,nan,nan,nan,9.699608325958252,0.0008943080902099609,1.114038,0.9489655,-0.0012997803,0.04115592654116441,-0.05179690627001632,9.53527590819635,-0.13969223,0.025232447,0.0051776115,-0.37524673,-0.36858276,-3.0,0.0,1.2343205,1.1681635,0.0,0.059262082,-0.015073418,9.828368,-0.11658864,-0.18738215,0.0,0.049406786,0.7274064838133703,-0.12430231273174286,0.027479905635118484,0.00225830078125
19.80310344696045,-0.34787872,0.10811388,-3.680316,0.032724331223220104,nan,nan,nan,nan,9.8029043674469,0.0017046928405761719,1.1389124,0.986782,0.0015298086,0.027467256328548892,-0.04915113969154028,9.526506348932168,-0.14612369,0.02884059,0.004049982,-0.24704488,-0.24515295,-3.0,0.0,1.2470134,1.2182901,0.0,0.03944233,-0.009933775,9.818121,-0.08074791,-0.19580583,0.0,0.050062872,0.727067310754033,-0.12555436789989471,0.0289294496178627,0.002166748046875
19.90124487876892,-0.2481129,0.21059668,-3.6796181,0.033989119942922766,nan,nan,nan,nan,9.900365352630615,0.0005702972412109375,1.1617754,1.0098766,0.0045600976,0.01331025338020982,-0.045860503225316096,9.522066876487811,-0.14795764,0.036739122,0.0028981348,-0.12512198,-0.12487688,-3.0,0.0,1.2541755,1.2468004,0.0,0.020098992,-0.005034229,9.812106,-0.042061694,-0.20061909,0.0,0.050440066,0.7268955493965532,-0.13225971162319183,0.03934692591428757,0.0018310546875
20.001659631729126,-0.13702057,0.3204535,-3.6780307,0.03503361430468868,nan,nan,nan,nan,10.000916004180908,0.0009629726409912109,1.1833526,1.0173002,0.008528761,-0.0024801683406594117,-0.04139625809075942,9.522311791516842,-0.15395397,0.04753554,0.003322664,0.0011504808,0.0011504807,-3.0,0.0,1.2566369,1.2566363,0.0,-0.00018519534,4.629884e-05,9.81,0.00039047064,-0.20228344,0.0,0.050570887,0.7269050261013867,-0.13853222131729126,0.055484216660261154,0.0010986328125
20.100648164749146,-0.03208582,0.4190119,-3.675741,0.035670386751788595,nan,nan,nan,nan,10.100028038024902,0.0017876625061035156,1.1991473,1.0076907,0.011890679,-0.017471257140491074,-0.035922797370453896,9.527384220324457,-0.15629846,0.060405686,0.0023486235,0.12561665,0.12536864,-3.0,0.0,1.254156,1.2467226,0.0,-0.02017812,0.0050541232,9.812123,0.042224772,-0.20060591,0.0,0.05043903,0.7271012704962934,-0.13928084075450897,0.059304386377334595,-0.000274658203125
20.202068567276,0.083123185,0.5217981,-3.672872,0.03612322823054768,nan,nan,nan,nan,10.201137781143188,0.0012125968933105469,1.2102818,0.97999907,0.015020625,-0.03379963080239352,-0.02910707014968872,9.537053324319425,-0.15485252,0.065633476,0.0019685368,0.25208515,0.2500747,-3.0,0.0,1.2466152,1.2167094,0.0,-0.04023334,0.010136116,9.81845,0.082265876,-0.19553947,0.0,0.050042056,0.727475208468687,-0.1370677947998047,0.0641106590628624,-0.00262451171875
20.30167293548584,0.19003952,0.6114467,-3.6702151,0.03633835646557129,nan,nan,nan,nan,10.300891876220703,0.0007832050323486328,1.214387,0.9386333,0.017720463,-0.04870713516753701,-0.022543313915238006,9.550707183443011,-0.15292321,0.063617714,0.0012815448,0.3758638,0.36916667,-3.0,0.0,1.2342465,1.1678723,0.0,-0.059355743,0.015098114,9.828427,0.116745345,-0.18733335,0.0,0.049402993,0.7280029281345433,-0.1342175006866455,0.06078604981303215,-0.00445556640625
20.400826930999756,0.29670382,0.6948484,-3.6678,0.03633938255234451,nan,nan,nan,nan,10.399826526641846,0.0007042884826660156,1.2125102,0.88284075,0.019676449,-0.06311449208312349,-0.015997336403031692,9.567495678775014,-0.14364117,0.06598968,-0.0003340788,0.49716878,0.48156276,-3.0,0.0,1.2171916,1.1013314,0.0,-0.077363476,0.019945094,9.841388,0.14396957,-0.17622472,0.0,0.04854516,0.7286512842407463,-0.1304178386926651,0.05676964670419693,-0.006256103515625
20.500996351242065,0.40329966,0.7708313,-3.6655078,0.03605687873969998,nan,nan,nan,nan,10.500020265579224,0.0007159709930419922,1.205405,0.8131089,0.020947604,-0.07652931796975378,-0.009759779966717286,9.586431173942985,-0.13250862,0.06386564,-0.0029059362,0.61805815,0.5878058,-3.0,0.0,1.195128,1.016622,0.0,-0.09433949,0.024756877,9.856837,0.16285987,-0.16219568,0.0,0.047472585,0.7293818732412412,-0.12809228897094727,0.05435429885983467,-0.007537841796875
20.600841283798218,0.50930655,0.8378057,-3.6636152,0.03542558744154181,nan,nan,nan,nan,10.599920988082886,0.0008022785186767578,1.1936519,0.73072857,0.02145337,-0.08911728053061427,-0.003607841909628373,9.604637081585826,-0.12886067,0.05857443,-0.005218938,0.7361575,0.6844753,-3.0,0.0,1.1684144,0.9161338,0.0,-0.10973881,0.029438505,9.873645,0.17194928,-0.1457032,0.0,0.046224885,0.7300836324674399,-0.12466132640838623,0.05356436222791672,-0.00848388671875
20.701391220092773,0.62283826,0.89865124,-3.661688,0.03444544936639175,nan,nan,nan,nan,10.700611352920532,0.0007774829864501953,1.1752459,0.62729853,0.021624207,-0.10254275963274471,0.0025649988114258004,9.62487608354539,-0.119448155,0.05870027,-0.0067175785,0.8522538,0.7710028,-3.0,0.0,1.1368335,0.8002663,0.0,-0.12347857,0.034023013,9.890989,0.170824,-0.12686644,0.0,0.04481348,0.730862978501961,-0.10071288049221039,0.059248294681310654,-0.008819580078125
20.804357528686523,0.72626173,0.94300395,-3.6595163,0.0332227709644524,nan,nan,nan,nan,10.80345368385315,0.0009236335754394531,1.1532873,0.52005494,0.021898324,-0.11325618732148438,0.008467867914330629,9.644137085638944,-0.0977415,0.06264446,-0.0067921486,0.9673082,0.8466454,-3.0,0.0,1.0998832,0.66872877,0.0,-0.13545181,0.038551755,9.908049,0.15923174,-0.105683744,0.0,0.043237343,0.7316039039611052,-0.09129470586776733,0.059426918625831604,-0.00909423828125
20.912232160568237,0.8272948,0.97468233,-3.6571531,0.031726879046586755,nan,nan,nan,nan,10.913945436477661,0.0011365413665771484,1.1259089,0.40312192,0.021464543,-0.1217439432736683,0.014586972271931842,9.661410238407553,-0.07353716,0.06506396,-0.009087611,1.0864087,0.9121493,-3.0,0.0,1.0550731,0.5150428,0.0,-0.1457889,0.04322963,9.924457,0.13604416,-0.08115785,0.0,0.041415956,0.7322677325012922,-0.09728638827800751,0.05598809942603111,-0.0091552734375
21.0006263256073,0.9331549,0.9942176,-3.654845,0.029916424106292153,nan,nan,nan,nan,10.999593019485474,0.0005509853363037109,1.0899675,0.2686156,0.020274773,-0.12839261560229887,0.02119212227539169,9.674445826224984,-0.04953188,0.06151889,-0.008473665,1.1751568,0.9508984,-3.0,0.0,1.0168295,0.3889332,0.0,-0.15188923,0.0467134,9.935097,0.11157274,-0.06117411,0.0,0.03992421,0.7327683133890258,-0.04445047676563263,0.05637318640947342,-0.009674072265625
21.104207515716553,1.0198473,0.9989717,-3.6532602,0.028332892341221896,nan,nan,nan,nan,11.103367567062378,0.0008225440979003906,1.0551244,0.15085459,0.01882271,-0.13214144780986503,0.026457476021932047,9.685392555631697,-0.03039163,0.05824101,-0.008311665,1.2781062,0.9830715,-3.0,0.0,0.9665583,0.23024388,0.0,-0.15694566,0.050759066,9.944881,0.0761166,-0.036157396,0.0,0.038030326,0.7331884193641596,-0.05928971990942955,0.05315178632736206,-0.009368896484375
21.20179033279419,1.1185561,0.99043256,-3.6517766,0.02649907967674548,nan,nan,nan,nan,11.200891733169556,0.00055694580078125,1.0087545,0.008930368,0.016426545,-0.13529895952720886,0.03222679839886222,9.69201346024871,-0.013505862,0.052820724,-0.009414528,1.3699108,0.99809647,-3.0,0.0,0.91556686,0.077499464,0.0,-0.1593043,0.05437765,9.950517,0.039030157,-0.012161329,0.0,0.03616515,0.7334423966280051,-0.02420051395893097,0.05203429237008095,-0.009246826171875
21.30353307723999,1.219835,0.96441233,-3.6501853,0.024535232729861044,nan,nan,nan,nan,11.303040504455566,0.0013191699981689453,0.95335186,-0.14430852,0.013677475,-0.1349983089234475,0.0380247918674439,9.694102019115817,0.022984728,0.05065822,-0.009684102,1.4605505,0.9977795,-3.0,0.0,0.85847545,-0.083696984,0.0,-0.15925457,0.057968196,9.952446,-0.0012893036,0.013134062,0.0,0.034118004,0.7335224955452675,0.01275259256362915,0.05003292113542557,-0.009033203125
21.400638341903687,1.3019702,0.9289583,-3.6490757,0.02289271981365524,nan,nan,nan,nan,11.3996741771698,0.000522613525390625,0.90140945,-0.27240983,0.010776587,-0.13260745865755383,0.04282498735670348,9.691748197784182,0.031922888,0.049940627,-0.009691841,1.5407658,0.9823638,-3.0,0.0,0.8012086,-0.23496541,0.0,-0.15683454,0.061167683,9.950507,-0.038510084,0.03690016,0.0,0.032084357,0.7334322228538693,0.02222120389342308,0.04806030914187431,-0.00848388671875
21.500995635986328,1.3792877,0.88189274,-3.6485574,0.021334488316099194,nan,nan,nan,nan,11.500056982040405,0.0007231235504150391,0.8455241,-0.39633495,0.008042595,-0.12951494112451117,0.047502248217539345,9.685214658488986,0.03748424,0.049162008,-0.0103572775,1.6180767,0.95103407,-3.0,0.0,0.73859584,-0.38840905,0.0,-0.15191057,0.064277746,9.944828,-0.0738953,0.061091274,0.0,0.029859314,0.7331815940495094,0.02848324179649353,0.04617095738649368,-0.008331298828125
21.60100769996643,1.4512143,0.8243514,-3.6485498,0.01984539800619685,nan,nan,nan,nan,11.60005235671997,0.0005779266357421875,0.7859021,-0.5147169,0.005507003,-0.12577217506401522,0.05195659777378281,9.67499539304292,0.04781728,0.046695538,-0.009350066,1.6886913,0.9047989,-3.0,0.0,0.6733048,-0.53512514,0.0,-0.14463045,0.06714743,9.935896,-0.10368274,0.08435089,0.0,0.02751468,0.7327894099473652,0.040329284965991974,0.043933138251304626,-0.008148193359375
21.710840940475464,1.5066538,0.76847476,-3.6488762,0.0186518951672075,nan,nan,nan,nan,11.710002422332764,0.0009417533874511719,0.7334363,-0.60871875,0.0036138545,-0.12169677988621624,0.05549648436840959,9.66044929358876,0.061274473,0.042286836,-0.008611657,1.7586347,0.8375257,-3.0,0.0,0.5984562,-0.68662393,0.0,-0.13401029,0.07002358,9.92307,-0.12798387,0.10855425,0.0,0.02477238,0.7322308178040048,0.004748709499835968,0.05512211099267006,-0.007568359375
21.8029944896698,1.5722196,0.6855243,-3.6493857,0.017144798822431376,nan,nan,nan,nan,11.802404880523682,0.0018661022186279297,0.6613783,-0.7239443,0.0018312581,-0.11583075095426563,0.06015618241715903,9.646922555153727,0.056143012,0.0456959,-0.008739873,1.8109386,0.7685837,-3.0,0.0,0.53333163,-0.8039326,0.0,-0.12309505,0.07220049,9.910616,-0.14028242,0.12745975,0.0,0.02232424,0.7317109931652558,0.060824617743492126,0.04098574072122574,-0.008148193359375
21.90097951889038,1.6262451,0.5995567,-3.6496122,0.015891067089214977,nan,nan,nan,nan,11.900042533874512,0.0008051395416259766,0.5915331,-0.8230971,0.00080260175,-0.10924743781272642,0.06412055190674759,9.631158175354363,0.08818565,0.03649612,-0.008564583,1.8595728,0.6845079,-3.0,0.0,0.46256754,-0.9160953,0.0,-0.109744005,0.07424792,9.896639,-0.14445876,0.14569691,0.0,0.019588912,0.7311047172017601,0.09784534573554993,0.033611737191677094,-0.008331298828125
22.001664400100708,1.677907,0.49650225,-3.6498039,0.014762995790801023,nan,nan,nan,nan,12.000901699066162,0.0007238388061523438,0.5139603,-0.92025095,0.0008629241,-0.09788969001689243,0.0672039306968435,9.615766427104834,0.13298656,0.026659785,-0.00832345,1.9024632,0.58686715,-3.0,0.0,0.3876443,-1.017478,0.0,-0.09418973,0.07607444,9.882259,-0.13904649,0.16233684,0.0,0.016603297,0.73051229321342,0.13606120645999908,0.028169458732008934,-0.0079345703125
22.104504585266113,1.7188224,0.39319974,-3.650045,0.013886881966870879,nan,nan,nan,nan,12.104162216186523,0.0011639595031738281,0.4404394,-0.9966698,0.00067845784,-0.08368618334400532,0.0695599185519662,9.601651029025678,0.16418281,0.02398788,-0.0084260665,1.9384605,0.47716364,-3.0,0.0,0.30932876,-1.1043508,0.0,-0.07665953,0.077624135,9.868613,-0.1236853,0.17672707,0.0,0.013386605,0.7299685786450822,0.1465604454278946,0.03215491771697998,-0.007659912109375
22.201284408569336,1.755824,0.27428937,-3.6501806,0.013065782895070484,nan,nan,nan,nan,12.200374603271484,0.0005428791046142578,0.35957396,-1.0619173,0.0012284277,-0.06586809322537406,0.07208686492618033,9.589627377649315,0.18102166,0.024200486,-0.008253572,1.9646628,0.367686,-3.0,0.0,0.23517922,-1.1686096,0.0,-0.059118234,0.0787626,9.857729,-0.10138974,0.18745692,0.0,0.010259569,0.7295051213037489,0.1659572869539261,0.021840989589691162,-0.007781982421875
22.30429434776306,1.7831148,0.15995122,-3.6498418,0.012407696406285515,nan,nan,nan,nan,12.303596496582031,0.0013515949249267578,0.283452,-1.1043762,0.002323575,-0.048373075833456416,0.07440729773130972,9.580774032061464,0.18781397,0.024017485,-0.00768949,1.9847908,0.24430934,-3.0,0.0,0.15468037,-1.2185577,0.0,-0.03930674,0.07964349,9.8488035,-0.07051927,0.19585094,0.0,0.0067914706,0.7291636791419871,0.166386216878891,0.02320992760360241,-0.00823974609375
22.40072774887085,1.8038265,0.04408448,-3.649804,0.011694624902381285,nan,nan,nan,nan,12.399701595306396,0.0004930496215820312,0.20623451,-1.1285571,0.00346289,-0.030262075890898636,0.07635860940776218,9.575621776690252,0.19332477,0.01701137,-0.008581488,1.99603,0.12570444,-3.0,0.0,0.07913952,-1.2466692,0.0,-0.020232152,0.08013787,9.8436,-0.037198637,0.20059685,0.0,0.003487651,0.7289649022912478,0.1672106236219406,0.01842600479722023,-0.00860595703125
22.50265598297119,1.8175248,-0.07138791,-3.650401,0.010917168816715072,nan,nan,nan,nan,12.50212574005127,0.001035928726196289,0.12854092,-1.133484,0.0048513184,-0.011879275076822387,0.07793716868116851,9.57440717087827,0.19192441,0.015270267,-0.007313925,1.9999982,-0.0026719142,-3.0,0.0,-0.0016788146,-1.2566326,0.0,0.0004301037,0.08031288,9.841724,0.0007975727,0.20228283,0.0,-7.408318e-05,0.7289180343410484,0.1604584902524948,0.020693128928542137,-0.00885009765625
22.60380244255066,1.82414,-0.18425925,-3.6511428,0.010048407151909107,nan,nan,nan,nan,12.604052305221558,0.0020599365234375,0.0501238,-1.1196452,0.0062449863,0.006018103694061914,0.07931242340335576,9.577187896061236,0.18309778,0.00856878,-0.007574177,1.9957272,-0.13038477,-3.0,0.0,-0.082098566,-1.2459098,0.0,0.020985236,0.08012453,9.843742,0.038558014,0.20046845,0.0,-0.0036176895,0.7290253296952647,0.15293732285499573,0.02186448872089386,-0.009002685546875
22.70240092277527,1.8232619,-0.30121523,-3.6519184,0.008965718229470992,nan,nan,nan,nan,12.701821565628052,0.0009114742279052734,-0.034921445,-1.0841914,0.007949249,0.02438477011993336,0.08035349172449102,9.583835486683544,0.17138462,0.009023186,-0.0074040657,1.9839412,-0.25090688,-3.0,0.0,-0.15892555,-1.2164388,0.0,0.040367074,0.0796062,9.84919,0.07228618,0.19549388,0.0,-0.0069759274,0.7292817664337552,0.140577495098114,0.008252344094216824,-0.00909423828125
