time,x,y,z,yaw,platform,trajectory,controller,feedforward,traj_time,comp_time,vx,vy,vz,roll,pitch,f,p,q,r,x_ref,y_ref,z_ref,yaw_ref,vx_ref,vy_ref,vz_ref,roll_ref,pitch_ref,f_ref,u_ff_df,u_ff_dphi,u_ff_dpsi,u_ff_dth,throttle,p_cmd,q_cmd,r_cmd
10.004655599594116,0.018274121,0.05465186,-2.622003,0.014259070320289372,SIM,fig8_heading,contraction,1.0,2.384185791015625e-06,0.0025768280029296875,-0.057146173,0.007416359,-0.19942243,-0.006242138008671636,-0.0007814854988519304,9.8090007340163,0.013237866,-0.008525644,-0.044025104,1.4980283e-06,1.4980283e-06,-3.0,0.7853982,0.62831855,0.62831855,0.0,-1.07173705e-07,2.6793426e-08,9.81,5.0215093e-08,-0.0449519,-6.274926e-07,0.011237975,0.7379157921326898,0.8292865753173828,-0.9677605032920837,0.7614949345588684
10.102146863937378,0.013494546,0.055602208,-2.6378856,0.007758317849079161,nan,nan,nan,nan,0.09754467010498047,0.0028951168060302734,-0.05736405,0.0028478743,-0.20802812,-0.0008547800455899713,-0.008889926764849676,9.811364861699989,0.21104138,-0.3249675,-0.022681065,0.061272077,0.06122094,-3.0,0.7841443,0.62779415,0.6262218,0.0,-0.0043799123,0.0010958888,9.810101,0.0020457078,-0.04480103,-0.025744284,0.01122826,0.7380059165985114,0.9494766592979431,-1.1504565477371216,3.0884556770324707
10.200574159622192,0.008599202,0.05697753,-2.6598504,0.014477586387130485,nan,nan,nan,nan,0.19535517692565918,0.00084686279296875,-0.028967375,0.020480108,-0.2511416,0.04697740450317331,-0.06383769019950947,9.799834588720698,0.8582057,-0.9188837,0.268282,0.122608356,0.122198075,-3.0,0.7803479,0.62621605,0.61992264,0.0,-0.008742216,0.0021928605,9.810399,0.0040444965,-0.044347845,-0.051993117,0.01119904,0.7375662607529081,0.7434079051017761,-0.8145695328712463,3.069420337677002
10.300544023513794,0.009796342,0.06311427,-2.6814344,0.05557385899710071,nan,nan,nan,nan,0.2953190803527832,0.000762939453125,0.060914423,0.10190002,-0.19487205,0.1330876555949968,-0.15254237170544016,9.809716812624831,0.929469,-0.6784091,0.76972693,0.1850816,0.1836673,-3.0,0.77377343,0.6235173,0.6091868,0.0,-0.013139387,0.0033100334,9.810901,0.005979687,-0.043575633,-0.0797379,0.011149122,0.7379430913826454,0.26893413066864014,-0.05383698642253876,2.933417320251465
10.40082859992981,0.025175333,0.083166726,-2.6939816,0.1589295601803533,nan,nan,nan,nan,0.39562273025512695,0.0011055469512939453,0.20315215,0.26586854,-0.06093905,0.1822202672777029,-0.19010371765741185,9.874881747021572,0.38297397,0.24392542,1.2792128,0.2474409,0.24405102,-3.0,0.7643212,0.6197107,0.59412295,0.0,-0.017458411,0.004424973,9.811592,0.0077604833,-0.04249249,-0.109022886,0.011078829,0.7404232336749665,-0.2906332015991211,0.5860236883163452,2.490612745285034
10.500827312469482,0.052284952,0.11652079,-2.6927762,0.3020110256626443,nan,nan,nan,nan,0.4956984519958496,0.0008871555328369141,0.31205013,0.43924588,0.01992936,0.16730008032082766,-0.1701623275274209,9.947769242181678,-0.17987604,0.7042688,1.6580975,0.30922338,0.30258146,-3.0,0.7518673,0.6148227,0.57491475,0.0,-0.021644257,0.0055293543,9.8124485,0.00932907,-0.041111965,-0.14025171,0.010988759,0.7431876166799014,-0.7117321491241455,0.6672704815864563,1.7426656484603882
10.600871086120605,0.09702421,0.17805259,-2.6898134,0.5236297088874371,nan,nan,nan,nan,0.595695972442627,0.001039266586303711,0.3973489,0.6404638,-0.043764878,0.08636805789293384,-0.12139018429466919,9.985339995577235,-0.80977976,0.6033369,1.8900317,0.3704149,0.35894313,-3.0,0.73617506,0.6088595,0.5516876,0.0,-0.02567429,0.0066228844,9.81345,0.010647182,-0.039443474,-0.17409806,0.010879161,0.7446085964510933,-0.7904237508773804,0.35881006717681885,0.6342628598213196
10.70091199874878,0.14537962,0.2511439,-2.6938717,0.7479481237956074,nan,nan,nan,nan,0.6957736015319824,0.0010695457458496094,0.4426512,0.7404317,-0.10479826,-0.019972618872021897,-0.0800473801633188,9.978603191945007,-1.0392505,0.2961533,1.7605102,0.43100488,0.41282925,-3.0,0.71691954,0.60182214,0.5245677,0.0,-0.029526532,0.007705352,9.814569,0.011682282,-0.03749653,-0.21134287,0.010750203,0.7443539978259638,-0.5461824536323547,0.13139742612838745,-0.37260013818740845
10.80090880393982,0.19922426,0.3286374,-2.7064729,0.9436442816711708,nan,nan,nan,nan,0.7957804203033447,0.001394510269165039,0.520009,0.74801815,-0.18846425,-0.11965571774326905,-0.040323444866274816,9.945447960469176,-0.8473259,0.22472751,1.3514916,0.4907955,0.46378022,-3.0,0.6937512,0.5937335,0.49378565,0.0,-0.03316814,0.008773213,9.815777,0.012406077,-0.03528814,-0.2527692,0.010602464,0.7430997345324735,-0.0773255005478859,0.1252453327178955,-1.2389339208602905
10.900892496109009,0.27148876,0.4042662,-2.724056,1.0623378891287778,nan,nan,nan,nan,0.8957662582397461,0.0010967254638671875,0.66124356,0.6769972,-0.13586338,-0.18747897789132822,0.002770660387759971,9.917569074007913,-0.36670327,0.34551784,0.76844573,0.5497127,0.511468,-3.0,0.6661961,0.5846051,0.45954713,0.0,-0.036575723,0.009825157,9.8170395,0.012801288,-0.032833494,-0.29935992,0.010436321,0.7420434565077401,0.5286628007888794,0.2130584418773651,-1.8906737565994263
11.000998497009277,0.36608136,0.4612501,-2.731685,1.0672468092665874,nan,nan,nan,nan,0.9958853721618652,0.0010852813720703125,0.8379844,0.54311466,-0.029179428,-0.20025873956459705,0.044546721310258386,9.921428902914045,0.2388208,0.3978365,0.18601133,0.6077423,0.55562544,-3.0,0.63363147,0.5744372,0.42203414,0.0,-0.03973029,0.010860949,9.818327,0.012858977,-0.030146029,-0.35230678,0.010251933,0.7421897865546214,1.0786473751068115,0.11687418073415756,-2.1627120971679688
11.102378606796265,0.47290736,0.49191505,-2.727594,0.9942748372253641,nan,nan,nan,nan,1.0978574752807617,0.0025429725646972656,0.9753133,0.37898907,0.06221916,-0.16050621073186477,0.06953494122943105,9.943114805390355,0.71674126,0.20523858,-0.34844854,0.66574675,0.5965826,-3.0,0.5946332,0.5630428,0.3807785,0.0,-0.042655524,0.011896016,9.819627,0.012570409,-0.027192565,-0.4139943,0.010046078,0.7430113925321278,1.293537974357605,-0.12299434840679169,-2.128594160079956
11.203322172164917,0.6006665,0.49978247,-2.7128336,0.8586634077943069,nan,nan,nan,nan,1.198380470275879,0.0015642642974853516,1.0445243,0.20098802,0.13452381,-0.07606794781098691,0.06830652664975423,9.976856915225502,1.0473224,-0.14712642,-0.8879312,0.7217387,0.63270015,-3.0,0.5495881,0.550805,0.33738932,0.0,-0.0452345,0.012894951,9.820862,0.011952848,-0.024088547,-0.483827,0.009825813,0.7442879881632175,1.1255583763122559,-0.29469412565231323,-1.8359222412109375
11.301329612731934,0.7084975,0.48928732,-2.6974988,0.712685956620934,nan,nan,nan,nan,1.2966158390045166,0.0023889541625976562,1.0267876,0.09619894,0.10145774,0.01506568289125848,0.04901523587380874,10.030340544750212,1.0510594,-0.33869877,-1.2449102,0.775221,0.66366494,-3.0,0.49830562,0.53790206,0.2926749,0.0,-0.047445063,0.013848955,9.821994,0.01104815,-0.020891793,-0.5619706,0.0095944,0.7463070678178082,0.6204988360404968,-0.22298738360404968,-1.5098849534988403
11.401327848434448,0.8157197,0.47116524,-2.6880798,0.5367449873411133,nan,nan,nan,nan,1.3963065147399902,0.0014691352844238281,0.9472591,0.07912363,0.016851349,0.10123831800964547,0.03183846126922307,10.049654883017062,0.7310409,-0.24412024,-1.4692684,0.8281535,0.6904948,-3.0,0.43787768,0.52387714,0.24527425,0.0,-0.049360067,0.014793062,9.823038,0.009852325,-0.017504979,-0.6522254,0.009343708,0.7470348868377736,-0.036632273346185684,-0.024612581357359886,-1.0851012468338013
11.501118898391724,0.9068596,0.45968902,-2.6867952,0.3642583900916237,nan,nan,nan,nan,1.49617600440979,0.0017223358154296875,0.84607595,0.15025504,-0.035381205,0.141050252482203,0.03915370026950371,10.059272532855392,0.13342933,0.026454814,-1.5010355,0.87973297,0.7125463,-3.0,0.3677545,0.5089113,0.1960744,0.0,-0.050933734,0.015713025,9.823952,0.008408238,-0.013991426,-0.7539007,0.009077027,0.7473970463047774,-0.5779218077659607,0.11268089711666107,-0.7335934638977051
11.601413249969482,0.9877946,0.46500683,-2.6919255,0.20054892313189784,nan,nan,nan,nan,1.5964438915252686,0.0018188953399658203,0.73558795,0.26064903,-0.083329916,0.11702930155046784,0.06670681497171937,10.051697561499894,-0.44759464,0.15809552,-1.3637272,0.9299696,0.72967076,-3.0,0.28661472,0.4929899,0.1452988,0.0,-0.052155618,0.016609099,9.824714,0.00675211,-0.010366884,-0.8660087,0.008794109,0.7471118198430057,-0.8026163578033447,0.0673530176281929,-0.5088554620742798
11.701541662216187,1.0524976,0.48863792,-2.703293,0.0648269349336498,nan,nan,nan,nan,1.6965031623840332,0.0015289783477783203,0.6276835,0.33789268,-0.13924524,0.04825795980710114,0.08315178888768582,10.020389126149237,-0.6572999,0.03967008,-1.1261148,0.97846675,0.74163014,-3.0,0.19408245,0.47623488,0.09360713,0.0,-0.05300887,0.017474292,9.825299,0.0049404437,-0.00667815,-0.98408026,0.008497087,0.7459317966147555,-0.6885687112808228,-0.05538761615753174,-0.4697185158729553
11.801531314849854,1.095691,0.51747185,-2.7180974,-0.028614845796356002,nan,nan,nan,nan,1.796548843383789,0.001491546630859375,0.54144245,0.35417786,-0.18600102,-0.01272348687530944,0.07846132522931915,9.974354280439439,-0.5726362,-0.11139228,-0.9279678,1.025239,0.7483808,-3.0,0.08973022,0.45864576,0.041265193,0.0,-0.053490464,0.01830894,9.825699,0.0030214738,-0.002943804,-1.101002,0.008185878,0.7441933779182878,-0.48454415798187256,-0.14185678958892822,-0.6404914855957031
11.901341199874878,1.130133,0.5481247,-2.737357,-0.10579850148432011,nan,nan,nan,nan,1.8963038921356201,0.0016188621520996094,0.464821,0.32794455,-0.22736041,-0.060530075294423905,0.06071919720707153,9.919933464137141,-0.41830504,-0.18882081,-0.78402054,1.070083,0.74988055,-3.0,-0.025461895,0.4403059,-0.011213446,0.0,-0.053597454,0.019109474,9.825902,0.0010546953,0.00079994317,-1.2053723,0.00786186,0.7421330963250489,-0.26993757486343384,-0.15210115909576416,-0.8931753635406494
12.002477645874023,1.1615475,0.5789242,-2.7648635,-0.18578232438123593,nan,nan,nan,nan,1.9974722862243652,0.00226593017578125,0.38873252,0.2556956,-0.2655225,-0.09438421225630306,0.034771601594935087,9.86295982798678,-0.21406265,-0.18423802,-0.7165834,1.113654,0.7460558,-3.0,-0.15171333,0.4209213,-0.06435387,0.0,-0.0533246,0.019887649,9.825908,-0.0009381432,0.0045910007,-1.2849034,0.007519709,0.7399701048597952,-0.06181459501385689,-0.1010056585073471,-1.1450804471969604
12.108125925064087,1.1851121,0.59906125,-2.796075,-0.2647441556621848,nan,nan,nan,nan,2.103557825088501,0.002576112747192383,0.32573676,0.15666887,-0.29732707,-0.10824395041275772,0.011840754698296374,9.804114524928156,-0.051547747,-0.13100418,-0.75985855,1.1571937,0.73629326,-3.0,-0.29062903,0.3997833,-0.11957437,0.0,-0.05262811,0.02066573,9.8257,-0.0029641583,0.008531057,-1.3258892,0.0071467757,0.7377294873163973,0.07605769485235214,-0.04536794126033783,-1.4094587564468384
12.205325603485107,1.2019563,0.6063789,-2.827765,-0.3454513827173563,nan,nan,nan,nan,2.2007088661193848,0.0028400421142578125,0.27666235,0.055421285,-0.3277045,-0.10834792292918138,-0.005165609126343673,9.742938591447892,0.051614195,-0.073828936,-0.88215744,1.1950642,0.72225195,-3.0,-0.41944844,0.37973216,-0.1693268,0.0,-0.051626287,0.021342952,9.825326,-0.004709227,0.012081918,-1.3188857,0.0067929924,0.7353929871721548,0.15471352636814117,-0.0010457634925842285,-1.5797653198242188
12.30793023109436,1.2163732,0.6004197,-2.868272,-0.4558044042631684,nan,nan,nan,nan,2.3033084869384766,0.002893686294555664,0.22810273,-0.061033726,-0.36257112,-0.09578993600018657,-0.01998994752664629,9.701772530284943,0.14063405,-0.024092289,-1.0707377,1.2329091,0.70223415,-3.0,-0.5524964,0.3578745,-0.22064584,0.0,-0.05019785,0.02202022,9.824755,-0.0063857855,0.01574596,-1.2678955,0.006407121,0.7338165954974799,0.19666790962219238,0.0395335927605629,-1.6051963567733765
12.40484356880188,1.2244493,0.5855617,-2.9030383,-0.5562359167909714,nan,nan,nan,nan,2.400686740875244,0.0036077499389648438,0.19683287,-0.1441991,-0.38900658,-0.07948221974259617,-0.02870731021053019,9.654371726122918,0.19142453,0.015664348,-1.2220274,1.2667232,0.6784364,-3.0,-0.67226875,0.33651727,-0.26785213,0.0,-0.048499435,0.022625847,9.824064,-0.007775617,0.01911795,-1.1879982,0.0060297116,0.7319973054983991,0.19943378865718842,0.0566929429769516,-1.5932180881500244
12.50236964225769,1.2313371,0.56362927,-2.9401352,-0.6679163318184638,nan,nan,nan,nan,2.497406482696533,0.0014729499816894531,0.17407125,-0.21431442,-0.4109781,-0.05835075062609052,-0.03401111464807438,9.580741340724055,0.2197447,0.039480697,-1.3453304,1.2982225,0.6503322,-3.0,-0.78257227,0.3147502,-0.3129763,0.0,-0.046493303,0.023190489,9.823255,-0.008925637,0.022342948,-1.0910078,0.0056445487,0.729162418060692,0.16840627789497375,0.0684935599565506,-1.4865789413452148
12.602097988128662,1.2389276,0.53338087,-2.9825,-0.7989757327011897,nan,nan,nan,nan,2.5972983837127686,0.0023641586303710938,0.1609245,-0.2730618,-0.42571235,-0.03288246799031752,-0.03545431142454203,9.51183137675864,0.2273109,0.061896108,-1.4272918,1.3285182,0.616829,-3.0,-0.8862551,0.29172736,-0.3574214,0.0,-0.04410129,0.02373404,9.822314,-0.009841456,0.025521358,-0.9847477,0.0052364864,0.7264993894931121,0.10925156623125076,0.07336945086717606,-1.2728581428527832
12.711317777633667,1.2478384,0.49848682,-3.025735,-0.9338411602615166,nan,nan,nan,nan,2.7068002223968506,0.003415822982788086,0.1608922,-0.31348377,-0.43114343,-0.008383093536511954,-0.03226668215907691,9.441615443435733,0.19520964,0.08009998,-1.4397838,1.3590543,0.5751519,-3.0,-0.9878469,0.26590446,-0.40325698,0.0,-0.041124992,0.024282439,9.8211975,-0.010499739,0.028801516,-0.8721719,0.0047778557,0.7237759505734487,0.029527608305215836,0.06166005879640579,-1.0350279808044434
12.80414342880249,1.259499,0.46107978,-3.069172,-1.0649509897842695,nan,nan,nan,nan,2.79931902885437,0.0020804405212402344,0.17346956,-0.33689284,-0.4299427,0.01166118284028661,-0.025133161643134505,9.386199335661953,0.13666081,0.07323655,-1.3730009,1.3826289,0.53615373,-3.0,-1.0644598,0.2436484,-0.43935534,0.0,-0.038339343,0.024706215,9.820211,-0.010759589,0.031386696,-0.7855419,0.004381718,0.7216193890473309,-0.04737565666437149,0.048907309770584106,-0.742262601852417
12.902293920516968,1.2763611,0.4201243,-3.1159532,-1.195408728380011,nan,nan,nan,nan,2.8987245559692383,0.003971576690673828,0.19826435,-0.34762177,-0.4253722,0.025338187502481513,-0.015981377091313087,9.332843939868038,0.06888106,0.061957117,-1.2280383,1.4056436,0.49067163,-3.0,-1.1383748,0.21932879,-0.4751952,0.0,-0.0350898,0.025120288,9.81914,-0.010730106,0.03395513,-0.7036106,0.003947911,0.7195369980151963,-0.13419362902641296,0.021739285439252853,-0.44692814350128174
13.004717826843262,1.2943658,0.38636932,-3.1548743,-1.2919243327635608,nan,nan,nan,nan,2.9999492168426514,0.0020279884338378906,0.2238059,-0.3482333,-0.4221278,0.02939428214395101,-0.009416844765497645,9.293554702607222,-0.0021006996,0.032157857,-1.059245,1.426575,0.44086462,-3.0,-1.2059004,0.19417377,-0.5083047,0.0,-0.031530403,0.025497213,9.81807,-0.010374297,0.03632959,-0.632647,0.0034981726,0.7179997826578672,-0.19086307287216187,-0.02423814870417118,-0.26857155561447144
13.107082605361938,1.3220307,0.34571376,-3.2037914,-1.392610967163934,nan,nan,nan,nan,3.1023006439208984,0.0021419525146484375,0.25493428,-0.3441045,-0.41842934,0.025034330979512687,-0.006044314954835706,9.248529311624598,-0.08856859,-0.028155774,-0.8115157,1.4451319,0.3872829,-3.0,-1.2675089,0.16838397,-0.53806764,0.0,-0.02770036,0.025831668,9.81704,-0.009692743,0.038465533,-0.5731972,0.0030360352,0.716234135731975,-0.23484760522842407,-0.06549334526062012,-0.05673187971115112
13.20254135131836,1.3472642,0.31570074,-3.2420535,-1.452958007218019,nan,nan,nan,nan,3.1978600025177,0.002579927444458008,0.2730905,-0.3422336,-0.4131207,0.015385713437717552,-0.009646953605263908,9.211371334699225,-0.13597631,-0.08215103,-0.6126584,1.4600607,0.33468,-3.0,-1.320047,0.14402527,-0.5622906,0.0,-0.023939494,0.026100934,9.816155,-0.008783784,0.040205,-0.5279652,0.0025986289,0.714773765663736,-0.23052597045898438,-0.09900695085525513,0.023807883262634277
13.308900356292725,1.3744653,0.28664774,-3.279918,-1.4970673634064804,nan,nan,nan,nan,3.304340124130249,0.0030455589294433594,0.28215414,-0.34638917,-0.40478712,0.0026539119909555486,-0.018127779484541584,9.175015254524777,-0.16146912,-0.12032753,-0.42613113,1.4739394,0.27355587,-3.0,-1.374048,0.11661282,-0.585033,0.0,-0.019568557,0.026351428,9.815287,-0.007492412,0.041839093,-0.48807704,0.0021054335,0.7133420578567717,-0.2094593346118927,-0.12825872004032135,0.03321540355682373
13.424701690673828,1.3999867,0.2602084,-3.3135893,-1.5242482092900356,nan,nan,nan,nan,3.42248272895813,0.004135847091674805,0.28049347,-0.3580466,-0.39335573,-0.00997051108231739,-0.02857505998951937,9.161956494060583,-0.17095906,-0.13779137,-0.28156617,1.4859064,0.20321256,-3.0,-1.4296663,0.08592884,-0.60481524,0.0,-0.014537447,0.026567552,9.814501,-0.005767986,0.04326126,-0.455379,0.0015523606,0.712827109712569,-0.17902123928070068,-0.1615443080663681,-0.03609415888786316
13.518599271774292,1.4369334,0.21916133,-3.3617377,-1.5465139618027444,nan,nan,nan,nan,3.5145413875579834,0.0038301944732666016,0.2592984,-0.3911192,-0.36779523,-0.029534901727801932,-0.04630119190819415,9.145009550956317,-0.15739357,-0.14067024,-0.12269814,1.4927102,0.14698517,-3.0,-1.4707159,0.06186968,-0.6161341,0.0,-0.010515397,0.026690489,9.814038,-0.0042557274,0.044075318,-0.43748805,0.0011181039,0.7121582907899032,-0.09079157561063766,-0.06317713111639023,-0.07353001832962036
13.605911016464233,1.4590662,0.18986289,-3.3910644,-1.553052500582948,nan,nan,nan,nan,3.6013123989105225,0.002640962600708008,0.23286054,-0.42286718,-0.34515327,-0.040304295311781924,-0.05540577266074065,9.131533379760809,-0.12689568,-0.09937596,-0.06020152,1.4970917,0.093181476,-3.0,-1.5081507,0.039107595,-0.6234503,0.0,-0.0066664005,0.026769683,9.813735,-0.0027322264,0.04460163,-0.42623422,0.00070690946,0.7116260050327387,-0.04988591745495796,-0.04320251941680908,-0.1741744577884674
13.70596718788147,1.4819874,0.15098608,-3.4232144,-1.5564776942745886,nan,nan,nan,nan,3.7013680934906006,0.002716064453125,0.19180392,-0.46800643,-0.3133346,-0.049871274962998924,-0.06235440866596065,9.124351551962324,-0.08166543,-0.043252114,-0.030096093,1.4996887,0.030547563,-3.0,-1.550413,0.012798389,-0.6277972,0.0,-0.0021854662,0.02681663,9.813552,-0.00090238405,0.044914387,-0.41966173,0.00023137526,0.7113421746562619,0.008369885385036469,0.018160274252295494,-0.3148287236690521
13.809297323226929,1.499897,0.10678012,-3.4515836,-1.5596894248244444,nan,nan,nan,nan,3.7957963943481445,0.0028235912322998047,0.14326504,-0.5171502,-0.27930945,-0.05535906976621496,-0.06349932739728126,9.122240117966438,-0.043334056,0.011260372,-0.048187036,1.499724,-0.028767925,-3.0,-1.5899903,-0.012052498,-0.62785614,0.0,0.0020581458,0.026817264,9.81355,0.00084989815,0.04491863,-0.41957313,-0.0002178911,0.7112587082036811,0.05738075450062752,0.07638879865407944,-0.45837822556495667
13.909332990646362,1.5130032,0.05257076,-3.478014,-1.5682585995421294,nan,nan,nan,nan,3.9045934677124023,0.002495288848876953,0.08688959,-0.5690863,-0.24399172,-0.05672183366363348,-0.058715961199110156,9.126120833467,-0.0002752676,0.0847109,-0.12216523,1.4968561,-0.09686281,-3.0,-1.6359613,-0.040659018,-0.6230564,0.0,0.006929762,0.02676542,9.813751,0.0028382489,0.04457329,-0.426834,-0.000734944,0.7114121081467614,0.09965205192565918,0.12470320612192154,-0.619800329208374
14.005138397216797,1.5180562,0.006976161,-3.4959617,-1.581682937979099,nan,nan,nan,nan,4.000505447387695,0.0021562576293945312,0.042943805,-0.60363036,-0.21877101,-0.054532856032107335,-0.0507195916863461,9.133844172965043,0.033360377,0.13064349,-0.20558774,1.4917496,-0.15624464,-3.0,-1.6774786,-0.06580957,-0.6145329,0.0,0.011177772,0.026673134,9.814104,0.0045112334,0.04396014,-0.43998346,-0.0011892467,0.7117173053060735,0.12060627341270447,0.13873083889484406,-0.7521016597747803
14.102101802825928,1.5175314,-0.061142433,-3.517979,-1.613544220893446,nan,nan,nan,nan,4.09739089012146,0.0022678375244140625,-0.015106267,-0.6379454,-0.18691413,-0.04708662311592193,-0.03555875959497534,9.145261654268259,0.07512626,0.16594723,-0.3443743,1.4841471,-0.21520431,-3.0,-1.7210231,-0.09110746,-0.601897,0.0,0.015395184,0.026535774,9.814618,0.006076768,0.043051414,-0.4600875,-0.0016457699,0.7121682447019873,0.1449241191148758,0.14861389994621277,-0.8328088521957397
14.205938816070557,1.510629,-0.12738602,-3.5350773,-1.6578606846487645,nan,nan,nan,nan,4.201652526855469,0.0032761096954345703,-0.060600545,-0.65298843,-0.1595801,-0.036738049230577996,-0.020188055804886362,9.155960128466837,0.104878746,0.16834639,-0.4789973,1.473236,-0.27705878,-3.0,-1.7704757,-0.118162446,-0.583875,0.0,0.01981907,0.026338728,9.815331,0.0075722174,0.041755866,-0.49004832,-0.0021333382,0.712590531147958,0.1476014107465744,0.13587401807308197,-0.8970143795013428
14.305158615112305,1.5006028,-0.18957293,-3.5478907,-1.710846777848376,nan,nan,nan,nan,4.300522565841675,0.0021164417266845703,-0.09123732,-0.65266365,-0.13502446,-0.02517089138869888,-0.006515723173504684,9.167668286572448,0.123614654,0.15378125,-0.59696054,1.4602932,-0.33377087,-3.0,-1.8206928,-0.14361118,-0.5626698,0.0,0.02387449,0.026105126,9.816142,0.008766287,0.04023224,-0.5272798,-0.002591186,0.7130523888438178,0.1265571117401123,0.11116393655538559,-0.9353938698768616
14.41272497177124,1.4881094,-0.25643334,-3.5589483,-1.7796265256921986,nan,nan,nan,nan,4.408095836639404,0.002871990203857422,-0.10949835,-0.6393556,-0.108918205,-0.012723455111084525,0.0063311737878064545,9.189117852161875,0.113561794,0.11761426,-0.7073264,1.4433676,-0.39286253,-3.0,-1.8800719,-0.17101867,-0.5352212,0.0,0.028099235,0.025799861,9.817142,0.009776178,0.0382612,-0.578699,-0.003083295,0.7138977563935688,0.0748014971613884,0.07370024174451828,-0.9604717493057251
14.51110291481018,1.4764825,-0.31641802,-3.5664983,-1.8518751724797848,nan,nan,nan,nan,4.506782054901123,0.0039348602294921875,-0.11327919,-0.61868054,-0.08439049,-0.004803264539352758,0.014822517165256732,9.204754125486364,0.07424434,0.07852895,-0.78985035,1.4252621,-0.4442795,-3.0,-1.9399656,-0.19585805,-0.5062137,0.0,0.031774465,0.025473565,9.81814,0.010407972,0.036179584,-0.63698167,-0.0035283177,0.7145133895969528,0.025598475709557533,0.04283388704061508,-0.9752794504165649
14.612481355667114,1.4663945,-0.3691931,-3.5713503,-1.9243410590706218,nan,nan,nan,nan,4.6082305908203125,0.004334211349487305,-0.10921621,-0.5951585,-0.061669193,-0.001437412458263676,0.019969816667604112,9.22052397788619,0.02998011,0.043532386,-0.85141784,1.4041119,-0.49396873,-3.0,-2.0081306,-0.22104344,-0.47279173,0.0,0.03532539,0.02509272,9.819216,0.0107425675,0.03378283,-0.7089485,-0.0039785285,0.7151337527069224,-0.026312794536352158,0.007799105253070593,-1.0324652194976807
14.716942548751831,1.455445,-0.42889363,-3.5747018,-2.0163965853779775,nan,nan,nan,nan,4.7123212814331055,0.0027527809143066406,-0.10013005,-0.56484705,-0.034815546,-0.003228659726256966,0.02211516275193648,9.233176067780006,-0.025637165,0.0036738953,-0.91079766,1.3797762,-0.5412426,-3.0,-2.0863376,-0.24646953,-0.43495414,0.0,0.03870288,0.024654914,9.820337,0.01074209,0.031071411,-0.795917,-0.0044319755,0.7156310841158506,-0.07142981141805649,-0.019431261345744133,-1.0633331537246704
14.805140256881714,1.4477087,-0.4725384,-3.575695,-2.0914605454034323,nan,nan,nan,nan,4.801325082778931,0.00500178337097168,-0.09430706,-0.5406694,-0.014932586,-0.0087015993587376,0.02053465781434549,9.260317736576546,-0.07374255,-0.035952073,-0.95427066,1.3568858,-0.5784154,-3.0,-2.1608655,-0.2678406,-0.39996755,0.0,0.041358076,0.024243474,9.821282,0.010463799,0.028566033,-0.88020563,-0.0048122793,0.7166968271494539,-0.09268523752689362,-0.04504883289337158,-1.1418535709381104
14.907622814178467,1.4391022,-0.5216355,-3.5750043,-2.186483821786039,nan,nan,nan,nan,4.902833700180054,0.0024857521057128906,-0.09363934,-0.5108129,0.0066529503,-0.019603342927006162,0.014385574856163208,9.285129684518326,-0.11243532,-0.06046778,-1.0087181,1.3284793,-0.61687654,-3.0,-2.2554688,-0.2917584,-0.35736376,0.0,0.044104688,0.023733346,9.822315,0.009840432,0.025517236,-0.98488885,-0.0052370373,0.7176697258487956,-0.09061449766159058,-0.04536920040845871,-1.2377359867095947
15.003231763839722,1.4306655,-0.56688595,-3.5725121,-2.2872556559446844,nan,nan,nan,nan,4.998492956161499,0.0028214454650878906,-0.103550315,-0.47888952,0.02465242,-0.0321015195850467,0.005156276561917528,9.317637091587532,-0.12366256,-0.082658105,-1.0711471,1.2995112,-0.6490453,-3.0,-2.354556,-0.31381583,-0.31484577,0.0,0.04640143,0.023213599,9.823217,0.008968852,0.022476602,-1.0866929,-0.005628003,0.7189424053434067,-0.06562477350234985,-0.042418546974658966,-1.3243963718414307
15.105022668838501,1.4220345,-0.60494983,-3.5688586,-2.3852410476427353,nan,nan,nan,nan,5.100415229797363,0.002588987350463867,-0.12297404,-0.4479807,0.038375154,-0.04190515084637969,-0.005175936750279719,9.352540933202254,-0.10018407,-0.08579194,-1.1343426,1.2663519,-0.6787315,-3.0,-2.4706345,-0.3367623,-0.26732695,0.0,0.048520494,0.022619192,9.824073,0.0077611194,0.019080425,-1.189027,-0.006034045,0.7203064371944193,-0.047416336834430695,-0.039486393332481384,-1.489711046218872
15.202611923217773,1.4079232,-0.64904016,-3.563386,-2.5182863554907655,nan,nan,nan,nan,5.197877883911133,0.002211332321166992,-0.16032374,-0.40667993,0.051305536,-0.04924221782907279,-0.018868352313377468,9.382072130452142,-0.06562731,-0.06574034,-1.2249482,1.2324842,-0.7024957,-3.0,-2.5906014,-0.3581312,-0.22006081,0.0,0.05021652,0.022012614,9.824762,0.0063675535,0.01570418,-1.2687058,-0.0064116544,0.7214585212002989,-0.007975945249199867,0.001533659640699625,-1.5070568323135376
15.309621572494507,1.3915558,-0.6832971,-3.5584137,-2.6406078792359873,nan,nan,nan,nan,5.304973363876343,0.00422358512878418,-0.20064768,-0.3707314,0.057585414,-0.050613781806010616,-0.02963446903343092,9.403653525124533,-0.030414235,-0.07108731,-1.3096318,1.1929026,-0.72320616,-3.0,-2.7296445,-0.38092282,-0.16644393,0.0,0.05169437,0.021304283,9.825353,0.004610912,0.011876133,-1.3204666,-0.006814005,0.7222993177345671,-0.002075749449431896,0.0034834127873182297,-1.6179726123809814
15.40328311920166,1.3740257,-0.7096194,-3.554198,-2.7487885301070305,nan,nan,nan,nan,5.398560285568237,0.0024652481079101562,-0.23915647,-0.34131232,0.060267255,-0.04898289737147743,-0.039266351570653946,9.423378867517455,-0.024387175,-0.037006322,-1.389676,1.156346,-0.7365455,-3.0,-2.853773,-0.40021342,-0.118479095,0.0,0.05264611,0.020650575,9.825706,0.0029247308,0.008452899,-1.3255597,-0.0071543646,0.7230669602098367,-0.006674722768366337,0.010144662111997604,-1.6806795597076416
15.507042169570923,1.3425041,-0.74308324,-3.5486927,-2.9102816152941653,nan,nan,nan,nan,5.502375364303589,0.002557516098022461,-0.29825538,-0.30077437,0.06196031,-0.04326902751406525,-0.05000420270450978,9.444636582742673,-0.0029741512,-0.019328155,-1.4904594,1.1137178,-0.74604595,-3.0,-2.9896846,-0.42089167,-0.06443326,0.0,0.053323902,0.019888792,9.825908,0.00094110024,0.004596665,-1.2849957,-0.0075191855,0.7238933384331687,-0.02339375764131546,0.0639258325099945,-1.5352933406829834
15.616870641708374,1.3115889,-0.7664385,-3.5447626,-3.0439392649691186,nan,nan,nan,nan,5.612652540206909,0.0038754940032958984,-0.34668064,-0.2692997,0.063826814,-0.037243655714863655,-0.05557220254394646,9.462234250466567,-0.0036418992,-0.0026938764,-1.5506005,1.0661314,-0.7499599,-3.0,-3.1268897,-0.44198462,-0.0064989217,0.0,0.053603116,0.019038917,9.8258915,-0.0012320549,0.0004636188,-1.1968448,-0.007891504,0.724576731633984,-0.054214783012866974,0.03170466423034668,-1.4604415893554688
15.716456890106201,1.2682549,-0.79085296,-3.5401027,-3.2058602277053847,nan,nan,nan,nan,5.712201118469238,0.004060506820678711,-0.4039198,-0.2322741,0.06676149,-0.029231208985088797,-0.06044469183127954,9.469014334689122,-0.019127503,0.0062012686,-1.5718215,1.0212187,-0.74799955,-3.0,3.0422714,-0.46021682,0.04586027,0.0,0.05346327,0.018237185,9.825671,-0.0031922513,-0.00327162,-1.09108,-0.008213655,0.7248398618902048,-0.08745823055505753,0.04186771810054779,-1.1648387908935547
15.811427116394043,1.2224972,-0.81021273,-3.5355875,-3.3545396835745187,nan,nan,nan,nan,5.806990385055542,0.0035097599029541016,-0.4561935,-0.1976681,0.069931924,-0.02171580061081735,-0.06477870245031148,9.478817752461177,-0.016262194,-0.017356724,-1.5400995,0.97680163,-0.74129987,-3.0,2.944079,-0.47683427,0.09542551,0.0,0.052985303,0.017444583,9.825282,-0.0050058304,-0.0068078954,-0.9799221,-0.008507702,0.7252201590512064,-0.11166273057460785,0.02543073520064354,-0.8528494834899902
15.903701782226562,1.1802417,-0.8237264,-3.5315807,-3.473612554568022,nan,nan,nan,nan,5.899286985397339,0.0026760101318359375,-0.5000964,-0.16783689,0.06998318,-0.015406899388061612,-0.06860358491098051,9.488808528940423,-0.015308118,-0.031176455,-1.4573321,0.9320723,-0.73028624,-3.0,2.8586848,-0.49229267,0.14311212,0.0,0.052199528,0.016646609,9.824741,-0.0066777244,-0.010210822,-0.8709573,-0.008781738,0.7256075220085468,-0.14210836589336395,-0.010823703370988369,-0.6108738780021667
16.005475521087646,1.1142411,-0.83857197,-3.526135,-3.624290573769551,nan,nan,nan,nan,6.001021862030029,0.0033118724822998047,-0.5643296,-0.123943195,0.061994225,-0.006775744845368026,-0.07357335336915694,9.499014488171085,-0.025580589,-0.029685158,-1.2512606,0.88115805,-0.71309364,-3.0,2.7759542,-0.5084785,0.19467288,0.0,0.050972786,0.01573844,9.823976,-0.008364565,-0.01389136,-0.7569076,-0.009069327,0.7260030175385316,-0.207924023270607,0.019649263471364975,-0.23129451274871826
16.118781805038452,1.0409724,-0.8478627,-3.5225847,-3.74725960783137,nan,nan,nan,nan,6.114762544631958,0.0047760009765625,-0.6293978,-0.07507517,0.04270603,-0.003010353567024726,-0.07773159951106812,9.501264519189712,-0.061381545,-0.047247257,-0.9725512,0.8223456,-0.6877501,-3.0,2.696554,-0.52548,0.25062802,0.0,0.049164172,0.014689474,9.822928,-0.009997911,-0.01788742,-0.64164346,-0.009372318,0.7260901808735823,-0.2467888593673706,0.007911896333098412,0.0521998405456543
16.222553968429565,0.9727029,-0.851046,-3.5213661,-3.826429642371207,nan,nan,nan,nan,6.218210220336914,0.003698587417602539,-0.6841702,-0.02604233,0.022316618,-0.005457460186777396,-0.08127954891515876,9.499681590638351,-0.12737454,-0.0072979867,-0.71309626,0.76723063,-0.65927434,-3.0,2.6350474,-0.53990847,0.29955834,0.0,0.04713165,0.013706431,9.821829,-0.011202835,-0.021383783,-0.5495068,-0.009630333,0.7260288613147179,-0.258155882358551,-0.011669347994029522,0.2121955156326294
16.31188941001892,0.9121954,-0.8499351,-3.5216227,-3.8736240632373242,nan,nan,nan,nan,6.307339429855347,0.002786397933959961,-0.7254406,0.021440474,0.004388693,-0.012624593822883945,-0.08465428779892381,9.493500064156246,-0.15757598,-0.03945669,-0.5045785,0.71858543,-0.6307627,-3.0,2.5892487,-0.55152786,0.3399259,0.0,0.045096166,0.012838701,9.820793,-0.0119965775,-0.024269953,-0.4795888,-0.009838801,0.7257893521142731,-0.2525184750556946,-0.02138761803507805,0.28832268714904785
16.405895948410034,0.84885705,-0.8443915,-3.5230308,-3.9038861342339564,nan,nan,nan,nan,6.4010374546051025,0.0020368099212646484,-0.7617036,0.07777202,-0.011102176,-0.023163649597332858,-0.089059247115018,9.481175531587791,-0.17631012,-0.03233514,-0.29882553,0.6663688,-0.59700304,-3.0,2.5474172,-0.56291366,0.38031572,0.0,0.04268555,0.011907116,9.81964,-0.012565392,-0.027159449,-0.4147106,-0.01004375,0.72531159339489,-0.24099400639533997,-0.008677372708916664,0.3104951083660126
16.502749919891357,0.7566787,-0.8269978,-3.526577,-3.9219418637052983,nan,nan,nan,nan,6.497982501983643,0.00217437744140625,-0.8014154,0.17294736,-0.025589105,-0.04207942234054762,-0.09258604995587771,9.465390790394736,-0.18637788,0.016283156,-0.060706683,0.6112625,-0.55820584,-3.0,2.5101318,-0.57378143,0.41963756,0.0,0.039914608,0.010923773,9.818406,-0.012851474,-0.0299744,-0.35578117,-0.010240065,0.7246992464321295,-0.1773884892463684,0.08667482435703278,0.29713818430900574
16.60356068611145,0.6826263,-0.8046329,-3.529868,-3.920318081104812,nan,nan,nan,nan,6.598543405532837,0.0016720294952392578,-0.8197174,0.25790033,-0.02980436,-0.057884484724028074,-0.08789469159843266,9.4502793180861,-0.1699034,0.07881837,0.08021619,0.5530374,-0.5140769,-3.0,2.477108,-0.58405465,0.45749947,0.0,0.036762122,0.009884508,9.817113,-0.012813671,-0.03268675,-0.30218893,-0.010426319,0.7241125394309279,-0.13116991519927979,0.08509369939565659,0.2129918932914734
16.70346212387085,0.60190576,-0.7709494,-3.533394,-3.907899715589946,nan,nan,nan,nan,6.69902777671814,0.003389596939086914,-0.82334477,0.35504022,-0.027048511,-0.07378205990235132,-0.07810213565035795,9.438154527164293,-0.13746367,0.11340338,0.17681268,0.4938764,-0.46633905,-3.0,2.4491596,-0.5932851,0.49209133,0.0,0.033351004,0.008828229,9.815842,-0.012434793,-0.03516663,-0.25505176,-0.010594289,0.7236414518794574,-0.06003352254629135,0.09883775562047958,0.0986524224281311
16.814238786697388,0.5160792,-0.723248,-3.5361583,-3.8882237879805643,nan,nan,nan,nan,6.8095622062683105,0.002541065216064453,-0.808604,0.46111837,-0.018241435,-0.08707323922950905,-0.063462339501005,9.431240235707953,-0.093569756,0.12526964,0.21817522,0.427792,-0.41002563,-3.0,2.4235508,-0.60222423,0.52610874,0.0,0.029326128,0.007647961,9.8145075,-0.011634731,-0.037607126,-0.20925844,-0.010757561,0.723372673688564,0.0019326619803905487,0.12574678659439087,-0.038210973143577576
16.90316867828369,0.43927172,-0.6685928,-3.5369215,-3.869688849738365,nan,nan,nan,nan,6.898334264755249,0.0020542144775390625,-0.7800544,0.5567529,-0.0070944433,-0.09431855494613584,-0.0494916897333324,9.428709301679627,-0.033253003,0.133851,0.20059891,0.37404794,-0.36223158,-3.0,2.4064631,-0.60846967,0.55017704,0.0,0.025909401,0.0066877995,9.813514,-0.010717192,-0.039334994,-0.17621712,-0.010872006,0.7232742644469957,0.11950992047786713,0.10965913534164429,-0.1532483547925949
17.012614727020264,0.35994288,-0.598518,-3.5359159,-3.854085630163649,nan,nan,nan,nan,7.0078125,0.0021872520446777344,-0.7369143,0.65366936,0.005774012,-0.09453423134720818,-0.03395593743833292,9.42731485935044,0.05730585,0.1369517,0.142016,0.30706388,-0.30056113,-3.0,2.3892348,-0.6150125,0.5756581,0.0,0.021499785,0.0054907566,9.812416,-0.009278026,-0.04116537,-0.13911499,-0.010992254,0.7232200392901448,0.20802344381809235,0.10836084932088852,-0.2571250796318054
17.102375507354736,0.2913886,-0.5252043,-3.5334826,-3.8465840973575744,nan,nan,nan,nan,7.097598075866699,0.002282857894897461,-0.6910341,0.7307045,0.016521629,-0.0842080111132757,-0.020884821817459764,9.428113788572366,0.15852326,0.12101336,0.06112987,0.25164044,-0.24807414,-3.0,2.3780174,-0.6194139,0.5929524,0.0,0.017746149,0.00450005,9.811645,-0.007873791,-0.042408336,-0.11106788,-0.011073353,0.7232511074423102,0.2569909691810608,0.05986715108156204,-0.3113800585269928
17.201990604400635,0.22830102,-0.44547862,-3.529875,-3.8472871442229892,nan,nan,nan,nan,7.197412967681885,0.0024645328521728516,-0.6454802,0.7896099,0.025907962,-0.06584773324425619,-0.011560338178428387,9.430472539440954,0.22347674,0.077197835,-0.029456323,0.18961193,-0.18809094,-3.0,2.3684063,-0.6232784,0.6082388,0.0,0.013455811,0.00339104,9.810945,-0.006114728,-0.043507457,-0.08180448,-0.011144708,0.723342825073355,0.2650274634361267,0.018197517842054367,-0.3254814147949219
17.31190776824951,0.16532692,-0.35470152,-3.5248005,-3.8572045682829605,nan,nan,nan,nan,7.308046340942383,0.004366159439086914,-0.6046333,0.8301288,0.03514216,-0.04055768399741799,-0.006684085535302531,9.43548280816641,0.25610465,0.029928187,-0.118883766,0.12047781,-0.12008858,-3.0,2.3610694,-0.6262886,0.6202119,0.0,0.008591307,0.0021547582,9.810386,-0.0039764266,-0.044368654,-0.051067952,-0.011200381,0.7235376062318789,0.2657504677772522,-0.01883194036781788,-0.2930384874343872
17.40569829940796,0.114812925,-0.2761096,-3.519505,-3.871633884794214,nan,nan,nan,nan,7.401118040084839,0.0021965503692626953,-0.5822244,0.8462229,0.042325955,-0.01817185237590091,-0.006195097099060742,9.439893399813439,0.24987574,-0.006830946,-0.17646654,0.06211101,-0.06205774,-3.0,2.357483,-0.62777966,0.62616396,0.0,0.004439778,0.0011108932,9.810103,-0.002073489,-0.044796873,-0.026098974,-0.011227993,0.7237090313145033,0.18100328743457794,-0.037636443972587585,-0.22573751211166382
17.52001976966858,0.052182533,-0.17683482,-3.512028,-3.895030473888048,nan,nan,nan,nan,7.517156362533569,0.007525920867919922,-0.5728332,0.8460655,0.051015038,0.007966745918611906,-0.00897850059803873,9.44934124726918,0.20561224,-0.03263468,-0.21420327,-0.010780015,0.010779737,-3.0,2.3562331,-0.62830234,0.62825364,0.0,-0.0007712164,-0.00019280906,9.810003,0.00036131006,-0.044947233,0.00451595,-0.011237675,0.7240761031195375,0.0790027529001236,-0.030612627044320107,-0.1085062250494957
17.603466272354126,0.00259174,-0.10092958,-3.5060234,-3.9146264965076005,nan,nan,nan,nan,7.599213600158691,0.005286455154418945,-0.580265,0.83355975,0.05745901,0.023193504781507057,-0.011321315019008793,9.456456772127416,0.14047177,-0.03363708,-0.21331298,-0.0623203,0.06226649,-3.0,2.3574917,-0.627776,0.6261494,0.0,-0.0044547133,-0.0011146365,9.810103,0.0020804184,-0.04479583,0.02618748,-0.011227926,0.7243524373991564,0.011718709021806717,-0.0031253788620233536,-0.004704698920249939
17.71196937561035,-0.06367822,-0.007922709,-3.4982796,-3.9369747066446994,nan,nan,nan,nan,7.707389831542969,0.0032606124877929688,-0.60335416,0.80847883,0.06460497,0.034724413288062195,-0.013812368603917546,9.466554758140113,0.05902493,-0.0135119315,-0.17788373,-0.13014337,0.1296526,-3.0,2.3618903,-0.6259492,0.618859,0.0,-0.009275492,-0.002327613,9.810449,0.0042842794,-0.044271328,0.05527471,-0.011194101,0.7247444183619426,-0.08431291580200195,0.03994537889957428,0.13195092976093292
17.804980039596558,-0.1140309,0.05605408,-3.4927278,-3.948796527731162,nan,nan,nan,nan,7.8006768226623535,0.002736806869506836,-0.6250136,0.7877667,0.06838571,0.03652896255148219,-0.012942655869847552,9.480436931290889,-0.015513698,0.017981993,-0.12749115,-0.18842228,0.18692979,-3.0,2.3682506,-0.6233417,0.60849,0.0,-0.013372755,-0.003369768,9.810933,0.0060793445,-0.04352552,0.08126098,-0.011145876,0.7252829518020338,-0.13088206946849823,0.04581306129693985,0.22867843508720398
17.912081241607666,-0.18354392,0.13608238,-3.4858203,-3.956392161756849,nan,nan,nan,nan,7.907366037368774,0.002438068389892578,-0.6512342,0.76054555,0.07089571,0.030749333575539328,-0.009048040377356292,9.4948671424773,-0.092586264,0.04580303,-0.037378315,-0.25471553,0.25101623,-3.0,2.3785727,-0.6191933,0.5920827,0.0,-0.017956568,-0.0045550237,9.811684,0.007956182,-0.042345814,0.112571895,-0.011069285,0.7258423275951721,-0.16058525443077087,0.059613242745399475,0.3278546929359436
18.003956079483032,-0.23944569,0.19471908,-3.480616,-3.955139490339313,nan,nan,nan,nan,7.9993414878845215,0.0028290748596191406,-0.6651765,0.7407327,0.071311064,0.02180752169749023,-0.004783795954499848,9.506295803227687,-0.12730175,0.057079617,0.04310005,-0.31146327,0.3046749,-3.0,2.3902388,-0.61462426,0.5741383,0.0,-0.021793958,-0.005569387,9.812483,0.009381706,-0.041056167,0.14143457,-0.010985106,0.7262850490732999,-0.15956808626651764,0.054418422281742096,0.3936871886253357
18.10409688949585,-0.30762568,0.26213554,-3.4744534,-3.945211855884412,nan,nan,nan,nan,8.099491596221924,0.0023255348205566406,-0.6707258,0.7200609,0.07056034,0.008667307791084822,0.0010401412569187585,9.51641455736127,-0.13899519,0.06480756,0.14179748,-0.37272578,0.36103562,-3.0,2.4060812,-0.608612,0.5507285,0.0,-0.025823893,-0.0066641755,9.81349,0.010691826,-0.039374594,0.17544436,-0.01087462,0.7266768055482407,-0.1276049166917801,0.048398569226264954,0.4449704587459564
18.201916456222534,-0.38647473,0.3377337,-3.4674182,-3.9224743280184997,nan,nan,nan,nan,8.196759462356567,0.0020368099212646484,-0.6602158,0.70155257,0.0687782,-0.0055532101868374095,0.007626913689662951,9.525303647184037,-0.114116125,0.052946255,0.24927652,-0.43159828,0.41334638,-3.0,2.4248817,-0.6017475,0.5242818,0.0,-0.029563498,-0.007715952,9.814581,0.011690972,-0.03747601,0.21172938,-0.010748838,0.7270207826727382,-0.06903001666069031,0.05126331374049187,0.45768073201179504
18.30123257637024,-0.45718887,0.40639985,-3.4616113,-3.891807356941574,nan,nan,nan,nan,8.296120882034302,0.0010135173797607422,-0.636848,0.6894504,0.06694351,-0.014435153321686434,0.013306102882617354,9.533913730868363,-0.06494711,0.046908353,0.33451316,-0.49099785,0.4639485,-3.0,2.4479277,-0.59370416,0.4936747,0.0,-0.033180166,-0.008776828,9.815781,0.012407991,-0.035280187,0.25291863,-0.010601928,0.7273538102316044,-0.007728502154350281,0.04345250874757767,0.45942795276641846
18.400869607925415,-0.51918733,0.46855435,-3.4569058,-3.856980318231577,nan,nan,nan,nan,8.395667552947998,0.0010502338409423828,-0.6074389,0.67943054,0.06545668,-0.017018125483636126,0.01814233868841697,9.541985762232207,-0.0052416697,0.03678336,0.39307076,-0.54965585,0.5114233,-3.0,2.4753675,-0.58461446,0.45958203,0.0,-0.03657253,-0.00982414,9.817039,0.012801065,-0.032835998,0.29931173,-0.01043649,0.7276658900320906,0.04568810760974884,0.026500999927520752,0.46813979744911194
18.500791311264038,-0.57295936,0.5242403,-3.4526343,-3.820903956653267,nan,nan,nan,nan,8.495614290237427,0.001016855239868164,-0.5776963,0.6686437,0.06451288,-0.014425608003185486,0.02126390243713483,9.548856783771184,0.04586609,0.020542847,0.43467352,-0.60758674,0.5555111,-3.0,2.5078657,-0.57446605,0.42213976,0.0,-0.039722126,-0.010858172,9.818324,0.012859277,-0.03015359,0.352154,-0.010252454,0.7279314325635509,0.08695182204246521,0.007991394959390163,0.500579297542572
18.600924015045166,-0.6375642,0.5932339,-3.4472573,-3.770804710915069,nan,nan,nan,nan,8.595692157745361,0.0008540153503417969,-0.5417739,0.64934576,0.06320777,-0.0048724106395836575,0.023046329618261474,9.555003378951222,0.09802355,0.00015437789,0.47130266,-0.66452736,0.5957571,-3.0,2.5460646,-0.5632955,0.38168445,0.0,-0.042596575,-0.011874259,9.819599,0.0125801265,-0.027257401,0.4125936,-0.010050636,0.7281688974353399,0.10412469506263733,0.007114294916391373,0.5087206363677979
18.700552701950073,-0.6940218,0.6552373,-3.4425998,-3.72097411552834,nan,nan,nan,nan,8.695329427719116,0.0009624958038330078,-0.51426834,0.6234828,0.062316228,0.007967727108548983,0.022759741865594707,9.56110672351089,0.12153354,-0.0084363,0.49797058,-0.72005814,0.63166904,-3.0,2.5905323,-0.55119073,0.33874258,0.0,-0.04516088,-0.01286497,9.820826,0.011976287,-0.024185328,0.48156336,-0.009832744,0.7284046158189554,0.10519035160541534,0.004469972103834152,0.555182695388794
18.801403522491455,-0.7431767,0.70980024,-3.438713,-3.6725255909195123,nan,nan,nan,nan,8.796180248260498,0.0008914470672607422,-0.49531204,0.59065115,0.060746767,0.021368643245336383,0.021192126608958972,9.567406144404083,0.13549237,-0.018186893,0.5247464,-0.77498734,0.6635378,-3.0,2.643043,-0.5379611,0.29287714,0.0,-0.04743599,-0.013844788,9.821989,0.011052769,-0.020906247,0.5616021,-0.009595457,0.7286478280158879,0.0960351750254631,0.0001121126115322113,0.6531081795692444
18.90114665031433,-0.78688186,0.7567293,-3.4355688,-3.6255825043510206,nan,nan,nan,nan,8.896871089935303,0.0029489994049072266,-0.48435915,0.55242413,0.058061082,0.03390334435219966,0.018552784674107814,9.5735660878208,0.1302825,-0.020212881,0.5565975,-0.8284498,0.6906335,-3.0,2.7040842,-0.52379495,0.24500006,0.0,-0.049369957,-0.014798346,9.823044,0.009844801,-0.017485393,0.65276986,-0.009342241,0.7288855777576749,0.08146844804286957,0.00039018411189317703,0.8040212392807007
19.001186847686768,-0.8339048,0.80381954,-3.433008,-3.57036973724771,nan,nan,nan,nan,8.996169567108154,0.0018231868743896484,-0.4793473,0.5022212,0.0528471,0.046884400695203166,0.014605718914513455,9.578797367216321,0.12445519,-0.021463096,0.6121912,-0.87973034,0.7125452,-3.0,2.7738342,-0.5089121,0.19607708,0.0,-0.05093366,-0.015712976,9.823952,0.008408321,-0.013991615,0.75389504,-0.009077043,0.7290874246440124,0.048610664904117584,0.017275527119636536,0.9691015481948853
19.100720167160034,-0.88092864,0.8453659,-3.431311,-3.508726234750391,nan,nan,nan,nan,9.09553575515747,0.0009274482727050781,-0.480508,0.44273984,0.045407705,0.058011289324498394,0.010758538325667644,9.582293470074656,0.09624936,0.00039887568,0.69047004,-0.92952216,0.7295386,-3.0,2.8541925,-0.493138,0.14576355,0.0,-0.05214619,-0.016601117,9.824707,0.0067678913,-0.010400055,0.8649578,-0.008796737,0.7292222896917464,0.013766983523964882,0.03233210742473602,1.1613274812698364
19.200850248336792,-0.93302274,0.88282084,-3.430349,-3.4318318151306584,nan,nan,nan,nan,9.19570255279541,0.0011448860168457031,-0.48559293,0.3690299,0.033896834,0.06696020597796704,0.006810356009895546,9.582713636948032,0.067141116,0.010091126,0.8069489,-0.97808564,0.7415551,-3.0,2.9467235,-0.47637215,0.094023466,0.0,-0.053003512,-0.017467493,9.825295,0.004955424,-0.006707857,0.9831284,-0.008499518,0.7292384963188159,-0.028690753504633904,0.051877379417419434,1.3487493991851807
19.301831483840942,-0.98692405,0.9116702,-3.430377,-3.341457044339643,nan,nan,nan,nan,9.296941995620728,0.0019550323486328125,-0.49201664,0.28867468,0.018556753,0.0720228911733618,0.002923767968829649,9.579058565624297,0.02849348,0.022735616,0.9515898,-1.0254195,0.748397,-3.0,3.052296,-0.45857495,0.04105843,0.0,-0.053491622,-0.01831216,9.8257,0.0030137817,-0.002929053,1.1014463,-0.008184628,0.7290975014383771,-0.057034119963645935,0.066634900867939,1.5338327884674072
19.401171922683716,-1.0382233,0.93048733,-3.4315588,-3.243942448668136,nan,nan,nan,nan,9.396100282669067,0.0014348030090332031,-0.4966292,0.21194921,0.001152155,0.07324733491886426,-0.0007522277840446012,9.570819317974385,0.0088230455,0.03239341,1.1036499,-1.0699936,0.7498828,-3.0,-3.1163754,-0.44034404,-0.011106614,0.0,-0.053597614,-0.01910788,9.825901,0.0010587148,0.000792322,1.2051812,-0.007862534,0.7287795726284155,-0.05959847941994667,0.0727141946554184,1.7097489833831787
19.50115180015564,-1.094277,0.942286,-3.4344258,-3.120878396532933,nan,nan,nan,nan,9.496129512786865,0.0015416145324707031,-0.49787864,0.1284836,-0.021335077,0.0729301213980349,-0.0055675496044200745,9.558063978009162,-0.0020293782,0.037250146,1.2861524,-1.1130891,0.7461416,-3.0,-2.9916024,-0.42118335,-0.063651405,0.0,-0.05333072,-0.01987756,9.825909,-0.000911976,0.004540884,1.2840822,-0.0075243325,0.7282871107972367,-0.06200672686100006,0.08428626507520676,1.7999197244644165
19.601362943649292,-1.1457518,0.94580424,-3.4389133,-2.9903414906116343,nan,nan,nan,nan,9.59682297706604,0.002459287643432617,-0.4946245,0.053073462,-0.041264407,0.07124382965357112,-0.010920176010905447,9.53858925183886,-0.004770647,0.028464785,1.4514415,-1.1544966,0.73708683,-3.0,-2.8598895,-0.40114918,-0.11609222,0.0,-0.05268473,-0.020617515,9.825719,-0.002838678,0.008282573,1.3247705,-0.0071708723,0.7275345906922897,-0.03918040916323662,0.07718314230442047,1.8484965562820435
19.70127010345459,-1.2008467,0.9422029,-3.4454873,-2.8318303190593577,nan,nan,nan,nan,9.696229934692383,0.0014553070068359375,-0.48708206,-0.025513897,-0.059743553,0.0684753753712839,-0.017703226937288763,9.52189443608397,-0.0028494203,0.03175363,1.6089947,-1.1933616,0.7230052,-3.0,-2.728053,-0.3806705,-0.16705564,0.0,-0.05168003,-0.021312496,9.825347,-0.0046318057,0.011919799,1.3201431,-0.006809551,0.7268888769407158,-0.01709853485226631,0.07459733635187149,1.7418562173843384
19.80176544189453,-1.2506257,0.93208253,-3.4529088,-2.6724130553743732,nan,nan,nan,nan,9.796871423721313,0.0018055438995361328,-0.47682828,-0.095108345,-0.07260047,0.06553015938502305,-0.026148231258880994,9.496002685033021,0.0020937445,0.0032727541,1.7182524,-1.230601,0.7036442,-3.0,-2.597272,-0.3592657,-0.21747008,0.0,-0.050298482,-0.0219789,9.824796,-0.006286547,0.015519171,1.2722346,-0.0064316913,0.725886327963126,0.019365038722753525,0.057453498244285583,1.5850499868392944
19.902843236923218,-1.3026925,0.91418564,-3.4618025,-2.4913796348085433,nan,nan,nan,nan,9.898358345031738,0.003223896026611328,-0.46354458,-0.16835642,-0.07742238,0.06061910559931283,-0.03703179143198909,9.473421667866647,0.00177993,-0.012007578,1.7647439,-1.2659392,0.6790586,-3.0,-2.472092,-0.33703446,-0.26674324,0.0,-0.048543844,-0.0226118,9.824081,-0.0077449796,0.019038724,1.1901671,-0.006038857,0.7250108568436914,0.05530866980552673,0.05598905310034752,1.289172887802124
20.006234884262085,-1.348775,0.8916955,-3.470097,-2.323507096125343,nan,nan,nan,nan,10.00161361694336,0.002361297607421875,-0.4502616,-0.23427816,-0.075997554,0.05413695070490787,-0.04698681378506686,9.451462539933859,0.0010878299,-0.022701422,1.7306025,-1.299545,0.64901125,-3.0,-2.3544388,-0.31379122,-0.31489494,0.0,-0.046399,-0.023214208,9.823216,-0.008969984,0.022480117,1.0865793,-0.005627566,0.7241584952582116,0.10171978175640106,0.027939774096012115,0.993421733379364
20.106761693954468,-1.3931361,0.86352384,-3.477756,-2.162461737367816,nan,nan,nan,nan,10.102249145507812,0.0033562183380126953,-0.4370841,-0.29976526,-0.07378988,0.04678681469808854,-0.05679965599518,9.436599135004222,0.006437483,-0.033538006,1.619129,-1.3299599,0.61505383,-3.0,-2.2504745,-0.29057246,-0.35956204,0.0,-0.043974534,-0.023759922,9.822266,-0.009879208,0.025674498,0.9795015,-0.0052159973,0.7235809979434681,0.1416022628545761,0.015048211440443993,0.6686216592788696
20.204375505447388,-1.4286796,0.8358089,-3.4837024,-2.0385429794312246,nan,nan,nan,nan,10.199684381484985,0.002552509307861328,-0.4262305,-0.35544452,-0.07442467,0.040960715419113836,-0.06450032802992345,9.421766248844802,0.029994862,-0.006491809,1.4744072,-1.3571564,0.5780109,-3.0,-2.1599765,-0.26759994,-0.40037772,0.0,-0.041329186,-0.024248337,9.821272,-0.010468384,0.028595394,0.87920296,-0.0048080008,0.7230042328131775,0.17607775330543518,-0.016780786216259003,0.44331255555152893
20.305782318115234,-1.4726244,0.79383785,-3.4911928,-1.8976092440536536,nan,nan,nan,nan,10.301141738891602,0.002826690673828125,-0.41054744,-0.42972565,-0.08205872,0.03448632849718036,-0.07236793097870708,9.408511052035035,0.034529362,-0.03549933,1.2256341,-1.383073,0.53535163,-3.0,-2.0757012,-0.2432058,-0.44004124,0.0,-0.038282048,-0.0247142,9.820192,-0.010761932,0.03143583,0.7839306,-0.004373831,0.7224884306352993,0.20470444858074188,0.013304071500897408,0.13345152139663696
20.402434587478638,-1.5140657,0.7441455,-3.4991758,-1.7843911944045823,nan,nan,nan,nan,10.397560596466064,0.003310680389404297,-0.39161947,-0.5075411,-0.09393191,0.031839123706662864,-0.07872671462231517,9.3915072775411,0.0658687,-0.01335632,0.94476604,-1.4053882,0.49122417,-3.0,-2.004037,-0.21961567,-0.47479442,0.0,-0.03512928,-0.025115695,9.819153,-0.0107323,0.033926398,0.7044991,-0.003953034,0.7218262269905473,0.2036948949098587,0.046601541340351105,-0.1036309003829956
20.5061776638031,-1.5498098,0.69102293,-3.507737,-1.7066037379536678,nan,nan,nan,nan,10.50185775756836,0.003828763961791992,-0.36776873,-0.58124596,-0.107658684,0.03332688121746885,-0.0811794542597879,9.374536503307757,0.08430556,-7.907068e-05,0.672516,-1.4269452,0.4398936,-3.0,-1.9344854,-0.19369581,-0.50889486,0.0,-0.031461004,-0.025503889,9.81805,-0.010364491,0.036371928,0.63142747,-0.003489618,0.7211647105230345,0.2006668746471405,0.05936345085501671,-0.20624428987503052
20.609264135360718,-1.5820061,0.63112056,-3.5174704,-1.6539873958314475,nan,nan,nan,nan,10.605084419250488,0.0039038658142089844,-0.33545437,-0.6539662,-0.11819893,0.03851087699003064,-0.08132657120456566,9.35726145213121,0.11192057,0.033496287,0.4199146,-1.4455999,0.3857835,-3.0,-1.8724896,-0.16767776,-0.53882307,0.0,-0.02759317,-0.025840104,9.817014,-0.0096698655,0.038519774,0.57174355,-0.0030233662,0.7204907181555678,0.18672311305999756,0.08974938839673996,-0.22829723358154297
20.705978631973267,-1.6124655,0.5585977,-3.5291126,-1.6219946826438785,nan,nan,nan,nan,10.701267004013062,0.0024535655975341797,-0.28932726,-0.7282139,-0.122629635,0.04860659811393653,-0.07604067888198562,9.339486001931368,0.12835078,0.090269975,0.1896895,-1.4605502,0.3327624,-3.0,-1.8197488,-0.14315207,-0.56308883,0.0,-0.02380238,-0.026109764,9.816126,-0.008746811,0.040262345,0.52652305,-0.002582934,0.7197965527775719,0.1364816576242447,0.1325770616531372,-0.19754111766815186
20.805556535720825,-1.6319907,0.49782893,-3.5383651,-1.6116600628554127,nan,nan,nan,nan,10.80081820487976,0.0023255348205566406,-0.24477085,-0.77875245,-0.11979047,0.05821328963492034,-0.06819912668407069,9.32349188392633,0.12859169,0.11765387,0.05413359,-1.4735273,0.27561462,-3.0,-1.7692652,-0.1175233,-0.58435446,0.0,-0.019715788,-0.026343988,9.815313,-0.007539393,0.041790325,0.48923138,-0.002121829,0.7191713870129808,0.10710439085960388,0.12743127346038818,-0.08446362614631653
20.908381938934326,-1.651654,0.40651497,-3.5507052,-1.6110907195862652,nan,nan,nan,nan,10.903729438781738,0.002634286880493164,-0.16909885,-0.8362238,-0.1065688,0.07211637628466006,-0.05336532703676933,9.30930395444506,0.11611448,0.14052328,-0.05954507,-1.4842491,0.21452856,-3.0,-1.7205068,-0.09081512,-0.60206634,0.0,-0.015346849,-0.02653762,9.814611,-0.006059514,0.043063592,0.4598133,-0.0016404974,0.7186163711933065,0.002781808376312256,0.15208621323108673,0.06043529510498047
21.006527185440063,-1.6593928,0.33823097,-3.5587406,-1.615635575519864,nan,nan,nan,nan,11.0024573802948,0.002778768539428711,-0.10652095,-0.8659939,-0.092643365,0.08032564131946807,-0.04093998636837215,9.302736169748242,0.0739193,0.15650558,-0.08814532,-1.4919436,0.15442206,-3.0,-1.6761748,-0.06503346,-0.6148561,0.0,-0.011047394,-0.026676638,9.814091,-0.0044611217,0.043983385,0.43947875,-0.001175233,0.7183593036506052,-0.052417412400245667,0.1440269500017166,0.2219589352607727
21.10273051261902,-1.661318,0.26834518,-3.5653877,-1.6204413791268633,nan,nan,nan,nan,11.0982506275177,0.0025725364685058594,-0.038870767,-0.8855101,-0.076664455,0.08496563888750008,-0.027283647579427583,9.298525578227126,0.02640567,0.16606219,-0.07848086,-1.4969707,0.09508982,-3.0,-1.6347473,-0.03991173,-0.62324804,0.0,-0.006802923,-0.026767492,9.813744,-0.0027872142,0.04458708,0.42654207,-0.0007214404,0.7181944505065293,-0.11926482617855072,0.12157109379768372,0.37901169061660767
21.221479654312134,-1.653451,0.15535988,-3.5734253,-1.6214830605344273,nan,nan,nan,nan,11.216888904571533,0.0025670528411865234,0.07073533,-0.8939639,-0.05353656,0.08204385421980209,-0.007696882235233904,9.299347557941218,-0.06417284,0.13504535,0.019469522,-1.4998558,0.020801242,-3.0,-1.5846696,-0.008714043,-0.62807685,0.0,-0.001488186,-0.02681965,9.81354,-0.0006147676,0.04493451,0.4192417,-0.00015753791,0.7182266356004854,-0.22188282012939453,0.09038436412811279,0.5574908256530762
21.306309461593628,-1.6449246,0.10636989,-3.5759594,-1.616906925322402,nan,nan,nan,nan,11.3018639087677,0.002523183822631836,0.116947584,-0.8902814,-0.044987842,0.07700880348755534,-0.0009180550597591708,9.30378894432797,-0.11654801,0.11404862,0.08529725,-1.4996461,-0.032577533,-3.0,-1.5490557,0.013649266,-0.62772554,0.0,0.002330696,-0.026815856,9.813556,0.00096223236,0.044909228,0.41976935,0.00024675723,0.7184005160666471,-0.23389099538326263,0.07490720599889755,0.6777141094207764
21.403897762298584,-1.633924,0.05817656,-3.5779083,-1.6085583346754413,nan,nan,nan,nan,11.399207830429077,0.002734661102294922,0.15965122,-0.8823285,-0.03758963,0.06883605271342996,0.004634726241699028,9.309868741774697,-0.16515967,0.09453954,0.1604313,-1.4970713,-0.09350678,-3.0,-1.5079283,0.03924465,-0.6234161,0.0,0.0066896724,-0.026769312,9.813736,0.002741604,0.044599168,0.4262862,0.00070938625,0.7186384731171066,-0.21426576375961304,0.032613933086395264,0.8075942993164062
21.50422191619873,-1.6093667,-0.015840987,-3.583623,-1.5835117900123095,nan,nan,nan,nan,11.49954104423523,0.002682209014892578,0.22192903,-0.8610808,-0.09270899,0.05260166188329618,0.009487231512642191,9.300572293469445,-0.16988035,0.037737876,0.30830425,-1.491813,-0.15565236,-3.0,-1.4645381,0.06555732,-0.6146383,0.0,0.011135404,-0.026674274,9.8141,0.004494958,0.043967724,0.43981874,0.001184692,0.7182745881941489,-0.18516109883785248,0.008169149048626423,0.8897210359573364
21.609997034072876,-1.5777911,-0.09529824,-3.5970466,-1.5398745208091063,nan,nan,nan,nan,11.605841398239136,0.004171848297119141,0.27033728,-0.8332972,-0.12322385,0.03696563935970898,0.009518640956752478,9.287067268857495,-0.14458825,0.006025958,0.47782737,-1.4833678,-0.2202856,-3.0,-1.4166725,0.09330762,-0.6006055,0.0,0.015758626,-0.026521696,9.814671,0.0062059374,0.04295855,0.46218398,0.0016854474,0.7177456455163852,-0.15661302208900452,0.016104109585285187,0.9297287464141846
21.72072672843933,-1.5451146,-0.16569893,-3.6122642,-1.4844313760902512,nan,nan,nan,nan,11.716057062149048,0.0024611949920654297,0.300836,-0.80645823,-0.13756809,0.024837487240929046,0.00820679067725627,9.271014549651879,-0.11804729,0.0040334496,0.6226216,-1.471507,-0.28544915,-3.0,-1.3640229,0.1218839,-0.58103144,0.0,0.0204191,-0.026307514,9.815442,0.007760711,0.041551504,0.49491587,0.002200341,0.7171164184014288,-0.11312553286552429,0.025581037625670433,0.9516112804412842
21.803101301193237,-1.5223694,-0.21106292,-3.6224093,-1.4402555514136752,nan,nan,nan,nan,11.799442768096924,0.004080772399902344,0.3143287,-0.78862923,-0.14118671,0.018213459628006468,0.007819088818912245,9.254177098789947,-0.098232694,0.0115058245,0.7063699,-1.4604483,-0.333163,-3.0,-1.3214691,0.14333442,-0.5629226,0.0,0.023831025,-0.026107928,9.816132,0.008754557,0.040250402,0.5268232,0.0025862113,0.7164558461089273,-0.07294149696826935,0.031135406345129013,0.9760027527809143
21.906601905822754,-1.4851084,-0.28250158,-3.6374602,-1.3588166315549326,nan,nan,nan,nan,11.901840448379517,0.0024156570434570312,0.32647255,-0.75967014,-0.13640767,0.010376826365584568,0.00936199008946259,9.23471606261446,-0.059057318,0.033516668,0.81181395,-1.4444323,-0.38950944,-3.0,-1.26513,0.16943404,-0.5369385,0.0,0.027859533,-0.025819054,9.8170805,0.00972636,0.03838448,0.5753751,0.0030548726,0.71569159533764,-0.0158066563308239,0.04523511230945587,0.9229477643966675
22.01143455505371,-1.445811,-0.35643432,-3.6497774,-1.2619589204014112,nan,nan,nan,nan,12.006669759750366,0.004420280456542969,0.33000773,-0.72702485,-0.11990254,0.007826204287099126,0.013590500298105157,9.222632707277079,-0.0067518954,0.056913726,0.8798523,-1.4252839,-0.4442231,-3.0,-1.201698,0.1958302,-0.5062484,0.0,0.031770438,-0.025473958,9.818139,0.010407426,0.036182076,0.6369095,0.0035278194,0.7152166668365093,0.034305326640605927,0.05691775679588318,0.8466548919677734
22.108415365219116,-1.4162694,-0.41198903,-3.655438,-1.1822996062038325,nan,nan,nan,nan,12.103625059127808,0.002539396286010742,0.3290062,-0.6979661,-0.10003374,0.010426716936517755,0.018094417408591967,9.216581996971504,0.039021306,0.064620964,0.90590364,-1.405127,-0.49178827,-3.0,-1.136718,0.2199087,-0.4743844,0.0,0.035169587,-0.025110994,9.819166,0.010734493,0.033897005,0.70540863,0.003958266,0.7149787306604388,0.087306447327137,0.05794186517596245,0.8515699505805969
22.21074652671814,-1.3822953,-0.4745472,-3.6577888,-1.0867471938805155,nan,nan,nan,nan,12.20595383644104,0.006282329559326172,0.328094,-0.65742916,-0.07201427,0.019296943192181004,0.023618782154178453,9.218528545167059,0.0912345,0.065262176,0.91178536,-1.3813406,-0.5384655,-3.0,-1.0603048,0.24492717,-0.43736663,0.0,0.03850449,-0.024683047,9.820269,0.010752205,0.031244226,0.7902224,0.0044045006,0.7150552846115892,0.11183837801218033,0.044265881180763245,0.8548413515090942
