time,x,y,z,yaw,platform,trajectory,controller,feedforward,traj_time,comp_time,vx,vy,vz,roll,pitch,f,p,q,r,x_ref,y_ref,z_ref,yaw_ref,vx_ref,vy_ref,vz_ref,roll_ref,pitch_ref,f_ref,u_ff_df,u_ff_dphi,u_ff_dpsi,u_ff_dth,throttle,p_cmd,q_cmd,r_cmd
10.001514673233032,-0.013903491,0.041788697,-2.6402724,-0.001750644993784552,SIM,trefoil,contraction,0.0,2.384185791015625e-06,0.01493978500366211,-0.007741493,-0.019483274,-0.18901019,-0.011946124648305974,-0.004202914905859112,9.823052291870118,0.0041907085,-0.0034772323,0.00065142923,4.993428e-06,-1.0,-3.0000012,0.0,2.0943952,2.928299e-06,-0.50265485,0.12455249,3.0130653e-07,9.886586,-0.7876117,0.009973837,0.0,0.12637714,0.7384513013698052,-0.27838134765625,-3.048736572265625,-0.007659912109375
10.100986003875732,-0.014772438,0.03870876,-2.6563141,-0.0015382244753747807,nan,nan,nan,nan,0.09930586814880371,0.0005657672882080078,-0.00681025,-0.01987282,-0.19440703,-0.012140623707362932,-0.017076024209212726,9.89876678466797,-0.03870213,-0.88892287,-0.0008463585,0.20778188,-0.9939477,-3.049787,0.0,2.0882378,0.1218135,-0.498746,0.1250725,0.012635937,9.808777,-0.7774463,0.00044106334,0.0,0.1279702,0.7413302350096401,-0.0760955810546875,-3.0959625244140625,0.010711669921875
10.201820373535156,-0.012699664,0.035117757,-2.6802602,0.00047535938719230064,nan,nan,nan,nan,0.2001800537109375,0.0006279945373535156,0.073428534,-0.024588874,-0.30734926,-0.015651763339461156,-0.16326487713585558,9.954755554199219,0.012276313,-2.413224,2.2683176e-05,0.417588,-0.97545516,-3.0995636,0.0,2.0694175,0.24459057,-0.48683473,0.12461453,0.02558941,9.731398,-0.75465137,-0.009570326,0.0,0.12869696,0.74345205185218,0.237457275390625,-2.20111083984375,0.14862060546875
10.302510738372803,0.0068693315,0.031228522,-2.7107382,0.004088799482112367,nan,nan,nan,nan,0.3009152412414551,0.0007567405700683594,0.34318897,-0.02586163,-0.32632077,-0.00386758772261621,-0.3892305552491293,9.959799118041989,0.2661514,-1.8576221,0.020408379,0.6245786,-0.9447178,-3.1476774,0.0,2.0381126,0.36526936,-0.46714354,0.12313572,0.03854935,9.657038,-0.719722,-0.01982638,0.0,0.12843956,0.7436428954294209,0.514190673828125,-0.5097808837890625,0.35833740234375
10.40162467956543,0.07245557,0.026491102,-2.7419035,0.009221633034290527,nan,nan,nan,nan,0.39989614486694336,0.0006022453308105469,0.80869186,0.0012126111,-0.2685694,0.03735375330135199,-0.48448142065201694,9.945171661376946,0.53494364,-0.06499855,0.08827201,0.8242949,-0.90280664,-3.1926558,0.0,1.9953818,0.48104578,-0.44051138,0.12066733,0.05120747,9.587966,-0.67411727,-0.03006867,0.0,0.1271527,0.7430892733536982,0.5142822265625,0.744964599609375,0.449798583984375
10.501614809036255,0.16377153,0.024491895,-2.7604377,0.023349793695038933,nan,nan,nan,nan,0.4999692440032959,0.0007009506225585938,1.1825731,0.057962082,-0.21509938,0.07596104995384677,-0.4476274637826607,9.926698532104487,0.5699869,0.8333524,0.16536227,1.0213253,-0.8489616,-3.2351017,0.0,1.9404043,0.5943698,-0.4066677,0.117137104,0.06382105,9.523258,-0.6173834,-0.040485274,0.0,0.12474438,0.7423895176170672,0.408966064453125,1.1147613525390625,0.412994384765625
10.600889444351196,0.33277228,0.028202975,-2.7780998,0.059204628729025544,nan,nan,nan,nan,0.5992734432220459,0.0008237361907958984,1.5907167,0.17914739,-0.17158365,0.11372620936527225,-0.3356934751861407,9.906405410766594,0.39589363,1.2687783,0.25726557,1.2108356,-0.78454065,-3.2735524,0.0,1.8745079,0.70224476,-0.3667336,0.11260543,0.07604262,9.465148,-0.55143,-0.050762694,0.0,0.12120575,0.7416200703047026,0.1636810302734375,1.1809234619140625,0.288482666015625
10.701586723327637,0.50813717,0.04093161,-2.790579,0.09842549871462612,nan,nan,nan,nan,0.7000548839569092,0.0008656978607177734,1.83138,0.3061073,-0.16218083,0.12679808193044756,-0.22597887511827697,9.87853065490722,0.17793362,1.2829555,0.30027547,1.3959136,-0.7084787,-3.308223,0.0,1.7965285,0.8062021,-0.3203775,0.10697158,0.08802675,9.41332,-0.4757457,-0.060995016,0.0,0.116416246,0.7405618668464109,0.0363311767578125,1.04425048828125,0.16229248046875
10.801040172576904,0.75503755,0.07213266,-2.8070598,0.1478029971806516,nan,nan,nan,nan,0.7993810176849365,0.0006604194641113281,1.9932071,0.46622807,-0.17365378,0.1250149208204186,-0.09826227179957026,9.842381210327142,-0.027532093,1.0855657,0.29689822,1.5701046,-0.62356925,-3.3375645,0.0,1.7092456,0.90240943,-0.2696659,0.100425884,0.099306375,9.370084,-0.39373174,-0.07073782,0.0,0.110512204,0.7391873070502389,-0.094207763671875,0.7772369384765625,0.010894775390625
10.902161359786987,0.9898303,0.11600471,-2.8250885,0.18515048033801407,nan,nan,nan,nan,0.90083909034729,0.0013070106506347656,2.0189989,0.5913521,-0.19243327,0.11160993294044112,-0.006132605159892668,9.79126632690429,-0.15030333,0.79775,0.24252976,1.7385702,-0.52732736,-3.3621101,0.0,1.6100017,0.99349153,-0.21354024,0.092764884,0.11016254,9.334655,-0.30370924,-0.080181174,0.0,0.10329454,0.7372393805340062,-0.10552978515625,0.5359039306640625,-0.097259521484375
11.002886056900024,1.1984801,0.16638257,-2.8442886,0.20897584888631543,nan,nan,nan,nan,1.0015017986297607,0.0009520053863525391,1.9639479,0.6776086,-0.20793161,0.09543074816586193,0.05500398247906357,9.730643997192375,-0.17432891,0.5510424,0.1634712,1.8952836,-0.42310077,-3.3806553,0.0,1.5021293,1.0759467,-0.15442637,0.08424941,0.12015234,9.308785,-0.20960374,-0.08888335,0.0,0.09500508,0.7349225337672635,-0.044219970703125,0.3565826416015625,-0.165679931640625
11.101519584655762,1.4077665,0.22833823,-2.8672092,0.2227096214068764,nan,nan,nan,nan,1.1001198291778564,0.0011525154113769531,1.8474362,0.74128413,-0.21758331,0.08130407748876595,0.09907677460612341,9.663536758422845,-0.11352135,0.3422772,0.06731827,2.0378616,-0.3133487,-3.3929262,0.0,1.3880669,1.1484333,-0.09411368,0.07509559,0.12907931,9.292797,-0.11425073,-0.09661604,0.0,0.085878864,0.7323494162464514,0.02410888671875,0.2085113525390625,-0.209381103515625
11.202076435089111,1.5812474,0.2900472,-2.8889198,0.22545815761810328,nan,nan,nan,nan,1.2005634307861328,0.0010402202606201172,1.7056814,0.7821847,-0.21816319,0.07525324655110582,0.12471379304901364,9.593629074096674,-0.02685312,0.20385572,-0.018289296,2.171122,-0.19466329,-3.3992283,0.0,1.2641373,1.2132256,-0.031206653,0.06503453,0.13719998,9.286276,-0.015449321,-0.10354681,0.0,0.07567577,0.7296594008311212,0.084228515625,0.1175537109375,-0.2274169921875
11.301504850387573,1.7458773,0.3604435,-2.9115262,0.21962401017154448,nan,nan,nan,nan,1.299865484237671,0.0013637542724609375,1.5289884,0.81887907,-0.20977736,0.07606534230881763,0.1405645132059301,9.524489593505852,0.044383295,0.09499897,-0.09507686,2.2902818,-0.07139808,-3.399215,0.0,1.1347334,1.2677906,0.031477254,0.054455213,0.1441817,9.289603,0.08236915,-0.10934264,0.0,0.064826064,0.726989288280507,0.0963134765625,0.0410919189453125,-0.229217529296875
11.402297019958496,1.875983,0.42893717,-2.9306526,0.20802856241603737,nan,nan,nan,nan,1.4007022380828857,0.0007152557373046875,1.3544797,0.8540966,-0.19408655,0.0809114422629714,0.14794391943103968,9.459077758789055,0.07986271,0.030643733,-0.14721489,2.3978186,0.0588122,-3.3928485,0.0,0.9972047,1.3130716,0.094623886,0.043181565,0.15013656,9.302865,0.18027945,-0.11405614,0.0,0.05319485,0.7244541982722845,0.0842742919921875,0.001312255859375,-0.218963623046875
11.50181770324707,1.9943638,0.50852376,-2.9490244,0.19092838535971995,nan,nan,nan,nan,1.5001287460327148,0.000705718994140625,1.1608057,0.89947647,-0.16941479,0.08653595739915321,0.1504881347738305,9.400198745727533,0.074629605,-0.014065802,-0.18481505,2.4900088,0.19115674,-3.3804026,0.0,0.85645777,1.3473374,0.15540636,0.031660862,0.15483676,9.325474,0.27391264,-0.11748029,0.0,0.04129411,0.7221647867782041,0.029083251953125,-0.036376953125,-0.199920654296875
11.601003885269165,2.0765607,0.58126926,-2.962553,0.17428185924092782,nan,nan,nan,nan,1.5993409156799316,0.0006093978881835938,0.9975516,0.94388163,-0.14378409,0.08870380974477793,0.1497902189449567,9.350214538574214,0.033714905,-0.041910708,-0.20171304,2.5678368,0.32608828,-3.3620718,0.0,0.71185064,1.3709406,0.21364342,0.019887382,0.15833351,9.357111,0.3630259,-0.11965058,0.0,0.029169839,0.7202156016316186,-0.0125274658203125,-0.0338897705078125,-0.179901123046875
11.701326370239258,2.154027,0.67553014,-2.9753826,0.15355646844153692,nan,nan,nan,nan,1.7004671096801758,0.0015156269073486328,0.81015164,1.000914,-0.109529965,0.08599718585151153,0.1468692508198477,9.31021949768066,-0.021789914,-0.056564223,-0.20838805,2.6322277,0.4654756,-3.3376052,0.0,0.56115144,1.3838712,0.26958507,0.0077298405,0.16065466,9.398175,0.44801176,-0.120577544,0.0,0.016739057,0.7186521989733811,-0.079681396484375,-0.0426025390625,-0.15447998046875
11.802107810974121,2.2087445,0.7707374,-2.9837556,0.13445077564467994,nan,nan,nan,nan,1.801349401473999,0.0008985996246337891,0.6449358,1.0532808,-0.0754501,0.0778358534773455,0.14351898556645004,9.281285324096675,-0.08301261,-0.058251735,-0.20418863,2.6811533,0.60525733,-3.3077724,0.0,0.40850338,1.3854128,0.3210607,-0.00442758,0.16172151,9.4473505,0.52558494,-0.12023779,0.0,0.0044434187,0.7175190702087338,-0.1280670166015625,-0.02838134765625,-0.131500244140625
11.907053709030151,2.2509835,0.8822017,-2.9892,0.1146045965023428,nan,nan,nan,nan,1.9058644771575928,0.0011243820190429688,0.47528434,1.1040022,-0.037523497,0.06312641901547929,0.1396743402977343,9.263793640136715,-0.13908073,-0.050816447,-0.19054519,2.7155209,0.7496146,-3.2716625,0.0,0.249019,1.3749593,0.36894554,-0.01692038,0.16153198,9.506102,0.5970603,-0.11861559,0.0,-0.0080081215,0.716833198879628,-0.16961669921875,-0.0130462646484375,-0.10809326171875
12.00104808807373,2.2758307,0.99166805,-2.9907722,0.09755331958436331,nan,nan,nan,nan,1.9993999004364014,0.0007281303405761719,0.32772607,1.1400015,-0.002774213,0.045360431551912626,0.13701647805539308,9.25776931762695,-0.17657748,-0.025062965,-0.17336196,2.7321253,0.87737465,-3.235358,0.0,0.10606129,1.355208,0.4064335,-0.02790665,0.16027625,9.564602,0.6523809,-0.11614182,0.0,-0.018772827,0.7165968275896787,-0.194580078125,-0.00286865234375,-0.089569091796875
12.101512432098389,2.2890348,1.1152827,-2.988766,0.08076424192635849,nan,nan,nan,nan,2.100696086883545,0.0010950565338134766,0.17587543,1.1633246,0.03400851,0.02324016595871412,0.13537422347695993,9.263676605224607,-0.2049155,-0.01967862,-0.15224673,2.7350547,1.0131078,-3.1923947,0.0,-0.04801097,1.322825,0.44069153,-0.03949372,0.15780558,9.6333,0.70218235,-0.112471275,0.0,-0.029908799,0.7168286076111088,-0.206298828125,0.006072998046875,-0.072845458984375
12.201297044754028,2.289754,1.2224358,-2.9836423,0.06798193088207435,nan,nan,nan,nan,2.19973087310791,0.0007555484771728516,0.052901737,1.1681527,0.064426675,0.0031617931576915365,0.13467033079952873,9.280820541381836,-0.21423233,0.0023195418,-0.13408864,2.722908,1.1420946,-3.1473756,0.0,-0.19692455,1.2802747,0.46729407,-0.050417375,0.15432972,9.704803,0.7399743,-0.107994005,0.0,-0.040177844,0.7175008538459069,-0.2046661376953125,0.040313720703125,-0.06207275390625
12.300981998443604,2.280402,1.3397489,-2.9743528,0.05555479249602986,nan,nan,nan,nan,2.2993438243865967,0.0006780624389648438,-0.07699765,1.1561161,0.095914386,-0.018722191305571702,0.1358806671319306,9.309306259155274,-0.21144216,0.015910994,-0.11416016,2.695939,1.2670531,-3.0997953,0.0,-0.34402055,1.2268553,0.4867598,-0.060918245,0.14984135,9.779935,0.7665328,-0.10272068,0.0,-0.04981845,0.7186164613853067,-0.198089599609375,0.049041748046875,-0.05389404296875
12.401051044464111,2.2583914,1.4647117,-2.9596856,0.043729602926287116,nan,nan,nan,nan,2.399340867996216,0.0010540485382080078,-0.21512866,1.1229063,0.12878455,-0.041551666228496105,0.13737863886938406,9.348430175781251,-0.2016839,0.023522062,-0.09633479,2.654304,1.3866193,-3.0504618,0.0,-0.48801875,1.1628366,0.49863893,-0.07089741,0.14440659,9.857421,0.78122663,-0.09676846,0.0,-0.058753345,0.7201459223897945,-0.181915283203125,0.03570556640625,-0.047637939453125
12.501176357269287,2.2269452,1.5760504,-2.9426534,0.034208754035843926,nan,nan,nan,nan,2.499485492706299,0.0008950233459472656,-0.34159622,1.0744238,0.1570119,-0.06109078051576965,0.1390231643068771,9.39788368225098,-0.18312752,0.018659355,-0.081419066,2.5983992,1.4994403,-3.0002584,0.0,-0.6276153,1.0886855,0.50265473,-0.08026654,0.13810688,9.935883,0.7836916,-0.09026145,0.0,-0.06692828,0.7220746231350595,-0.166534423828125,0.031768798828125,-0.0443115234375
12.607633113861084,2.1807969,1.6904348,-2.9211454,0.025308683574200404,nan,nan,nan,nan,2.606668710708618,0.001138925552368164,-0.47734228,1.0042077,0.18431225,-0.07999948194189527,0.13975264833609402,9.457306671142579,-0.16261268,0.005511761,-0.069617234,2.5233903,1.6114032,-2.9465427,0.0,-0.7708843,0.9987322,0.4981458,-0.089545846,0.13050285,10.019418,0.7726981,-0.08281405,0.0,-0.07481164,0.7243854366189318,-0.1496124267578125,0.0218353271484375,-0.0421142578125
12.700850486755371,2.126028,1.7887743,-2.8992095,0.018191143139484924,nan,nan,nan,nan,2.699141263961792,0.0007541179656982422,-0.6019809,0.9249562,0.20519055,-0.09538485800222504,0.13921370753241002,9.525353240966798,-0.14433376,-0.007565629,-0.06101856,2.4466166,1.6998441,-2.900942,0.0,-0.8885992,0.91282606,0.48699757,-0.09689432,0.12329823,10.089994,0.7520216,-0.07607688,0.0,-0.08090091,0.7270227013307864,-0.12890625,-0.0059051513671875,-0.040283203125
12.80285358428955,2.0527565,1.8859068,-2.873862,0.011684174708362194,nan,nan,nan,nan,2.8017919063568115,0.0014393329620361328,-0.73548377,0.8253645,0.22292899,-0.10944217820352092,0.13624297604562385,9.60023323059082,-0.116758995,-0.037278414,-0.05365277,2.3489966,1.7882941,-2.851913,0.0,-1.0120611,0.8090781,0.46693873,-0.104308784,0.1146787,10.16551,0.717264,-0.068345346,0.0,-0.086908735,0.7299139440295699,-0.1104278564453125,-0.0298614501953125,-0.03814697265625
12.907434463500977,1.9721987,1.9658717,-2.8493326,0.006591066613536291,nan,nan,nan,nan,2.9059503078460693,0.0006506443023681641,-0.85512537,0.72339946,0.23381093,-0.12015952810707783,0.13126344103386844,9.680965805053711,-0.09836247,-0.05855455,-0.048071243,2.2374253,1.8667208,-2.8046827,0.0,-1.128769,0.6955096,0.43865672,-0.11101019,0.105342746,10.237853,0.6698576,-0.06030489,0.0,-0.09222862,0.7330185612118504,-0.1089630126953125,-0.028778076171875,-0.03619384765625
13.014484167098999,1.8795835,2.0354686,-2.8239849,0.0021887860012884813,nan,nan,nan,nan,3.013071060180664,0.0017421245574951172,-0.97029305,0.6128748,0.23856893,-0.12921078496991328,0.12487417953240865,9.765854492187497,-0.082670584,-0.07145223,-0.04363044,2.110516,1.9346149,-2.7596023,0.0,-1.2389666,0.5708607,0.40174857,-0.11702083,0.09520473,10.306462,0.6091764,-0.051898938,0.0,-0.09692685,0.7362690739545236,-0.116180419921875,-0.023712158203125,-0.03424072265625
13.10256052017212,1.7760496,2.093696,-2.7988276,-0.001575638992389522,nan,nan,nan,nan,3.1008260250091553,0.0010514259338378906,-1.0785581,0.49497074,0.23723052,-0.13691349883317172,0.11709076435373644,9.845990600585932,-0.071051285,-0.08607769,-0.04227327,1.9981253,1.9800317,-2.7258785,0.0,-1.3212718,0.46348286,0.3660621,-0.12127053,0.086550705,10.357429,0.55119085,-0.044947546,0.0,-0.10022488,0.7393246651470008,-0.0953826904296875,-0.0576324462890625,-0.031036376953125
13.200808048248291,1.642588,2.1470468,-2.7706494,-0.005460366580691073,nan,nan,nan,nan,3.1991007328033447,0.0008649826049804688,-1.1953511,0.35051984,0.22666669,-0.14473111236464956,0.10680321613265886,9.934629135131836,-0.059566915,-0.098409675,-0.038051978,1.8641123,2.0194707,-2.692083,0.0,-1.404413,0.33834785,0.3208415,-0.12530352,0.076542206,10.40808,0.47831792,-0.03712283,0.0,-0.10336456,0.7426900058044786,-0.0605010986328125,-0.1042633056640625,-0.02679443359375
13.300985097885132,1.5292445,2.177077,-2.7504,-0.007964510126836383,nan,nan,nan,nan,3.2993035316467285,0.0007789134979248047,-1.2786402,0.23158984,0.2114444,-0.14980066389010613,0.0974161051161404,10.02103248596191,-0.049509846,-0.108920544,-0.034346566,1.7195661,2.046791,-2.6624565,0.0,-1.4788854,0.2062705,0.26970705,-0.1286226,0.06604815,10.451967,0.39647755,-0.029122649,0.0,-0.105999246,0.7459560635532385,-0.072998046875,-0.09197998046875,-0.024505615234375
13.400847673416138,1.3865122,2.1993334,-2.7298324,-0.010606654434203014,nan,nan,nan,nan,3.399170398712158,0.0007517337799072266,-1.3658575,0.08726614,0.18495895,-0.15492381109194175,0.08563972663397434,10.102967376708982,-0.04389129,-0.11458195,-0.03173533,1.568615,2.0606637,-2.6382468,0.0,-1.5423324,0.071027316,0.21449386,-0.1311325,0.055353604,10.487221,0.3086029,-0.021141144,0.0,-0.10808999,0.7490402309941361,-0.053131103515625,-0.1115875244140625,-0.0206298828125
13.500821352005005,1.2466693,2.2071478,-2.7149408,-0.01281787733903604,nan,nan,nan,nan,3.4990971088409424,0.0007610321044921875,-1.4357166,-0.049042158,0.1533653,-0.1586545014486449,0.0740174650978016,10.179439239501953,-0.035129678,-0.11947656,-0.02893171,1.4117849,2.0608847,-2.6197178,0.0,-1.5946958,-0.066969186,0.15587093,-0.13284597,0.04446917,10.513454,0.21574463,-0.0131533295,0.0,-0.109676614,0.7519074972299458,-0.0514984130859375,-0.1151123046875,-0.017333984375
13.602543592453003,1.0999694,2.202494,-2.704008,-0.014873187107470029,nan,nan,nan,nan,3.601486921310425,0.001100778579711914,-1.4948095,-0.18727139,0.11493005,-0.1614660351316895,0.061802140217951385,10.24938087463379,-0.027014615,-0.1277305,-0.026247032,1.2462596,2.046709,-2.6069458,0.0,-1.6365235,-0.21014231,0.09326507,-0.13377368,0.03317753,10.530514,0.11700214,-0.0049678213,0.0,-0.110802375,0.7545205013679477,-0.0569610595703125,-0.1154327392578125,-0.013671875
13.701398372650146,0.93481565,2.182748,-2.6969976,-0.01671558937418452,nan,nan,nan,nan,3.699831962585449,0.0007200241088867188,-1.5459905,-0.33876055,0.0666897,-0.1638770088766074,0.04803812720217171,10.30967071533203,-0.015083368,-0.14141028,-0.022579141,1.0838112,2.0192466,-2.6007946,0.0,-1.6652349,-0.34838814,0.0316677,-0.13387552,0.02224647,10.537271,0.020234745,0.0028981683,0.0,-0.11142352,0.7567657704035368,-0.0313568115234375,-0.133697509765625,-0.009429931640625
13.800898313522339,0.76461786,2.1474433,-2.6955729,-0.017859201007938974,nan,nan,nan,nan,3.7992002964019775,0.0005753040313720703,-1.5818411,-0.4912975,0.012356502,-0.16442994006978676,0.032990240801370696,10.359922866821288,0.0010628407,-0.14620464,-0.017590858,0.91737425,1.9776936,-2.6007643,0.0,-1.6827252,-0.48783258,-0.031058181,-0.13319229,0.011161899,10.534401,-0.07793107,0.010855047,0.0,-0.11160207,0.75863221169812,-0.0095977783203125,-0.1401824951171875,-0.00469970703125
13.900839567184448,0.60426456,2.1014862,-2.6997752,-0.018519390437382016,nan,nan,nan,nan,3.89912748336792,0.0006437301635742188,-1.6011904,-0.63087666,-0.04230942,-0.16349613434365026,0.018916539869126003,10.399818572998047,0.009217505,-0.14352198,-0.013851611,0.74883294,1.921986,-2.6070032,0.0,-1.688606,-0.62684536,-0.09364708,-0.13170719,1.9725077e-05,10.521724,-0.17550068,0.018871432,0.0,-0.11132788,0.760110777677498,-0.0137176513671875,-0.13348388671875,-0.00103759765625
14.001787900924683,0.42878574,2.0374765,-2.7109363,-0.01898790920489772,nan,nan,nan,nan,4.000093460083008,0.0007016658782958984,-1.607233,-0.7792569,-0.10579617,-0.16180406634162592,0.004230438955740601,10.427142715454103,0.021634588,-0.14215894,-0.009822309,0.5785408,1.8516951,-2.619592,0.0,-1.682676,-0.76507074,-0.15538527,-0.12939212,-0.011186961,10.499136,-0.27134252,0.026990501,0.0,-0.11058233,0.7611217959421845,0.0002593994140625,-0.1350555419921875,0.00250244140625
14.101309776306152,0.28051606,1.9716047,-2.7261653,-0.019109816024769036,nan,nan,nan,nan,4.099675416946411,0.0007002353668212891,-1.599895,-0.9021086,-0.16242878,-0.15973904991185806,-0.00787478131308128,10.44318084716797,0.015549445,-0.13406684,-0.0064442893,0.4117489,1.7688473,-2.6379998,0.0,-1.6652706,-0.89823526,-0.21383467,-0.1263048,-0.022142682,10.467577,-0.36166048,0.035018332,0.0,-0.109371945,0.761714604601421,-0.0251312255859375,-0.1239471435546875,0.004180908203125
14.204005479812622,0.12057688,1.8874573,-2.7489803,-0.018925728265555886,nan,nan,nan,nan,4.202586650848389,0.0010156631469726562,-1.5793843,-1.0339432,-0.22589117,-0.15857483708011674,-0.020275329293441002,10.445956115722659,0.016275413,-0.13060676,-0.0030681181,0.24180615,1.6695073,-2.6629674,0.0,-1.6354511,-1.0315477,-0.2707144,-0.12227338,-0.03331192,10.425802,-0.44908047,0.043331157,0.0,-0.10760339,0.7618171391182377,-0.0260009765625,-0.119720458984375,0.00543212890625
14.301631689071655,-0.049439494,1.7814612,-2.780843,-0.01827647631947664,nan,nan,nan,nan,4.299997329711914,0.0009260177612304688,-1.5432991,-1.1744139,-0.29477692,-0.1566170316105704,-0.033311035803853084,10.435548629760744,0.025596332,-0.12562968,0.00015885582,0.08431226,1.5630753,-2.691794,0.0,-1.596432,-1.1528023,-0.32040328,-0.117668964,-0.04369137,10.378302,-0.5249602,0.051204503,0.0,-0.105418205,0.7614325559492956,0.017333984375,-0.1205596923828125,0.007171630859375
14.401123523712158,-0.20169352,1.669131,-2.816838,-0.017245227279914108,nan,nan,nan,nan,4.399462938308716,0.0006642341613769531,-1.4969678,-1.3015466,-0.35786226,-0.15299015614306383,-0.04489384057075929,10.411958999633793,0.04886984,-0.121537015,0.0032386484,-0.07206148,1.442491,-2.7259846,0.0,-1.546121,-1.2707919,-0.36618748,-0.112176545,-0.05404349,10.322564,-0.5943258,0.05922958,0.0,-0.10264231,0.7605601483252699,0.033233642578125,-0.1147613525390625,0.007293701171875
14.503006935119629,-0.35994807,1.5320872,-2.8631082,-0.01564346603289203,nan,nan,nan,nan,4.501878976821899,0.001470327377319336,-1.4336251,-1.4340869,-0.42457476,-0.14651210247896512,-0.0567074659160971,10.375415954589847,0.07496495,-0.11132861,0.004620907,-0.22730345,1.3064156,-2.7656507,0.0,-1.483723,-1.3852522,-0.40735298,-0.10568914,-0.06438348,10.258447,-0.6560271,0.06744668,0.0,-0.09917195,0.7592067351555883,0.0614166259765625,-0.1074066162109375,0.00714111328125
14.600980281829834,-0.49876988,1.3930948,-2.9119678,-0.013990429649330179,nan,nan,nan,nan,4.599292755126953,0.0007810592651367188,-1.3635318,-1.5478085,-0.48369762,-0.13869850997255587,-0.06684817032111678,10.326086654663092,0.091844484,-0.10308452,0.00649724,-0.3685593,1.1664692,-2.8069873,0.0,-1.4148988,-1.4867165,-0.4402646,-0.098741435,-0.07385857,10.19209,-0.7046181,0.07517865,0.0,-0.095257916,0.75737598260645,0.0740509033203125,-0.099029541015625,0.00616455078125
14.700803756713867,-0.64022213,1.2306513,-2.9711773,-0.012215906470144401,nan,nan,nan,nan,4.699075937271118,0.0005016326904296875,-1.2769722,-1.6590263,-0.5442998,-0.12808740450117068,-0.07669968912632741,10.264682235717778,0.11122083,-0.090255335,0.0070650866,-0.505849,1.0132732,-2.8523185,0.0,-1.3353959,-1.5824149,-0.4671416,-0.090850234,-0.08313657,10.119752,-0.74339235,0.082960285,0.0,-0.09059179,0.7550909671144697,0.0914154052734375,-0.0894012451171875,0.0050048828125
14.801188945770264,-0.7622915,1.0705693,-3.0308197,-0.010772942959161175,nan,nan,nan,nan,4.799458742141724,0.0007016658782958984,-1.1891546,-1.7495874,-0.59547806,-0.11691586875621912,-0.08486958185434501,10.19216545104981,0.11882957,-0.08336001,0.0064654564,-0.6355249,0.8499721,-2.9002607,0.0,-1.2468634,-1.6695765,-0.48677787,-0.08213796,-0.091965444,10.043664,-0.7705436,0.090579145,0.0,-0.085192166,0.7523836122269407,0.0794830322265625,-0.0866546630859375,0.00323486328125
14.904382705688477,-0.8840654,0.8877942,-3.1002448,-0.009362946122420016,nan,nan,nan,nan,4.90363883972168,0.0012357234954833984,-1.0859857,-1.8332143,-0.645104,-0.10484775417295573,-0.09293543420040185,10.109537429809578,0.11162666,-0.0777657,0.00745875,-0.76027447,0.6717683,-2.951682,0.0,-1.1466713,-1.7496736,-0.49897414,-0.07230255,-0.10051528,9.962483,-0.7856757,0.09817466,0.0,-0.07880878,0.7492869963224943,0.07684326171875,-0.0821990966796875,0.00152587890625
15.00100564956665,-0.97809947,0.727079,-3.162784,-0.00827557851313062,nan,nan,nan,nan,4.999308347702026,0.0006814002990722656,-0.99291414,-1.8927716,-0.68130136,-0.09594510181734067,-0.09960314175909724,10.018506698608407,0.093107335,-0.07791269,0.0045922194,-0.8653017,0.50125295,-2.9996526,0.0,-1.0479323,-1.813375,-0.5026547,-0.0625911,-0.107745685,9.887133,-0.7876393,0.10477809,0.0,-0.0722284,0.7458607887101831,0.0653228759765625,-0.08270263671875,0.000213623046875
15.101036071777344,-1.0781686,0.53198624,-3.2403917,-0.007231990046814393,nan,nan,nan,nan,5.099409818649292,0.0008568763732910156,-0.8771668,-1.9506589,-0.71664333,-0.08614835846471917,-0.1070381821719284,9.920949325561532,0.092847094,-0.06975456,0.0036977397,-0.96477324,0.31683356,-3.0498393,0.0,-0.93850774,-1.8694265,-0.4987378,-0.051776603,-0.114600345,9.808696,-0.7774292,0.11120004,0.0,-0.06459962,0.7421716068372995,0.084625244140625,-0.07049560546875,-0.000335693359375
15.200929880142212,-1.1599671,0.3475527,-3.3142197,-0.006520986573318295,nan,nan,nan,nan,5.199235916137695,0.0006010532379150391,-0.76608664,-1.9936022,-0.74135315,-0.0771085329982932,-0.11345714397499806,9.816935119628916,0.089924045,-0.068976104,0.0030534263,-1.0527858,0.12789261,-3.0991042,0.0,-0.8239927,-1.9140956,-0.48698273,-0.04038133,-0.12063808,9.73211,-0.75492173,0.11699145,0.0,-0.056242835,0.7382182211420132,0.09075927734375,-0.0667572021484375,-0.000335693359375
15.30081820487976,-1.2366462,0.14324506,-3.3957124,-0.006142922471319295,nan,nan,nan,nan,5.299097776412964,0.0005359649658203125,-0.6420229,-2.0294442,-0.7583093,-0.0669035247716337,-0.11970823374875472,9.708882904052746,0.10916474,-0.051312733,0.00032145085,-1.1291604,-0.06500429,-3.1468284,0.0,-0.7049259,-1.947199,-0.46756592,-0.02843913,-0.12580703,9.658345,-0.7204564,0.12204805,0.0,-0.04716155,0.7340891150454133,0.11627197265625,-0.053314208984375,0.00030517578125
15.401015043258667,-1.2957593,-0.048811138,-3.4716983,-0.0060789918446665855,nan,nan,nan,nan,5.399315595626831,0.0008170604705810547,-0.52472025,-2.0518963,-0.7648437,-0.05539105186945147,-0.12428326722865934,9.59798736572267,0.122983746,-0.050903574,0.00014793046,-1.1936638,-0.26131555,-3.1924005,0.0,-0.5818141,-1.9684863,-0.44068763,-0.0159892,-0.13004826,9.588357,-0.6744155,0.12625423,0.0,-0.037371222,0.7298273917609701,0.11920166015625,-0.0540008544921875,0.0008544921875
15.501694202423096,-1.3463585,-0.25942323,-3.5537746,-0.006108783348340974,nan,nan,nan,nan,5.500181198120117,0.0007193088531494141,-0.39486393,-2.0634892,-0.76194507,-0.04187364611129017,-0.12875090805812195,9.486515960693374,0.13343604,-0.042262442,-9.337437e-05,-1.2459817,-0.46043307,-3.235188,0.0,-0.4551939,-1.9776305,-0.40658885,-0.0030826838,-0.13329473,9.523127,-0.61725235,0.12948336,0.0,-0.026906092,0.7255186524566948,0.1316680908203125,-0.0403289794921875,0.001922607421875
15.616905689239502,-1.3778546,-0.4382108,-3.6217945,-0.0060948317439786705,nan,nan,nan,nan,5.61546516418457,0.0008709430694580078,-0.28349105,-2.0614502,-0.7507899,-0.029686815334075814,-0.1317692172477678,9.364432373046888,0.14442548,-0.026700191,0.0004593259,-1.2900112,-0.68830234,-3.2794337,0.0,-0.30838996,-1.9728354,-0.35966346,0.011992556,-0.13567677,9.456313,-0.5398339,0.13179101,0.0,-0.014320319,0.7207705696907564,0.1026458740234375,-0.0751800537109375,0.002685546875
15.701266765594482,-1.3999047,-0.6329329,-3.693456,-0.005969318634010941,nan,nan,nan,nan,5.699622392654419,0.0007023811340332031,-0.16086012,-2.0471802,-0.7299832,-0.016143559601023837,-0.13434535338859743,9.267261352539077,0.13990453,-0.024885701,0.0012220416,-1.3114307,-0.8538105,-3.3080845,0.0,-0.20062643,-1.9590337,-0.32058775,0.023118153,-0.13648334,9.413526,-0.4760873,0.13246217,0.0,-0.0048121493,0.716969223750788,0.11907958984375,-0.043548583984375,0.0042724609375
15.805792093276978,-1.4090605,-0.8262821,-3.7618275,-0.005742673274549541,nan,nan,nan,nan,5.804529666900635,0.0009450912475585938,-0.0374347,-2.0212326,-0.6999658,-0.0030065653774840814,-0.13637256334024772,9.164225082397474,0.13699669,-0.01066752,0.002488487,-1.3254386,-1.0579069,-3.3389459,0.0,-0.066554494,-1.9297028,-0.2669154,0.03700419,-0.13635564,9.368067,-0.38930315,0.13202615,0.0,0.0072784806,0.7129165936375872,0.11859130859375,-0.0410308837890625,0.00604248046875
15.901055812835693,-1.4044269,-1.0323318,-3.8317158,-0.005312219361548229,nan,nan,nan,nan,5.899407625198364,0.0006883144378662109,0.096108906,-1.9797434,-0.6579172,0.011084037579198056,-0.1372867346761515,9.068452606201184,0.13255335,-0.006135164,0.0027314276,-1.3260419,-1.2392753,-3.361804,0.0,0.05358825,-1.8917038,-0.21435821,0.049461663,-0.13514228,9.335091,-0.30501625,0.13037348,0.0,0.018300261,0.7091291837484365,0.1307525634765625,-0.00335693359375,0.00775146484375
16.001057863235474,-1.3873736,-1.2181486,-3.8912566,-0.004726388477171736,nan,nan,nan,nan,5.999356746673584,0.0007398128509521484,0.21729942,-1.9298506,-0.6102309,0.024088660055187068,-0.13645041696400395,8.981001815795908,0.13706787,0.021848304,0.0033510732,-1.3144425,-1.425869,-3.3803227,0.0,0.17809126,-1.8400911,-0.1557149,0.0623512,-0.13273527,9.3092375,-0.21164793,0.127324,0.0,0.029837944,0.7056533555998675,0.1329345703125,0.006866455078125,0.0087890625
16.101102590560913,-1.3558344,-1.4138638,-3.9495003,-0.0039194170796420826,nan,nan,nan,nan,6.099429130554199,0.0007061958312988281,0.34383094,-1.8632451,-0.550263,0.03835938751294267,-0.13366709318592962,8.90274871826173,0.13547751,0.03330998,0.005295463,-1.2905059,-1.6069388,-3.3928611,0.0,0.29971248,-1.7767942,-0.09454184,0.074884474,-0.12918082,9.292876,-0.114925444,0.12294344,0.0,0.04114459,0.7025287256058198,0.13385009765625,0.02630615234375,0.0087890625
16.201016664505005,-1.3119609,-1.6028925,-4.0000954,-0.002929446084422721,nan,nan,nan,nan,6.199371814727783,0.0006840229034423828,0.4637564,-1.7849787,-0.4821546,0.052359831273061146,-0.12916218591991147,8.835439376831065,0.13354972,0.04921105,0.005892219,-1.2546424,-1.7808878,-3.3991907,0.0,0.41724193,-1.7023413,-0.03195745,0.086899824,-0.124521054,9.286295,-0.01662473,0.117295034,0.0,0.052020792,0.6998300740241784,0.1330108642578125,0.0390625,0.00830078125
16.301095724105835,-1.2609464,-1.770551,-4.039487,-0.001972947295291877,nan,nan,nan,nan,6.299421072006226,0.0007228851318359375,0.56787586,-1.7028986,-0.41315484,0.06487338006755025,-0.12407680625884332,8.780346069335948,0.12975173,0.05644802,0.008386729,-1.2072088,-1.9470258,-3.3992288,0.0,0.5300837,-1.6170049,0.031197576,0.098302275,-0.11879521,9.289567,0.081934094,0.11045064,0.0,0.06232958,0.6976135436207603,0.1334381103515625,0.0338592529296875,0.00787353515625
16.40547227859497,-1.1945975,-1.9434074,-4.073686,-0.0008927176994968575,nan,nan,nan,nan,6.404081106185913,0.001134634017944336,0.673313,-1.6036965,-0.33302295,0.07790243254767387,-0.11821817491923037,8.738015441894543,0.12361363,0.059100997,0.0079492135,-1.1458123,-2.11111,-3.3925252,0.0,0.64206105,-1.516733,0.096719936,0.10943682,-0.111740716,9.303479,0.18351847,0.10214068,0.0,0.0723327,0.6959057570164151,0.134185791015625,0.0364227294921875,0.007843017578125
16.500932455062866,-1.1236839,-2.0941358,-4.0972857,9.819496346584466e-05,nan,nan,nan,nan,6.4992125034332275,0.0005896091461181641,0.7643852,-1.5033922,-0.25526273,0.08959166971537036,-0.11279502829906862,8.709184188842784,0.12403718,0.06152831,0.008421718,-1.0801339,-2.2506924,-3.3805447,0.0,0.7377091,-1.4163896,0.15485626,0.11875812,-0.10445931,9.325223,0.2730681,0.093697466,0.0,0.08061148,0.6947402198599788,0.1338348388671875,0.046356201171875,0.00872802734375
16.60064148902893,-1.0370424,-2.2466748,-4.113838,0.0012398442351504932,nan,nan,nan,nan,6.5988593101501465,0.0005838871002197266,0.85613024,-1.3854802,-0.16735408,0.10212862526016056,-0.10647759687185765,8.693681716918954,0.124843836,0.05675675,0.00901275,-1.0019176,-2.3862293,-3.3621745,0.0,0.8309124,-1.3025216,0.21336813,0.1276221,-0.096032694,9.356936,0.36260614,0.08409401,0.0,0.08835272,0.69411271667905,0.126312255859375,0.065673828125,0.009674072265625
16.70080041885376,-0.94843787,-2.3765733,-4.1203966,0.0023536839337848017,nan,nan,nan,nan,6.699084281921387,0.0005080699920654297,0.9347498,-1.2679137,-0.08414541,0.11353974221780597,-0.10033201032502048,8.692709579467786,0.11812915,0.07276655,0.007955865,-0.91426826,-2.5106843,-3.3379774,0.0,0.91676605,-1.1796566,0.26884788,0.1355397,-0.08683032,9.397556,0.44689617,0.07381236,0.0,0.09510358,0.6940733482330727,0.1222076416015625,0.0743560791015625,0.011260986328125
16.801105976104736,-0.8519155,-2.4947023,-4.118425,0.0037192788407494973,nan,nan,nan,nan,6.799436330795288,0.0006074905395507812,1.0068733,-1.1419879,-2.5175745e-05,0.12436092754788466,-0.09323331747819563,8.705248641967787,0.11397655,0.076284386,0.008807388,-0.81831074,-2.622572,-3.3083856,0.0,0.9941632,-1.049038,0.32013035,0.14241058,-0.07699267,9.446346,0.524189,0.06305979,0.0,0.100773826,0.6945809712144987,0.115447998046875,0.083953857421875,0.012359619140625
16.901140451431274,-0.7479129,-2.600028,-4.108081,0.005403554495403501,nan,nan,nan,nan,6.899532318115234,0.0006165504455566406,1.0723296,-1.007699,0.0840743,0.13460483030185375,-0.08524977072090167,8.733215484619157,0.100868456,0.096840404,0.01108376,-0.7153134,-2.720771,-3.27399,0.0,1.0622514,-0.9120105,0.36621764,0.14817294,-0.066668734,9.502334,0.59301025,0.05204182,0.0,0.1053225,0.6957118466862469,0.1035003662109375,0.0951690673828125,0.012786865234375
17.000887870788574,-0.63702714,-2.69158,-4.0895996,0.007519367176910541,nan,nan,nan,nan,6.9991748332977295,0.0005795955657958984,1.1302756,-0.8660184,0.16674961,0.1430669000566327,-0.07543208818018954,8.775485000610368,0.08070098,0.11332263,0.010360038,-0.60648507,-2.8046048,-3.2354493,0.0,1.1204939,-0.76978153,0.40635005,0.15280576,-0.055994038,9.564456,0.6522586,0.04093568,0.0,0.10875629,0.6974176382281804,0.0917510986328125,0.10198974609375,0.011444091796875
17.1039297580719,-0.51111346,-2.7745168,-4.060715,0.010176395005323996,nan,nan,nan,nan,7.1026084423065186,0.0010213851928710938,1.1818159,-0.7060554,0.2527407,0.1501001498079924,-0.063683129685973,8.831453628540057,0.06355888,0.118556306,0.012016315,-0.48791173,-2.876364,-3.191551,0.0,1.1704296,-0.6169653,0.4412716,0.15644316,-0.04460923,9.634644,0.7030167,0.029409198,0.0,0.11119357,0.699669950513294,0.074066162109375,0.1096038818359375,0.008758544921875
17.201061964035034,-0.3806312,-2.840382,-4.022946,0.012991427229517141,nan,nan,nan,nan,7.199360609054565,0.0005450248718261719,1.2213714,-0.5415464,0.33422056,0.15515864963751447,-0.05134806949559079,8.900775451660172,0.03779768,0.12771131,0.012318519,-0.3728174,-2.9289813,-3.1475482,0.0,1.2070916,-0.4701626,0.46720812,0.15877143,-0.033781383,9.70453,0.7398542,0.018747855,0.0,0.112477146,0.7024497563402923,0.046112060546875,0.1204376220703125,0.00482177734375
17.302274227142334,-0.2572534,-2.8861172,-3.9807389,0.015663581650407946,nan,nan,nan,nan,7.30081582069397,0.0010592937469482422,1.2465075,-0.3874796,0.40366516,0.157693602259262,-0.03938669313802445,8.981758041381854,0.019529982,0.12784061,0.011699959,-0.24885148,-2.9687412,-3.0990784,0.0,1.2348211,-0.3132017,0.48699102,0.16011567,-0.022343028,9.781064,0.76683694,0.0077984277,0.0,0.112848125,0.7056834849772582,0.049591064453125,0.1129913330078125,0.0018310546875
17.400627374649048,-0.121461205,-2.919302,-3.9283373,0.018251467661910395,nan,nan,nan,nan,7.398855209350586,0.0005578994750976562,1.2619591,-0.21983454,0.47114286,0.15968761257204944,-0.027086120450563245,9.073582382202165,0.0153037505,0.12286883,0.008996683,-0.12691134,-2.9919271,-3.0507035,0.0,1.2510016,-0.1595452,0.4986002,0.16037378,-0.011298333,9.857043,0.7811847,-0.0024767413,0.0,0.112324655,0.7093325508634473,0.0292816162109375,0.1182708740234375,-0.00164794921875
17.502230405807495,-0.005149587,-2.9338093,-3.8792555,0.020158650129443484,nan,nan,nan,nan,7.500786542892456,0.000946044921875,1.2663144,-0.07741785,0.5214015,0.16060361872235943,-0.016754922658312577,9.174322662353532,0.0073522064,0.12303906,0.0064531574,0.0009894609,-2.9999995,-2.999604,0.0,1.2566367,0.0012433933,0.5026546,0.15959296,8.7356406e-05,9.936904,0.78364253,-0.012773725,0.0,0.11093764,0.7133147559674984,0.05364990234375,0.1110382080078125,-0.002899169921875
17.60569143295288,0.12219697,-2.9354708,-3.8217666,0.021969880595299446,nan,nan,nan,nan,7.604180812835693,0.0010750293731689453,1.2616779,0.07799778,0.56803954,0.16091647523840907,-0.005433192628486738,9.282332916259785,0.0054204753,0.11962291,0.0052035986,0.13071084,-2.991435,-2.947782,0.0,1.2506582,0.16432568,0.4983533,0.15775162,0.011450371,10.017496,0.77311206,-0.022764636,0.0,0.10873561,0.7175601271176107,0.0632781982421875,0.1110382080078125,-0.004547119140625
17.70092797279358,0.25931838,-2.9208798,-3.7555714,0.023523249915577193,nan,nan,nan,nan,7.699237585067749,0.0006406307220458984,1.2453116,0.24565119,0.6088211,0.16128919407130932,0.006676978901913877,9.396247329711935,0.001138217,0.120741196,0.001727392,0.24891946,-2.968724,-2.9008946,0.0,1.234809,0.31328753,0.48698235,0.15516835,0.0216646,10.090068,0.7519945,-0.03151605,0.0,0.1060765,0.7220108862151771,0.0275115966796875,0.11798095703125,-0.00738525390625
17.80074429512024,0.38398018,-2.8921666,-3.691202,0.024728625781467534,nan,nan,nan,nan,7.799000024795532,0.0004105567932128906,1.2197888,0.39990613,0.63742113,0.16075978801134824,0.017933888413612875,9.51299606323244,-0.011157251,0.12032157,-0.000100081044,0.37083942,-2.9297495,-2.8532174,0.0,1.2076272,0.46765,0.46758866,0.15158533,0.03208336,10.1635065,0.71836936,-0.040235605,0.0,0.10270223,0.726544478844797,0.020751953125,0.117919921875,-0.009429931640625
17.90188717842102,0.5157963,-2.8445191,-3.6186779,0.025684847755827897,nan,nan,nan,nan,7.900362730026245,0.001234292984008789,1.180624,0.56522566,0.65850306,0.15918991842852614,0.03008628571297023,9.631415939331076,-0.02529755,0.118357286,-0.0035572837,0.49138978,-2.8745227,-2.8071384,0.0,1.1691475,0.62142235,0.4403691,0.14707877,0.042296622,10.234103,0.6726987,-0.048600093,0.0,0.098729484,0.7311146344317258,-0.0051422119140625,0.1168670654296875,-0.011688232421875
18.00887894630432,0.6331518,-2.7856393,-3.550666,0.026265030876648915,nan,nan,nan,nan,8.00745677947998,0.001546621322631836,1.1339115,0.7152003,0.6684446,0.15625042987928486,0.041159378650668765,9.751719970703144,-0.035738207,0.11635134,-0.005879587,0.61390615,-2.7994664,-2.7618635,0.0,1.1169211,0.7794129,0.40386948,0.14142476,0.052621547,10.303033,0.6126404,-0.05689743,0.0,0.09400556,0.7357288254935921,0.0073699951171875,0.1150970458984375,-0.013092041015625
18.101411819458008,0.7549809,-2.7062893,-3.4772606,0.02650854629101869,nan,nan,nan,nan,8.099875926971436,0.0008215904235839844,1.0727104,0.8732538,0.6684882,0.15229723672167306,0.05275642767973321,9.860840454101583,-0.048172418,0.11100014,-0.008632527,0.7146867,-2.7213087,-2.726226,0.0,1.0626247,0.9111847,0.3664727,0.13585263,0.061105832,10.356905,0.5518553,-0.063619636,0.0,0.08954278,0.7398895229412417,-0.0424041748046875,0.107421875,-0.015899658203125
18.200865507125854,0.8617419,-2.6192229,-3.4111001,0.026345360517218183,nan,nan,nan,nan,8.19912576675415,0.000507354736328125,1.0066419,1.0137428,0.6583286,0.14660410248294653,0.06291688325073208,9.978669204711933,-0.06832225,0.105395146,-0.010082561,0.81688154,-2.6240778,-2.692075,0.0,0.9952063,1.0471166,0.32082942,0.12919833,0.06974025,10.4080925,0.4782985,-0.07039875,0.0,0.08439408,0.7443564930104762,-0.044769287109375,0.1049652099609375,-0.0167236328125
18.300790309906006,0.96985984,-2.509904,-3.342118,0.025728063616092964,nan,nan,nan,nan,8.299068212509155,0.0005252361297607422,0.924716,1.1584944,0.6362067,0.1382213144468667,0.07320043009465338,10.091302108764665,-0.08739563,0.09613017,-0.012496356,0.9125745,-2.5128598,-2.6625197,0.0,0.91826916,1.17732,0.2698322,0.12183991,0.07790162,10.451875,0.39667717,-0.076779656,0.0,0.07887188,0.7486018961599292,-0.0594635009765625,0.0975494384765625,-0.017791748046875
18.401020765304565,1.0611359,-2.3950999,-3.2816641,0.024892918132970156,nan,nan,nan,nan,8.399344682693481,0.0005459785461425781,0.83985233,1.283818,0.6059802,0.1296192376398588,0.08211306331575452,10.197545318603535,-0.086253405,0.09155664,-0.013937823,1.000425,-2.388565,-2.6382093,0.0,0.83252126,1.3003927,0.21439405,0.11383793,0.08551969,10.487275,0.30844447,-0.08274802,0.0,0.073019534,0.7525847952719439,-0.050506591796875,0.09466552734375,-0.01788330078125
18.500743865966797,1.1500208,-2.2565494,-3.220944,0.023762004166818534,nan,nan,nan,nan,8.499016046524048,0.0005593299865722656,0.7385411,1.4104141,0.56259555,0.12021958074907246,0.09101538536602494,10.295329132080097,-0.093414895,0.07873794,-0.016717829,1.0788264,-2.2531981,-2.6197305,0.0,0.7394293,1.414443,0.15591937,0.10531206,0.09249569,10.513436,0.21582122,-0.08826397,0.0,0.066914074,0.7562322682967032,-0.068145751953125,0.081634521484375,-0.01824951171875
18.601528882980347,1.2226361,-2.1162605,-3.1703453,0.022459199067115555,nan,nan,nan,nan,8.59981369972229,0.0005633831024169922,0.6377363,1.5190219,0.5137755,0.11192906291328489,0.09867323218186441,10.384283905029315,-0.08566698,0.07526785,-0.017256644,1.1483063,-2.1051922,-2.6071026,0.0,0.63801366,1.5206604,0.0943032,0.09615137,0.09891758,10.530316,0.11863619,-0.093431704,0.0,0.060461737,0.7595353884985184,-0.0693359375,0.0783233642578125,-0.01806640625
18.70207643508911,1.2855488,-1.9654146,-3.1254177,0.020961515641167452,nan,nan,nan,nan,8.70068907737732,0.0011129379272460938,0.53036594,1.6198845,0.45761263,0.10398916439845896,0.10592647519956833,10.460669937133812,-0.08573317,0.07150685,-0.017863356,1.2072681,-1.9468447,-2.6007676,0.0,0.5299604,1.6171064,0.031126741,0.086482614,0.10467958,10.537289,0.019386543,-0.09819751,0.0,0.05373352,0.7623605256298213,-0.0785064697265625,0.0742340087890625,-0.01788330078125
18.800994873046875,1.3381476,-1.8049451,-3.0871656,0.019260005780839577,nan,nan,nan,nan,8.799326419830322,0.0006434917449951172,0.41720822,1.7118357,0.3947382,0.09467167334557247,0.11231883799467979,10.524780426025414,-0.10320899,0.06220496,-0.0177863,1.2540987,-1.7831014,-2.6007683,0.0,0.41874167,1.7013001,-0.031137932,0.07658296,0.109644614,10.534391,-0.07805565,-0.102466926,0.0,0.04689664,0.7647237000141968,-0.0903167724609375,0.0686187744140625,-0.0172119140625
18.901265144348145,1.3824373,-1.6217375,-3.0537267,0.01731481562870093,nan,nan,nan,nan,8.899661779403687,0.0011920928955078125,0.28859305,1.7990319,0.32077086,0.08286478335183733,0.11810693647032444,10.574989395141625,-0.12108974,0.048954967,-0.018797955,1.2902334,-1.6085509,-2.6070533,0.0,0.3007986,1.7761681,-0.09397894,0.066100635,0.11399024,10.521629,-0.17601694,-0.106409356,0.0,0.03968109,0.7665694296064361,-0.11053466796875,0.0526580810546875,-0.01654052734375
19.002715349197388,1.4108952,-1.44598,-3.0303874,0.015424358716931062,nan,nan,nan,nan,9.001843929290771,0.0008609294891357422,0.16571337,1.8661134,0.24790695,0.07056205171241453,0.12234035566977486,10.611167068481471,-0.12845565,0.038542602,-0.018762238,1.3146558,-1.4236547,-2.6198652,0.0,0.17660874,1.8407819,-0.15643716,0.055040397,0.11765798,10.498659,-0.27297175,-0.10999764,0.0,0.032061275,0.7678966407691662,-0.0984344482421875,0.055389404296875,-0.01495361328125
19.10100269317627,1.4274879,-1.2494085,-3.0135942,0.013413203177787925,nan,nan,nan,nan,9.09933853149414,0.0005040168762207031,0.029040908,1.9236363,0.16531472,0.05678226184232629,0.12597557312849395,10.6327900695801,-0.1295857,0.029675622,-0.018603148,1.325974,-1.241644,-2.637928,0.0,0.055163205,1.8911303,-0.21364255,0.044166412,0.120418906,10.467698,-0.3613643,-0.11300182,0.0,0.024534445,0.7686888203436795,-0.1080322265625,0.033203125,-0.013763427734375
19.200729370117188,1.4295237,-1.0633693,-3.0066216,0.011609164304452815,nan,nan,nan,nan,9.198999881744385,0.0009877681732177734,-0.09949639,1.962988,0.08647695,0.044351538807531767,0.12831028883198647,10.63966148376467,-0.12162182,0.019725299,-0.016551401,1.3251958,-1.051092,-2.662,0.0,-0.071051076,1.9309075,-0.26880264,0.03277006,0.12246989,10.427407,-0.44615102,-0.11562372,0.0,0.01658147,0.7689403925642163,-0.0974578857421875,0.0309600830078125,-0.012054443359375
19.301929235458374,1.417765,-0.8586189,-3.0083485,0.009724891239750488,nan,nan,nan,nan,9.300254106521606,0.0008585453033447266,-0.23912437,1.991283,-0.0006047615,0.03187182884953268,0.13001761992710992,10.631559524536154,-0.112730466,0.014177737,-0.017003896,1.3114552,-0.8540505,-2.6918764,0.0,-0.20046948,1.9590073,-0.32052836,0.020948606,0.12372857,10.378167,-0.5251505,-0.11778847,0.0,0.008236545,0.7686437597627916,-0.102264404296875,0.015350341796875,-0.010711669921875
19.40088200569153,1.3985538,-0.699547,-3.0160317,0.008357672236517216,nan,nan,nan,nan,9.399157524108887,0.0006146430969238281,-0.34652463,2.0038598,-0.067334406,0.02273610865211455,0.1305820672103395,10.60932113647463,-0.11195455,0.0033018608,-0.015882764,1.2853644,-0.6594405,-2.725873,0.0,-0.32708782,1.9743472,-0.3660555,0.009215909,0.12412976,10.322745,-0.5941268,-0.119376786,0.0,-0.00016397038,0.7678289758858858,-0.0767059326171875,0.0492706298828125,-0.009307861328125
19.501232147216797,1.36018,-0.4922114,-3.033449,0.006706375427332457,nan,nan,nan,nan,9.499617576599121,0.00058746337890625,-0.48562095,2.008679,-0.15207304,0.011806154722079125,0.1320807965465438,10.572651672363302,-0.1007953,0.012835449,-0.014547572,1.2460728,-0.46082848,-2.764731,0.0,-0.4549409,1.9776363,-0.40651485,-0.002833714,0.123674706,10.259929,-0.65477943,-0.120410174,0.0,-0.008933743,0.7664835900695455,-0.094879150390625,0.02215576171875,-0.00946044921875
19.600971460342407,1.3073937,-0.28572506,-3.0592458,0.005229756707037488,nan,nan,nan,nan,9.599291563034058,0.0006058216094970703,-0.62352866,2.0013075,-0.23401599,0.0005633031940699114,0.1320177485639138,10.522229385375997,-0.11035746,-0.008389577,-0.012743023,1.1944721,-0.26405433,-2.806987,0.0,-0.5800839,1.9686967,-0.44026443,-0.014860625,0.12234167,10.19209,-0.7046179,-0.1208054,0.0,-0.017847195,0.7646298039258973,-0.112060546875,-0.0053863525390625,-0.00927734375
19.701043367385864,1.2465028,-0.096385024,-3.0898285,0.003979269754092451,nan,nan,nan,nan,9.699357032775879,0.0005476474761962891,-0.74758965,1.9832814,-0.3052792,-0.010668170315227123,0.13020290714185934,10.459459533691426,-0.11798134,-0.025207905,-0.011741176,1.1302466,-0.068009555,-2.8524501,0.0,-0.70305526,1.947618,-0.46720725,-0.026940525,0.12010041,10.119543,-0.7434854,-0.12051429,0.0,-0.026973985,0.7623158394438723,-0.1146392822265625,-0.0062255859375,-0.00836181640625
19.800947427749634,1.1682299,0.106337436,-3.1300597,0.0027164032233223823,nan,nan,nan,nan,9.799259662628174,0.0006182193756103516,-0.8764011,1.9515628,-0.37747955,-0.023360223043175338,0.12735632353573823,10.384262390136739,-0.123026095,-0.031776123,-0.010237694,1.0540235,0.12501359,-2.900164,0.0,-0.8222308,1.914681,-0.4867466,-0.038934804,0.11694482,10.043817,-0.7705019,-0.11947808,0.0,-0.036217775,0.75953459130923,-0.1225433349609375,-0.0241851806640625,-0.007476806640625
19.900885820388794,1.0852312,0.28997973,-3.1732743,0.0016858003315812983,nan,nan,nan,nan,9.899175643920898,0.0019381046295166016,-0.98909235,1.9102697,-0.43787125,-0.03545501479504464,0.12364642459050845,10.298404083251974,-0.12627375,-0.043563504,-0.00972877,0.9660982,0.31419182,-2.9494562,0.0,-0.93692255,1.870138,-0.49862584,-0.05078768,0.11286089,9.965989,-0.78530425,-0.117639095,0.0,-0.045535393,0.7563466867324173,-0.1204986572265625,-0.0185699462890625,-0.00677490234375
20.000825881958008,0.9833066,0.48397055,-3.226447,0.0007627466266554965,nan,nan,nan,nan,9.99910831451416,0.0005536079406738281,-1.1050684,1.8531725,-0.4967906,-0.048523949242455316,0.1192538958452598,10.202875213623066,-0.12358863,-0.04627695,-0.009254879,0.8669581,0.49838358,-2.9995522,0.0,-1.0462495,1.8143461,-0.5026545,-0.062416293,0.10784448,9.887289,-0.7876472,-0.11494313,0.0,-0.054853708,0.7527840572424473,-0.1211090087890625,-0.0348968505859375,-0.006622314453125
20.1015567779541,0.8783066,0.65751255,-3.2804503,6.744079818121057e-05,nan,nan,nan,nan,10.099977493286133,0.0007116794586181641,-1.2058513,1.7892777,-0.5433052,-0.06029063424917072,0.11477861022835478,10.099170913696309,-0.11970036,-0.04137247,-0.008163504,0.75611985,0.6780932,-3.050123,0.0,-1.1502831,1.7470765,-0.4986929,-0.07383497,0.10184041,9.808253,-0.77733564,-0.111305125,0.0,-0.06416976,0.7488976026542786,-0.118743896484375,-0.0334014892578125,-0.007049560546875
20.200711727142334,0.76287246,0.8246977,-3.3380811,-0.0004030114394662915,nan,nan,nan,nan,10.198990106582642,0.0005350112915039062,-1.3009831,1.7151583,-0.5817392,-0.07169698735051998,0.10994126940881621,9.989037170410176,-0.11547122,-0.052389525,-0.0075504333,0.63745654,0.84738326,-3.0989847,0.0,-1.2454327,1.6708473,-0.48702112,-0.084640376,0.09504137,9.732295,-0.75499195,-0.106801555,0.0,-0.07312696,0.7447482843190788,-0.117523193359375,-0.0421142578125,-0.008392333984375
20.300777673721313,0.6263134,0.997398,-3.4030445,-0.0006965799973163433,nan,nan,nan,nan,10.299050092697144,0.0005362033843994141,-1.3970878,1.62437,-0.6129289,-0.08368892397083927,0.1034227464359323,9.874322357177757,-0.11286324,-0.06737249,-0.0071030697,0.50834835,1.0103081,-3.1468065,0.0,-1.3338208,1.5841267,-0.4675768,-0.09505922,0.08728346,9.65838,-0.7204754,-0.10128818,0.0,-0.081877895,0.7404019784796493,-0.1137542724609375,-0.0683441162109375,-0.0093994140625
20.413923501968384,0.49035436,1.1479077,-3.464868,-0.0007460329452096542,nan,nan,nan,nan,10.412537813186646,0.001104593276977539,-1.4782026,1.5316911,-0.6320206,-0.09425277871092462,0.09624097578022028,9.756448364257833,-0.1074943,-0.082956314,-0.0071649654,0.3517654,1.1839901,-3.1982005,0.0,-1.4237334,1.4748021,-0.4366096,-0.10614431,0.0774516,9.579485,-0.667522,-0.093856044,0.0,-0.09128192,0.7359095972986827,-0.118743896484375,-0.050628662109375,-0.0113525390625
20.50147557258606,0.3456922,1.2893009,-3.527736,-0.0006843463571705871,nan,nan,nan,nan,10.499872922897339,0.0006334781646728516,-1.5510654,1.4313892,-0.6426103,-0.10441718392099414,0.08812473772572793,9.648913192749045,-0.10553969,-0.08487159,-0.007459175,0.22470033,1.3088434,-3.235063,0.0,-1.4848791,1.383357,-0.4067029,-0.11406001,0.0691814,9.523316,-0.617442,-0.08729489,0.0,-0.09802796,0.7317875150622473,-0.1106414794921875,-0.08648681640625,-0.01202392578125
20.603281497955322,0.18100655,1.4308958,-3.5954404,-0.0004937616023495128,nan,nan,nan,nan,10.602049589157104,0.0011925697326660156,-1.6196376,1.3140787,-0.64312035,-0.11506686407475311,0.07811149899321701,9.530791091918967,-0.09913734,-0.10646133,-0.009705509,0.06972027,1.4444135,-3.2745695,0.0,-1.5469639,1.2690444,-0.36553153,-0.1225496,0.05878963,9.463619,-0.54945695,-0.07872344,0.0,-0.105249874,0.727233047743261,-0.1009979248046875,-0.10809326171875,-0.0126953125
20.70115613937378,0.023005636,1.5494494,-3.6567287,-7.21743913076403e-05,nan,nan,nan,nan,10.69948959350586,0.0008018016815185547,-1.6711789,1.1979831,-0.63377696,-0.12404469893550032,0.06700763049593728,9.415406188964868,-0.089375235,-0.11693976,-0.011466811,-0.08349472,1.5624847,-3.308042,0.0,-1.5961996,1.1534257,-0.32065213,-0.12978733,0.048230484,9.413588,-0.47619185,-0.06970346,0.0,-0.111343354,0.722756787816925,-0.091156005859375,-0.1130828857421875,-0.012939453125
20.800873279571533,-0.15293014,1.664142,-3.7209353,0.0006268390741158147,nan,nan,nan,nan,10.799153566360474,0.0005598068237304688,-1.7134881,1.0655668,-0.61292213,-0.13252487348644515,0.05384769443919368,9.305209045410182,-0.072335176,-0.1318716,-0.012265791,-0.24465394,1.6713014,-3.3375032,0.0,-1.6360539,1.0293343,-0.26978678,-0.13624197,0.036860686,9.3701725,-0.39392647,-0.059701536,0.0,-0.11665513,0.7184561043274283,-0.07318115234375,-0.12078857421875,-0.012359619140625
20.900888204574585,-0.3185516,1.7572172,-3.7775285,0.0013141042022715987,nan,nan,nan,nan,10.899203777313232,0.0006647109985351562,-1.7396888,0.93910176,-0.5841839,-0.13893130989739355,0.04137661501458312,9.20138763427737,-0.059917286,-0.1288789,-0.012040417,-0.4098848,1.7678411,-3.3617606,0.0,-1.6650105,0.8997108,-0.21447411,-0.1416837,0.024965603,9.335153,-0.30520144,-0.048972413,0.0,-0.12094277,0.7143808879039739,-0.0687713623046875,-0.1137847900390625,-0.0125732421875
21.000993490219116,-0.5003892,1.8439106,-3.8351133,0.002089574505090272,nan,nan,nan,nan,10.999353170394897,0.0007245540618896484,-1.7548676,0.79901034,-0.5436911,-0.14427793367272418,0.028139082721187147,9.105166931152374,-0.046367053,-0.121903226,-0.0123419585,-0.57761294,1.851273,-3.3803222,0.0,-1.682611,0.76581764,-0.1557164,-0.14602622,0.012685529,9.3092375,-0.21165034,-0.037664413,0.0,-0.124094225,0.7105834381103113,-0.0571441650390625,-0.118804931640625,-0.012664794921875
21.10173511505127,-0.6690057,1.9104711,-3.8841145,0.002794981421443077,nan,nan,nan,nan,11.099995613098145,0.0005950927734375,-1.7566234,0.667773,-0.49818453,-0.14846275025887887,0.016223977015279,9.01871185302737,-0.037486907,-0.12310853,-0.012114726,-0.7473544,1.9214368,-3.3929145,0.0,-1.6886058,0.6280551,-0.094190024,-0.14922631,8.802608e-05,9.29281,-0.11437104,-0.02586941,0.0,-0.12604083,0.7071542485690862,-0.0580291748046875,-0.1155853271484375,-0.0140380859375
21.20163083076477,-0.8229815,1.9602157,-3.924599,0.003462965544755031,nan,nan,nan,nan,11.200052261352539,0.0006608963012695312,-1.7487746,0.54649025,-0.44947755,-0.1515223760212017,0.005057962993713749,8.94194053649905,-0.031970277,-0.12440942,-0.01236792,-0.91611874,1.9773293,-3.3992124,0.0,-1.6828127,0.48887616,-0.031527985,-0.15121591,-0.012567659,9.2862835,-0.01595236,-0.013867933,0.0,-0.12671848,0.704095355831741,-0.0726165771484375,-0.1065521240234375,-0.015625
21.30223822593689,-1.0034246,2.005646,-3.9662602,0.004133767271078545,nan,nan,nan,nan,11.300764322280884,0.0008158683776855469,-1.7281094,0.40318558,-0.3850473,-0.15527052108996514,-0.007455058810300619,8.87723030090335,-0.03680565,-0.117230326,-0.01256548,-1.0848066,2.0194545,-3.3991864,0.0,-1.6650945,0.34754756,0.032044705,-0.15199882,-0.025310269,9.289678,0.08325181,-0.0016744677,0.0,-0.12611675,0.7015068134906712,-0.0572357177734375,-0.11541748046875,-0.016632080078125
21.40098237991333,-1.1679876,2.0349667,-3.9979427,0.004645274512248304,nan,nan,nan,nan,11.399281740188599,0.0007290840148925781,-1.6990985,0.27059454,-0.3193367,-0.1585191689245935,-0.018977350784220803,8.825559310913116,-0.031372115,-0.11932949,-0.013976389,-1.24752,2.0468705,-3.3929822,0.0,-1.636254,0.20906116,0.09374317,-0.15157767,-0.03765505,9.302609,0.17891826,0.010202532,0.0,-0.12429293,0.6994330858662698,-0.0482635498046875,-0.12213134765625,-0.017974853515625
21.502076387405396,-1.3431724,2.053214,-4.0239973,0.005162907647160334,nan,nan,nan,nan,11.500471353530884,0.0012655258178710938,-1.6570464,0.12761514,-0.24270673,-0.16103191487398305,-0.03195033170850725,8.787726211547884,-0.013900506,-0.12904236,-0.014704691,-1.4110984,2.0608556,-3.3803492,0.0,-1.5948969,0.06756803,0.15561251,-0.14993648,-0.050085325,9.325568,0.2742292,0.022185529,0.0,-0.121187165,0.697910866279257,-0.02764892578125,-0.129547119140625,-0.01824951171875
21.601238250732422,-1.5007038,2.0571313,-4.0403986,0.005611873602718739,nan,nan,nan,nan,11.600156307220459,0.002809286117553711,-1.6076673,-0.0034320578,-0.16825248,-0.16185262131826011,-0.04451417312922845,8.764621734619174,-0.0015989518,-0.13243103,-0.016658999,-1.5675792,2.060711,-3.361897,0.0,-1.5427217,-0.07010786,0.21411033,-0.14715122,-0.06196496,9.357409,0.36373788,0.03362199,0.0,-0.11697061,0.6969796427363142,-0.021270751953125,-0.130462646484375,-0.017974853515625
21.700977087020874,-1.6652513,2.0472028,-4.049157,0.006029651081790585,nan,nan,nan,nan,11.699256181716919,0.0006761550903320312,-1.5426866,-0.14355448,-0.08446295,-0.16131435654794474,-0.05818956055147573,8.75602073669437,0.0112603,-0.12975942,-0.01619856,-1.7174368,2.0470865,-3.3379312,0.0,-1.4798772,-0.20434469,0.2689397,-0.1432762,-0.07330506,9.397634,0.4470351,0.044488616,0.0,-0.111726224,0.6966326669534757,0.002960205078125,-0.12799072265625,-0.016448974609375
21.802116870880127,-1.8100897,2.0254653,-4.049201,0.006412876649952506,nan,nan,nan,nan,11.80082631111145,0.0011284351348876953,-1.471164,-0.2701237,-0.006253251,-0.1596215977857705,-0.07068280376503178,8.762490386962925,0.023230419,-0.12817967,-0.018199641,-1.8640118,2.019495,-3.30794,0.0,-1.40447,-0.338255,0.32080683,-0.13821873,-0.08433825,9.447076,0.52520394,0.05497785,0.0,-0.105369136,0.6968936771882852,0.0055999755859375,-0.123016357421875,-0.01544189453125
21.907264232635498,-1.9473578,1.991711,-4.041855,0.006674293694116096,nan,nan,nan,nan,11.905745267868042,0.0008690357208251953,-1.3894808,-0.39310655,0.07211736,-0.15633932947367438,-0.08246575071708384,8.783971786499057,0.043502472,-0.1153276,-0.017084187,-2.006791,1.9769582,-3.271706,0.0,-1.3153653,-0.4716766,0.3688949,-0.13191673,-0.09500867,9.50603,0.5969853,0.06500659,0.0,-0.09788966,0.6977596279406048,-0.001312255859375,-0.121612548828125,-0.014617919921875
22.000876426696777,-2.086975,1.9416157,-4.025452,0.006857855821382347,nan,nan,nan,nan,11.999170303344727,0.0005545616149902344,-1.2908922,-0.5216527,0.1554393,-0.1511766595026285,-0.09422061535313908,8.819613723754918,0.05576008,-0.10814551,-0.015500965,-2.125611,1.9275364,-3.2354507,0.0,-1.2269017,-0.58548015,0.40634853,-0.1254564,-0.103816286,9.564452,0.6522564,0.0731684,0.0,-0.09056654,0.6991940807942536,0.029266357421875,-0.1102447509765625,-0.012603759765625
22.100977420806885,-2.2167227,1.8782047,-4.0001855,0.006859122026968839,nan,nan,nan,nan,12.099248170852661,0.0005674362182617188,-1.1829004,-0.6436808,0.23567757,-0.14520308774838417,-0.10529633188092058,8.86832962036136,0.057587363,-0.10448122,-0.0154767465,-2.2432797,1.8630894,-3.1930323,0.0,-1.1231604,-0.7013645,0.4402511,-0.117731966,-0.11246336,9.632284,0.70154846,0.08104859,0.0,-0.08215448,0.7011500308660295,0.0479736328125,-0.1015625,-0.010528564453125
22.202763319015503,-2.3177638,1.8149848,-3.971763,0.006788817894251148,nan,nan,nan,nan,12.20192289352417,0.0013954639434814453,-1.0845069,-0.74208975,0.30026236,-0.1399165982011021,-0.11434114929313077,8.929938812255893,0.06401056,-0.0976743,-0.014250178,-2.3527503,1.7852795,-3.1463497,0.0,-1.007732,-0.812981,0.4678029,-0.10903636,-0.12043463,9.706428,0.74068487,0.0881648,0.0,-0.07304636,0.703615971452338,0.033447265625,-0.111114501953125,-0.00921630859375
22.301222324371338,-2.426196,1.7292494,-3.9306538,0.006634647937047322,nan,nan,nan,nan,12.299557447433472,0.0005755424499511719,-0.96038014,-0.85178524,0.37182307,-0.13291977642506797,-0.12449298677852672,9.0027674865723,0.07109514,-0.09523419,-0.014277923,-2.4454608,1.7010297,-3.0996904,0.0,-0.89021134,-0.91156644,0.48679376,-0.1001361,-0.12712976,9.7801,0.76657736,0.0940028,0.0,-0.06405771,0.7065200322499603,0.0633544921875,-0.096649169921875,-0.00616455078125
22.403162479400635,-2.5144527,1.6402869,-3.8866384,0.006484968627374944,nan,nan,nan,nan,12.401761531829834,0.0008981227874755859,-0.83805114,-0.9465294,0.43233147,-0.12532283697653884,-0.13323252692328524,9.086510314941439,0.087953314,-0.0857485,-0.011587629,-2.529844,1.6029502,-3.0492537,0.0,-0.759867,-1.0061914,0.4988296,-0.090257436,-0.13318595,9.859313,0.7814315,0.099144325,0.0,-0.054424044,0.7098448167112992,0.0682830810546875,-0.0959320068359375,-0.003692626953125
22.50429630279541,-2.584675,1.55096,-3.8419807,0.00630591595303738,nan,nan,nan,nan,12.503470182418823,0.0015006065368652344,-0.7198527,-1.026629,0.48159385,-0.11724107505114235,-0.14060887155294544,9.180274505615266,0.09887627,-0.07770485,-0.010871592,-2.6002493,1.496217,-2.9982548,0.0,-0.6235673,-1.0910151,0.50265,-0.07995454,-0.13822828,9.939007,0.78353477,0.103293866,0.0,-0.04471703,0.7135493432070572,0.057464599609375,-0.1078948974609375,-0.001312255859375
