time,x,y,z,yaw,platform,trajectory,controller,traj_time,comp_time,vx,vy,vz,roll,pitch,f,p,q,r,x_ref,y_ref,z_ref,yaw_ref,vx_ref,vy_ref,vz_ref,roll_ref,pitch_ref,f_ref,u_ff_df,u_ff_dphi,u_ff_dpsi,u_ff_dth,throttle,p_cmd,q_cmd,r_cmd
10.057806253433228,-0.0073603187,0.03141978,-2.6320796,-0.0036172268121135893,SIM,figure_eight,contraction,0.055544137954711914,0.0011653900146484375,0.015416771,-0.025233975,-0.19490097,-0.005912897047666907,0.0011410982027282301,9.808042449951172,0.0042529763,0.0020836906,-0.00092719006,0.069784656,0.069742166,-3.0,0.0,1.2558719,1.2535772,0.0,-0.011226075,0.002808162,9.8106575,0.023614526,-0.2017656,0.0,0.050530154,0.737879257662425,1.8589324951171875,-1.875732421875,-0.006805419921875
10.10130262374878,-0.0052542025,0.028449727,-2.649999,-0.003845489542725844,nan,nan,nan,0.09892892837524414,0.0009107589721679688,0.014680165,-0.026347859,-0.18719544,-0.005206878073024104,0.0009853212723867077,9.80374053955078,0.052544486,-0.06970314,0.0017279414,0.124237716,0.123997785,-3.0,0.0,1.2542102,1.2469391,0.0,-0.019957539,0.004998666,9.812077,0.04177008,-0.20064251,0.0,0.0504419,0.7377152258264588,1.8576202392578125,-1.91326904296875,-0.005523681640625
10.201984405517578,-0.003133996,0.026093334,-2.6686215,-0.0033965023759775087,nan,nan,nan,0.19973444938659668,0.0011560916900634766,0.038420655,-0.008380083,-0.24070917,0.04507131835562878,-0.05924772658173194,9.789732742309571,0.6487428,-0.6580971,0.03146845,0.25033543,0.24836667,-3.0,0.0,1.2467544,1.2172617,0.0,-0.03995883,0.010065876,9.818335,0.08173978,-0.19563253,0.0,0.05004933,0.7371808590088068,1.5689849853515625,-1.600067138671875,0.049224853515625
10.30133056640625,0.005833349,0.0293684,-2.6954477,-0.011810168485552566,nan,nan,nan,0.29898858070373535,0.0007658004760742188,0.15322159,0.08994827,-0.28608143,0.15699728638023086,-0.18299991817874695,9.762998962402344,1.3992393,-1.4351888,0.04447359,0.3735141,0.36694252,-3.0,0.0,1.234528,1.1689786,0.0,-0.058998972,0.015004061,9.828205,0.11614763,-0.18751876,0.0,0.049417388,0.7361599616710979,0.8326263427734375,-0.7550506591796875,0.16986083984375
10.402420997619629,0.031981982,0.048475962,-2.722091,-0.028397448780799694,nan,nan,nan,0.4002056121826172,0.0012884140014648438,0.3790475,0.29807308,-0.2602473,0.2737366009894246,-0.28143606624638773,9.740055618286135,0.8507921,-0.61550975,0.058202438,0.49763006,0.48198012,-3.0,0.0,1.2171172,1.101043,0.0,-0.077430256,0.01996349,9.841443,0.14405832,-0.17617677,0.0,0.04854147,0.735282696680696,-0.14794921875,0.1225738525390625,0.276947021484375
10.501510381698608,0.09315163,0.100489184,-2.7459471,-0.02300145536274581,nan,nan,nan,0.49912405014038086,0.0009405612945556641,0.68132865,0.60455704,-0.19447607,0.30658976621371925,-0.29685660266308544,9.729771194458012,-0.19775543,0.30889136,0.10308632,0.616987,0.58689433,-3.0,0.0,1.1953465,1.0174532,0.0,-0.09419406,0.02471433,9.856691,0.16273317,-0.16233277,0.0,0.047483012,0.7348891246216471,-0.8873748779296875,0.6283111572265625,0.29290771484375
10.612231731414795,0.19156772,0.19000438,-2.7622476,0.008529228938141634,nan,nan,nan,0.6099402904510498,0.0010769367218017578,0.95830286,0.89462656,-0.13922797,0.2315219704145482,-0.24303798956572376,9.7386321258545,-0.9729017,0.74198693,0.15949126,0.74784887,0.6935993,-3.0,0.0,1.1654797,0.9052324,0.0,-0.11118966,0.029900946,9.87537,0.17230162,-0.1439231,0.0,0.046090946,0.7352282337964529,-1.1967620849609375,0.777740478515625,0.2171630859375
10.713808536529541,0.30968177,0.29840863,-2.773107,0.03710462960385935,nan,nan,nan,0.7118983268737793,0.0013735294342041016,1.1555513,1.0718778,-0.12293891,0.11258399776990502,-0.16994507228904765,9.755428390502939,-1.2942754,0.8406473,0.19167967,0.86506355,0.7799575,-3.0,0.0,1.1330075,0.7864444,0.0,-0.124897905,0.03452788,9.892913,0.17005697,-0.12463107,0.0,0.044646725,0.7358706062606635,-1.1144866943359375,0.70098876953125,0.1304931640625
10.806326866149902,0.42228365,0.3979053,-2.781731,0.05051593479838739,nan,nan,nan,0.8045015335083008,0.001856088638305664,1.2721791,1.124068,-0.12942126,0.005144786196882217,-0.10796835105801783,9.773705596923838,-1.276598,0.7701554,0.19772042,0.96846056,0.8473455,-3.0,0.0,1.0994828,0.6673272,0.0,-0.13556245,0.03859705,9.9082155,0.15906183,-0.10545906,0.0,0.043220658,0.7365689893161987,-0.9015655517578125,0.5803375244140625,0.067779541015625
10.901593446731567,0.5915842,0.5327865,-2.7963178,0.05286037623271413,nan,nan,nan,0.8992047309875488,0.001117706298828125,1.3666508,1.0499728,-0.14608137,-0.12465876096661341,-0.03398225235268271,9.787769699096692,-0.9819734,0.5982897,0.17311811,1.0708097,0.9044011,-3.0,0.0,1.0613501,0.5361861,0.0,-0.14456776,0.042617284,9.922424,0.13972186,-0.08451968,0.0,0.041665915,0.7371059426710287,-0.4439239501953125,0.4201812744140625,0.00689697265625
11.00225305557251,0.7270931,0.62201935,-2.8096073,0.04455152930964058,nan,nan,nan,0.9998695850372314,0.0008258819580078125,1.3906386,0.8940338,-0.15238343,-0.19508957454498854,0.011191518996525485,9.802435607910168,-0.58654094,0.4477171,0.13665308,1.1754379,0.9510059,-3.0,0.0,1.0167013,0.38851807,0.0,-0.15190615,0.04672444,9.935127,0.11148592,-0.0611085,0.0,0.03991929,0.7376654616714966,-0.1544342041015625,0.304168701171875,-0.019775390625
11.114370584487915,0.8939631,0.7018545,-2.8283734,0.027558474362244206,nan,nan,nan,1.112497091293335,0.0016965866088867188,1.3645257,0.625133,-0.14987582,-0.23491538567809803,0.05319344000478665,9.815678710937508,-0.16114157,0.29616824,0.08220295,1.286909,0.98510873,-3.0,0.0,0.96193606,0.21605694,0.0,-0.15726559,0.051105462,9.945561,0.07276497,-0.033926044,0.0,0.03785927,0.7381703397032063,0.106231689453125,0.175018310546875,-0.03497314453125
11.20132327079773,1.0169805,0.73573625,-2.8430958,0.011784071288259104,nan,nan,nan,1.198960781097412,0.0011126995086669922,1.305692,0.39580002,-0.1436101,-0.2380611292390174,0.07628546100181444,9.825836944580086,0.061041154,0.18730292,0.045317877,1.3681419,0.9979439,-3.0,0.0,0.91661054,0.080542654,0.0,-0.15928036,0.05430779,9.95044,0.03978558,-0.012638968,0.0,0.036202908,0.7385573798674703,0.216583251953125,0.07763671875,-0.036376953125
11.306795120239258,1.1291424,0.7447212,-2.8571405,-0.0037116701958581633,nan,nan,nan,1.3058679103851318,0.0013003349304199219,1.2199116,0.17264098,-0.13793036,-0.2242055830951209,0.09003436810522736,9.837169647216804,0.22056736,0.077106364,0.012633485,1.4629751,0.9975366,-3.0,0.0,0.856844,-0.08815067,0.0,-0.15921645,0.058064558,9.952441,-0.0024021517,0.013833122,0.0,0.0340599,0.7389889326001116,0.2053985595703125,-0.00323486328125,-0.03021240234375
11.401122808456421,1.253517,0.72546405,-2.874166,-0.021534244201025995,nan,nan,nan,1.3987646102905273,0.0008795261383056641,1.0864525,-0.08004094,-0.13662498,-0.1941197045483231,0.09513513063505785,9.844688491821298,0.2801985,-0.034116115,-0.0120675145,1.5400366,0.98257697,-3.0,0.0,0.8017619,-0.23355384,0.0,-0.15686803,0.06113849,9.9505415,-0.038170725,0.03667809,0.0,0.03210398,0.7392751153091871,0.213714599609375,-0.0818328857421875,-0.013824462890625
11.506917238235474,1.3430692,0.6872645,-2.8887494,-0.03454474503613923,nan,nan,nan,1.5045762062072754,0.0008203983306884766,0.96478355,-0.26235154,-0.14174925,-0.16773072789160481,0.090530559329697,9.848075027465832,0.25329277,-0.09410457,-0.025923263,1.6214075,0.94926375,-3.0,0.0,0.7357065,-0.39518863,0.0,-0.15163212,0.064412445,9.94449,-0.07537403,0.0621629,0.0,0.029756237,0.7394039781323812,0.138031005859375,-0.107177734375,0.005706787109375
11.603232860565186,1.4182827,0.6331581,-2.9036326,-0.04584237006341336,nan,nan,nan,1.6010828018188477,0.0011365413665771484,0.8475266,-0.4165677,-0.15143442,-0.14627810416614115,0.08121362551289968,9.846014251708997,0.1945681,-0.122743756,-0.026589565,1.6893846,0.9042468,-3.0,0.0,0.6726178,-0.5365968,0.0,-0.14454342,0.06717577,9.935789,-0.103954576,0.08458502,0.0,0.027489802,0.7393255651254766,0.09454345703125,-0.1058807373046875,0.027435302734375
11.701219320297241,1.4816717,0.56673306,-2.9197066,-0.05519216479268927,nan,nan,nan,1.6988272666931152,0.0008907318115234375,0.7415688,-0.54809445,-0.16445236,-0.1299780143610037,0.07009816005402203,9.838157958984386,0.13526379,-0.11135842,-0.020240314,1.7519029,0.8451167,-3.0,0.0,0.6062008,-0.67177546,0.0,-0.1352102,0.069745116,9.924489,-0.12597236,0.10617221,0.0,0.025059422,0.7390265560228568,0.06646728515625,-0.0799560546875,0.04901123046875
11.801345586776733,1.535159,0.4905637,-2.9368598,-0.06167254418910327,nan,nan,nan,1.7990243434906006,0.0008752346038818359,0.64840376,-0.66302246,-0.17901196,-0.11872491116315394,0.060665279168670594,9.824182510375987,0.10493262,-0.08245117,-0.007325626,1.8091317,0.7712941,-3.0,0.0,0.535747,-0.799823,0.0,-0.12352475,0.07212489,9.911089,-0.13997291,0.1267947,0.0,0.022416187,0.7384943577007492,0.058837890625,-0.045440673828125,0.06591796875
11.904201984405518,1.5847889,0.4001603,-2.957058,-0.06543708015054917,nan,nan,nan,1.9023065567016602,0.0016083717346191406,0.5606823,-0.77271724,-0.19553787,-0.10822860019693176,0.05396742910180041,9.804886169433603,0.10393491,-0.04374079,0.009644853,1.860618,0.68243134,-3.0,0.0,0.46090522,-0.9185385,0.0,-0.10941373,0.07429219,9.896313,-0.14444539,0.1460961,0.0,0.019523673,0.7377589122071627,0.072174072265625,-0.0122833251953125,0.0777587890625
12.001652002334595,1.6248826,0.31005928,-2.9770486,-0.06556850674329963,nan,nan,nan,1.9993312358856201,0.0008914470672607422,0.4895967,-0.8614355,-0.21056102,-0.09827898931799657,0.05134558443681869,9.78115379333497,0.103231095,-0.0108562065,0.026023913,1.9018532,0.5884649,-3.0,0.0,0.38882437,-1.0160197,0.0,-0.09444465,0.07604832,9.882478,-0.13920544,0.16209638,0.0,0.016651034,0.7368534020925178,0.085418701171875,0.014617919921875,0.082122802734375
12.109481811523438,1.6629575,0.20618847,-3.0002675,-0.06256297605047416,nan,nan,nan,2.107921838760376,0.002192258834838867,0.41886377,-0.94426394,-0.22556488,-0.08664117184617441,0.051919760087170364,9.754279098510755,0.12565838,0.015469363,0.042139947,1.939618,0.47300628,-3.0,0.0,0.30645066,-1.1071715,0.0,-0.07599421,0.07767423,9.86815,-0.12295058,0.1771965,0.0,0.013266632,0.7358266692683744,0.0996246337890625,0.038482666015625,0.080413818359375
12.212633609771729,1.6932737,0.10588246,-3.02283,-0.05778612696816062,nan,nan,nan,2.210665464401245,0.0009164810180664062,0.35581213,-1.0068475,-0.23853648,-0.07405053086295153,0.05487883424773021,9.72765335083009,0.13155034,0.04070931,0.053614795,1.9670417,0.3556304,-3.0,0.0,0.22719312,-1.1744866,0.0,-0.057184175,0.078866415,9.8567,-0.0986044,0.18844207,0.0,0.009918599,0.7348080515671396,0.108734130859375,0.0544586181640625,0.07452392578125
12.301786184310913,1.7170504,0.0104707405,-3.044283,-0.05226425122482853,nan,nan,nan,2.2995622158050537,0.0008826255798339844,0.2979814,-1.0523833,-0.24863991,-0.0616841951061817,0.05902401601461116,9.70028045654298,0.14642763,0.044419605,0.06086753,1.9841604,0.24922262,-3.0,0.0,0.15784127,-1.2169855,0.0,-0.040096395,0.07961581,9.849091,-0.07183615,0.19558597,0.0,0.0069288295,0.7337593960588183,0.12591552734375,0.05743408203125,0.06610107421875
12.405891418457031,1.7403575,-0.10527759,-3.0705783,-0.044825696103440435,nan,nan,nan,2.4035115242004395,0.0012784004211425781,0.22842945,-1.0902011,-0.25862935,-0.04535055573893988,0.06428545198158875,9.673540725708019,0.15724134,0.05083129,0.06355189,1.9963257,0.12095413,-3.0,0.0,0.0761376,-1.247411,0.0,-0.019467784,0.0801509,9.843461,-0.03581616,0.20072232,0.0,0.0033556886,0.7327335674345201,0.1451416015625,0.05810546875,0.0550537109375
12.503460884094238,1.7570845,-0.21326429,-3.095761,-0.037744060019961265,nan,nan,nan,2.501084804534912,0.001026153564453125,0.16202842,-1.1086177,-0.26609984,-0.029411812693380765,0.06975747305789559,9.64752838134767,0.1663277,0.05746362,0.06305933,1.9999995,-0.0013633644,-3.0,0.0,-0.00085662736,-1.2566359,0.0,0.00021946369,0.08031292,9.841723,0.00040696867,0.20228337,0.0,-3.7801496e-05,0.7317342825039485,0.161590576171875,0.054595947265625,0.04339599609375
12.61597990989685,1.769617,-0.3302255,-3.1239796,-0.030274313320471615,nan,nan,nan,2.6136348247528076,0.000881195068359375,0.08724504,-1.1101086,-0.27169833,-0.010593013807440096,0.07516689522370013,9.618709945678722,0.18535781,0.04246207,0.05823386,1.9949044,-0.14231299,-3.0,0.0,-0.089646295,-1.2438467,0.0,0.02290442,0.08008828,9.844129,0.042009458,0.20011966,0.0,-0.003949199,0.7306256250482441,0.17645263671875,0.0590057373046875,0.031585693359375
12.707482814788818,1.7755141,-0.42750666,-3.1482615,-0.02448872995352131,nan,nan,nan,2.70565128326416,0.0015032291412353516,0.022167446,-1.0952839,-0.27413243,0.006527064783070439,0.07874643282560267,9.600350341796883,0.19391479,0.04425035,0.049948446,1.9833268,-0.25556216,-3.0,0.0,-0.16192435,-1.2149075,0.0,0.041115202,0.07957922,9.849469,0.073526196,0.19523586,0.0,-0.007106136,0.7299184570423282,0.1848907470703125,0.0626678466796875,0.022552490234375
12.804554462432861,1.776448,-0.52184725,-3.17286,-0.01961294732455647,nan,nan,nan,2.8025407791137695,0.001199483871459961,-0.044703763,-1.0652202,-0.2749116,0.024117786992132788,0.08273026175990061,9.586255645751963,0.19757925,0.045432024,0.044449776,1.9639738,-0.37109137,-3.0,0.0,-0.23744065,-1.1669086,0.0,0.059664473,0.07873254,9.858026,0.10216603,0.18717189,0.0,-0.010355984,0.7293751041446703,0.1923675537109375,0.066619873046875,0.01385498046875
12.902217149734497,1.7685325,-0.6436273,-3.2073255,-0.014860729666900524,nan,nan,nan,2.8999946117401123,0.0008161067962646484,-0.14005156,-0.9993387,-0.27365178,0.048249837648748795,0.08755205209260586,9.56966735839845,0.19225729,0.0287922,0.031779986,1.937168,-0.48174787,-3.0,0.0,-0.3125089,-1.1012034,0.0,0.0773931,0.07756822,9.869129,0.12448395,0.17620346,0.0,-0.013519033,0.7287351109274508,0.165283203125,0.0201873779296875,0.004119873046875
13.007692813873291,1.753464,-0.7333774,-3.2350848,-0.012846785827841569,nan,nan,nan,3.0054287910461426,0.0009913444519042969,-0.21893162,-0.9266834,-0.2698015,0.06599698714185373,0.08881443189374849,9.557602691650402,0.17519951,0.008638497,0.021846522,1.8999938,-0.5932908,-3.0,0.0,-0.3923967,-1.0115781,0.0,0.095214516,0.07596869,9.883142,0.1396727,0.16136412,0.0,-0.016795397,0.7282692951662185,0.1671905517578125,0.0267181396484375,-0.0001220703125
13.101478338241577,1.72985,-0.81425935,-3.2622278,-0.01239818635310868,nan,nan,nan,3.0991134643554688,0.0011012554168701172,-0.29851934,-0.8374351,-0.26359215,0.08301804251423611,0.09015212977694076,9.551422271728528,0.17445591,0.014420345,0.0132095255,1.8599628,-0.68373466,-3.0,0.0,-0.4619481,-0.9170067,0.0,0.10962101,0.07426444,9.896518,0.14445435,0.14584582,0.0,-0.019564606,0.7280305557939681,0.149658203125,0.0103912353515625,-0.002960205078125
13.205165386199951,1.6948762,-0.8896426,-3.290527,-0.013521519330693517,nan,nan,nan,3.2028167247772217,0.0010273456573486328,-0.38512295,-0.7228884,-0.25435743,0.10038679481879392,0.09095758498113504,9.547534942626964,0.15685336,-0.00024980184,0.0054507065,1.8081441,-0.77276474,-3.0,0.0,-0.53706163,-0.7975782,0.0,0.12375788,0.07208358,9.911346,0.1397997,0.12643151,0.0,-0.022466196,0.7278803551460887,0.12408447265625,-0.0071563720703125,-0.004150390625
13.301531314849854,1.6536433,-0.9461709,-3.3154364,-0.01599935792425232,nan,nan,nan,3.2991576194763184,0.0013756752014160156,-0.46402755,-0.6022286,-0.24376066,0.11396988066172566,0.08981464328073918,9.547305526733409,0.12533934,-0.019746196,0.0006264996,1.7531229,-0.8437604,-3.0,0.0,-0.6048067,-0.6744623,0.0,0.13499585,0.06979555,9.924235,0.12634306,0.10660307,0.0,-0.025007816,0.7278714898997739,0.099822998046875,-0.016326904296875,-0.002532958984375
13.40172529220581,1.6038208,-0.9889721,-3.3395278,-0.019593734690166974,nan,nan,nan,3.3995041847229004,0.0007808208465576172,-0.5400709,-0.46933797,-0.232168,0.12439140624981826,0.08731902523838486,9.550124740600596,0.096719235,-0.027145857,-0.0046534864,1.6889895,-0.90456164,-3.0,0.0,-0.6730093,-0.53575826,0.0,0.14459306,0.06715961,9.93585,0.103799775,0.08445161,0.0,-0.027503978,0.727980424508971,0.085968017578125,-0.013946533203125,0.001373291015625
13.50249171257019,1.5413266,-1.0194302,-3.364684,-0.023947637038008472,nan,nan,nan,3.500173807144165,0.0012927055358886719,-0.61778694,-0.31650135,-0.21931243,0.13312939508267324,0.08411360850534444,9.554952545166026,0.06494209,-0.036677644,-0.0055413395,1.6179054,-0.9511241,-3.0,0.0,-0.73874396,-0.38806078,0.0,0.15192473,0.064270824,9.944845,0.07381909,0.06103623,0.0,-0.029864596,0.7281669338583745,0.055023193359375,-0.0208892822265625,0.006072998046875
13.611620426177979,1.4822233,-1.0318538,-3.3847609,-0.027608153684110064,nan,nan,nan,3.60996675491333,0.0017547607421875,-0.67924774,-0.1822074,-0.20824642,0.13796545706029048,0.08106991550271969,9.560919723510752,0.047531452,-0.034639765,-0.0059085893,1.5330129,-0.98455703,-3.0,0.0,-0.8070584,-0.21999224,0.0,0.15717895,0.06085735,9.950861,0.034900375,0.034544926,0.0,-0.03229182,0.7283973947752821,0.0855255126953125,0.01318359375,0.010040283203125
13.70889687538147,1.3999206,-1.030485,-3.4083474,-0.031618242555320954,nan,nan,nan,3.7065589427948,0.0011258125305175781,-0.7514481,-0.008443587,-0.19440658,0.14240783982132357,0.07801088398417333,9.56655403137208,0.0356551,-0.022497483,-0.005387564,1.4522828,-0.99851036,-3.0,0.0,-0.8639951,-0.06856542,0.0,0.15936926,0.05763972,9.95244,-0.0024954488,0.010759163,0.0,-0.0343147,0.7286149337577191,0.0253753662109375,-0.0116119384765625,0.0137939453125
13.813845157623291,1.3295271,-1.0160509,-3.4257472,-0.03400874176505053,nan,nan,nan,3.812089443206787,0.0020885467529296875,-0.8052776,0.12920655,-0.18368602,0.14487189742371923,0.07626080042329164,9.572791290283211,0.017738445,-0.01839984,-0.001157964,1.3579803,-0.99695766,-3.0,0.0,-0.9225568,0.097948305,0.0,0.1591256,0.05390655,9.949977,-0.044097062,-0.015371074,0.0,-0.036418304,0.7288556778068942,0.0389404296875,0.007659912109375,0.015045166015625
13.901633501052856,1.2396164,-0.9841059,-3.445231,-0.03588225454425046,nan,nan,nan,3.899350881576538,0.0009415149688720703,-0.86666805,0.2911686,-0.1718206,0.1456064332033898,0.07422874567206006,9.57626640319825,-0.0022351528,-0.019842247,0.0008598795,1.2754765,-0.98243976,-3.0,0.0,-0.9679287,0.23446326,0.0,0.15684646,0.050655596,9.944674,-0.077108726,-0.03682116,0.0,-0.03808113,0.7289897752634085,-0.032684326171875,-0.0305633544921875,0.015594482421875
14.00205683708191,1.1506444,-0.9408257,-3.461567,-0.03679752764565066,nan,nan,nan,3.999695301055908,0.0009260177612304688,-0.9208661,0.43706924,-0.1615159,0.14314778432603642,0.0711372047222083,9.578361663818367,-0.04103363,-0.033720024,0.005468465,1.1758802,-0.95117474,-3.0,0.0,-1.0164994,0.38786474,0.0,0.15193269,0.0467418,9.935176,-0.11134919,-0.061005246,0.0,-0.039911542,0.729070615301882,-0.04742431640625,-0.0328369140625,0.01611328125
14.103945970535278,1.0485237,-0.87959087,-3.4777935,-0.03708820415862126,nan,nan,nan,4.101613759994507,0.0010249614715576172,-0.9760163,0.5881325,-0.15138753,0.1376043519233098,0.06703614157877147,9.578834915161138,-0.073871166,-0.049194522,0.0067302296,1.0699406,-0.90396166,-3.0,0.0,-1.061696,0.53735507,0.0,0.14449848,0.042583156,9.92231,-0.13992114,-0.08470565,0.0,-0.04167974,0.7290888732176474,-0.0738372802734375,-0.0438690185546875,0.016448974609375
14.201303482055664,0.9575645,-0.8172953,-3.4904377,-0.03680607984608641,nan,nan,nan,4.198916435241699,0.0008482933044433594,-1.0192378,0.70749325,-0.14397807,0.1298588269280135,0.062318081122599844,9.576738586425787,-0.09996811,-0.05868886,0.008304905,0.9647003,-0.8450567,-3.0,0.0,-1.100787,0.67189455,0.0,0.13520072,0.038449228,9.90767,-0.15961237,-0.106191315,0.0,-0.04327504,0.7290079939647937,-0.0632476806640625,-0.0317840576171875,0.0169677734375
14.30144190788269,0.8453039,-0.73257935,-3.5048327,-0.03564157921135773,nan,nan,nan,4.299088716506958,0.0007843971252441406,-1.0656441,0.8354729,-0.13692935,0.11955147961117367,0.05701230610416519,9.57195335388184,-0.100342646,-0.050010324,0.0100139165,0.85259455,-0.7712426,-3.0,0.0,-1.1367327,0.7999014,0.0,0.123516575,0.034036443,9.891041,-0.17080526,-0.12680738,0.0,-0.044809073,0.7288233399235191,-0.0809173583984375,-0.0416107177734375,0.0167236328125
14.413013219833374,0.7281898,-0.63719445,-3.519191,-0.033860544306575625,nan,nan,nan,4.411081552505493,0.0015869140625,-1.107859,0.94931686,-0.13106497,0.10868263866664488,0.05172877121517794,9.564448089599614,-0.10875587,-0.052585036,0.010396749,0.7232838,-0.6743299,-3.0,0.0,-1.1715842,0.9279389,0.0,0.10812497,0.028929085,9.871757,-0.1714439,-0.1476328,0.0,-0.046370216,0.7285336314595597,-0.0831451416015625,-0.038909912109375,0.01531982421875
14.512747526168823,0.6159545,-0.5411588,-3.5320394,-0.03164226328046503,nan,nan,nan,4.510854005813599,0.0015330314636230469,-1.1431288,1.041579,-0.12694629,0.09828121519507264,0.04694628178073312,9.556146163940435,-0.10830694,-0.04647341,0.011525098,0.6050479,-0.57669646,-3.0,0.0,-1.1977533,1.0266204,0.0,0.092566766,0.024239972,9.855075,-0.16126944,-0.16384529,0.0,-0.047598127,0.728213038869974,-0.1000823974609375,-0.0456695556640625,0.01324462890625
14.601329803466797,0.5000188,-0.4389318,-3.544956,-0.02898393987735707,nan,nan,nan,4.598953008651733,0.0008714199066162109,-1.1748862,1.1207279,-0.12383889,0.08662294592348799,0.041542248599892195,9.546214065551766,-0.13152449,-0.06062052,0.012136334,0.4986535,-0.48290572,-3.0,0.0,-1.2169517,1.1004024,0.0,0.07757836,0.020004304,9.841564,-0.14425477,-0.1760702,0.0,-0.04853328,0.7278293114492811,-0.13385009765625,-0.066436767578125,0.011444091796875
14.701794862747192,0.37056786,-0.3221993,-3.558836,-0.025785982984658996,nan,nan,nan,4.699568510055542,0.0010905265808105469,-1.2046151,1.1901622,-0.12082283,0.07132653295367014,0.03430551194233966,9.532962112426768,-0.16325408,-0.07961589,0.011385686,0.3752947,-0.3686281,-3.0,0.0,-1.2343148,1.1681409,0.0,0.059269357,0.015075336,9.828373,-0.11660082,-0.18737836,0.0,-0.04940649,0.727317010182126,-0.15386962890625,-0.0765533447265625,0.010223388671875
14.801976442337036,0.2483982,-0.21029212,-3.5714746,-0.02270753001814438,nan,nan,nan,4.7997331619262695,0.0011394023895263672,-1.2257909,1.237337,-0.11789519,0.05470896311680515,0.026586724459459088,9.519471740722665,-0.17946193,-0.08504009,0.0102523435,0.25099897,-0.24901448,-3.0,0.0,-1.2467017,1.2170527,0.0,0.04006295,0.010092513,9.818378,-0.0819394,-0.19559734,0.0,-0.05004658,0.7267951261200146,-0.1560211181640625,-0.07061767578125,0.009674072265625
14.901415824890137,0.11478997,-0.08685054,-3.5851529,-0.019502436724997192,nan,nan,nan,4.899087905883789,0.0008094310760498047,-1.2397676,1.2680913,-0.11443034,0.03567704477361806,0.018105653045241032,9.506621780395514,-0.18417384,-0.0839312,0.009324253,0.12672494,-0.12647031,-3.0,0.0,-1.254112,1.2465469,0.0,0.020355385,0.005098696,9.8121605,-0.04259001,-0.2005762,0.0,-0.05043669,0.7262976728156318,-0.1570281982421875,-0.0611724853515625,0.009246826171875
15.001401901245117,0.0011389069,0.017796181,-3.5962942,-0.016915239482752493,nan,nan,nan,4.999037027359009,0.0009202957153320312,-1.2449682,1.2774045,-0.11105613,0.019367985495606133,0.011592726354921368,9.495217437744149,-0.18251416,-0.06680419,0.008338683,0.0012100377,-0.0012100376,-3.0,0.0,-1.2566369,1.2566361,0.0,0.00019478235,4.8695594e-05,9.81,-0.0004106841,-0.20228344,0.0,-0.050570883,0.7258559012293929,-0.1587982177734375,-0.0516204833984375,0.008392333984375
15.101229429244995,-0.122690566,0.13138738,-3.6075926,-0.014332665080839435,nan,nan,nan,5.098936319351196,0.0007534027099609375,-1.2441596,1.2715676,-0.106460735,0.001763491858952906,0.005661146522564886,9.486245269775399,-0.1812167,-0.058078505,0.008030262,-0.12424682,0.12400684,-3.0,0.0,-1.2542099,1.2469376,0.0,-0.019958995,-0.004999032,9.8120775,0.04177308,-0.20064229,0.0,-0.050441872,0.7255081586336544,-0.16595458984375,-0.0469818115234375,0.00665283203125
15.212110757827759,-0.22502124,0.22454035,-3.6164951,-0.01248895185537982,nan,nan,nan,5.210729598999023,0.0015103816986083984,-1.2388349,1.254055,-0.10181175,-0.01299077625744783,0.0011998819225913504,9.480284881591803,-0.18581988,-0.051324215,0.006269446,-0.26403767,0.26172662,-3.0,0.0,-1.245638,1.2128333,0.0,-0.042105798,-0.010615861,9.819256,0.08583425,-0.19488646,0.0,-0.04999103,0.7252770554493316,-0.1857452392578125,-0.0206451416015625,0.004547119140625
15.305252075195312,-0.34595037,0.33293137,-3.6262732,-0.010818884186628127,nan,nan,nan,5.303191900253296,0.0011894702911376953,-1.2273047,1.2172512,-0.0950337,-0.03162794836277659,-0.0025837768749079615,9.47894721984864,-0.19797565,-0.033108212,0.006347851,-0.3787023,0.37185135,-3.0,0.0,-1.2339039,1.1665266,0.0,-0.059786376,-0.015211728,9.828696,0.117464185,-0.18710788,0.0,-0.049385507,0.725225180073377,-0.193267822265625,-0.032257080078125,0.002044677734375
15.404760122299194,-0.46480995,0.4354122,-3.6349897,-0.009476140299775407,nan,nan,nan,5.402453184127808,0.0008733272552490234,-1.212123,1.1617839,-0.08750076,-0.0514182690511757,-0.005915720897287091,9.479919052124032,-0.20773007,-0.03740979,0.0057106637,-0.50036544,0.48445314,-3.0,0.0,-1.2166743,1.0993277,0.0,-0.07782595,-0.020072578,9.841767,0.14458215,-0.17589147,0.0,-0.04851954,0.7252628687127406,-0.1914520263671875,-0.0413818359375,-0.000518798828125
15.503328323364258,-0.58110785,0.5302612,-3.642761,-0.008441493876845875,nan,nan,nan,5.501429557800293,0.0017702579498291016,-1.1930368,1.0875977,-0.07867479,-0.07131252953169806,-0.009944298570603305,9.484604492187508,-0.20056891,-0.04519964,0.003563555,-0.61974245,0.58923787,-3.0,0.0,-1.1947836,1.0153121,0.0,-0.09456796,-0.024823781,9.857067,0.16305757,-0.16197968,0.0,-0.047456153,0.7254445477182703,-0.1788787841796875,-0.0466766357421875,-0.00189208984375
15.606521606445312,-0.6943925,0.61612654,-3.6498487,-0.007560118526006576,nan,nan,nan,5.604669094085693,0.0014939308166503906,-1.1692176,0.9952614,-0.06857769,-0.09020366799869006,-0.014552778619749684,9.49135513305665,-0.19157413,-0.04662712,0.0010844326,-0.74170136,0.6888125,-3.0,0.0,-1.1670295,0.9109859,0.0,-0.11042856,-0.02965781,9.874462,0.17212906,-0.14486238,0.0,-0.04616161,0.7257062264699975,-0.1660919189453125,-0.044830322265625,-0.0028076171875
15.701334714889526,-0.8132231,0.6972804,-3.6569498,-0.006767383699718535,nan,nan,nan,5.698942184448242,0.0008063316345214844,-1.1385707,0.8759081,-0.056584064,-0.10943774729836649,-0.019359026774749877,9.503585052490246,-0.17056723,-0.044902403,0.0005041356,-0.850356,0.7696655,-3.0,0.0,-1.1373945,0.80229664,0.0,-0.123266555,-0.0339482,9.890704,0.17092659,-0.127195,0.0,-0.044837996,0.726180064566999,-0.1159515380859375,-0.05059814453125,-0.003204345703125
15.801926136016846,-0.9184135,0.7594019,-3.6626306,-0.006241101259269882,nan,nan,nan,5.7995500564575195,0.0008120536804199219,-1.1049811,0.75015235,-0.044969965,-0.12362703906066694,-0.02400853914282397,9.519744644165051,-0.12113986,-0.047816176,-0.0012453775,-0.9630118,0.84402484,-3.0,0.0,-1.1013706,0.67393965,0.0,-0.13503765,-0.038382847,9.907426,0.15985587,-0.10651927,0.0,-0.04329939,0.7268056872357286,-0.0941619873046875,-0.04522705078125,-0.00335693359375
15.901253938674927,-1.0275238,0.8113937,-3.6680305,-0.005990813943827847,nan,nan,nan,5.8989174365997314,0.000885009765625,-1.0633311,0.6020116,-0.032283958,-0.13451187780822343,-0.02880160192934933,9.538020095825212,-0.08351492,-0.04176476,-0.0031658327,-1.0705048,0.90424705,-3.0,0.0,-1.0614715,0.53659624,0.0,-0.14454345,-0.042605318,9.922383,0.13979183,-0.08458492,0.0,-0.041670762,0.7275125864682637,-0.0623931884765625,-0.040771484375,-0.00299072265625
16.002863883972168,-1.1156965,0.84206545,-3.6717777,-0.005977668923198107,nan,nan,nan,6.000550270080566,0.0007302761077880859,-1.024793,0.469699,-0.02197482,-0.14109174990644702,-0.032360273171309295,9.55580154418947,-0.05850771,-0.036626972,-0.0029262237,-1.1761299,0.95127,-3.0,0.0,-1.0163853,0.38749555,0.0,-0.15194768,-0.04675161,9.935203,0.111271895,-0.0609469,0.0,-0.039907172,0.7281997277986018,-0.0749664306640625,-0.0360870361328125,-0.00323486328125
16.10285210609436,-1.2145457,0.862309,-3.675363,-0.006108498342576554,nan,nan,nan,6.100554466247559,0.0011878013610839844,-0.9752304,0.3079105,-0.011207654,-0.14729440312048897,-0.03602403349400518,9.574013977050797,-0.04502371,-0.031013494,-0.003284656,-1.2753849,0.9824176,-3.0,0.0,-0.96797633,0.23460999,0.0,-0.15684298,-0.050651986,9.944666,0.077143185,-0.036844242,0.0,-0.038082894,0.728902861548212,-0.044036865234375,-0.035400390625,-0.003143310546875
16.20257544517517,-1.3065989,0.86612254,-3.6778116,-0.006286657788538555,nan,nan,nan,6.200197696685791,0.0008499622344970703,-0.92180264,0.14274181,-0.0010490838,-0.1512632720825512,-0.03936974991703046,9.593645019531266,-0.015886394,-0.02862549,-0.0039045762,-1.3692756,0.99804235,-3.0,0.0,-0.9159421,0.07859293,0.0,-0.15929583,-0.05435256,9.95049,0.03930165,-0.012332952,0.0,-0.03617872,0.729660015519557,-0.0107421875,-0.033477783203125,-0.00311279296875
16.306241273880005,-1.390906,0.8538919,-3.678959,-0.006276857248764103,nan,nan,nan,6.303954362869263,0.0007731914520263672,-0.8639883,-0.021913724,0.007742667,-0.15187798198860347,-0.04254648035352271,9.611606597900405,-0.0035929263,-0.025934866,-0.003616623,-1.4613342,0.9977024,-3.0,0.0,-0.8579487,-0.08513582,0.0,-0.15924248,-0.05799934,9.952445,-0.0016488872,0.013359901,0.0,-0.034099244,0.7303521012043565,0.005828857421875,-0.028656005859375,-0.0032958984375
16.40151858329773,-1.4555168,0.83103216,-3.6789641,-0.006026896607869703,nan,nan,nan,6.399147272109985,0.0007882118225097656,-0.81177807,-0.15948969,0.013912219,-0.15190357173373387,-0.04503547303304134,9.627058334350602,0.010020944,-0.02377159,-0.004342686,-1.5403433,0.98248744,-3.0,0.0,-0.8015292,-0.23414752,0.0,-0.15685394,-0.061150763,9.950527,-0.038313463,0.036771484,0.0,-0.032095738,0.7309469617754217,0.00994873046875,-0.0241241455078125,-0.003631591796875
16.50542116165161,-1.5188905,0.7938775,-3.6783497,-0.005541861681060037,nan,nan,nan,6.503070592880249,0.0007429122924804688,-0.75147116,-0.3063343,0.019402124,-0.14994911508583375,-0.04721595167442394,9.639678039550796,0.03426138,-0.015236742,-0.005624732,-1.6202992,0.94985694,-3.0,0.0,-0.7366697,-0.39293137,0.0,-0.15172541,-0.06436762,9.944604,-0.07488263,0.061806068,0.0,-0.029790604,0.7314324408077513,0.014068603515625,-0.0200958251953125,-0.00469970703125
16.60918140411377,-1.5792395,0.73932207,-3.677075,-0.004751727153203905,nan,nan,nan,6.607247591018677,0.0014510154724121094,-0.683412,-0.45982513,0.0231481,-0.14582406804420728,-0.04888987592056648,9.648950195312516,0.05593036,-0.007444518,-0.0036066847,-1.6935182,0.9009119,-3.0,0.0,-0.66850144,-0.5453829,0.0,-0.1440177,-0.06734476,9.935143,-0.10556469,0.08598313,0.0,-0.027340664,0.7317889373992889,0.0401763916015625,-0.01495361328125,-0.00616455078125
16.702776193618774,-1.6273334,0.6766796,-3.6752806,-0.0037519745033641194,nan,nan,nan,6.700921535491943,0.0010492801666259766,-0.6184978,-0.59386283,0.025385777,-0.13976856314994843,-0.04990554810092784,9.654180908203141,0.07281159,-0.0030110145,-0.0048971344,-1.7531711,0.84370667,-3.0,0.0,-0.60475165,-0.67456836,0.0,-0.13498737,-0.069797546,9.924225,-0.12635764,0.10662008,0.0,-0.025005776,0.7319899727021307,0.068206787109375,-0.0102081298828125,-0.008148193359375
16.8067843914032,-1.6707139,0.596877,-3.672915,-0.002335702668697523,nan,nan,nan,6.804994821548462,0.0014836788177490234,-0.54568285,-0.7282077,0.026523309,-0.13024096660605333,-0.05040323332477037,9.656658096313494,0.10221659,0.00064835104,-0.006155937,-1.8123177,0.76649714,-3.0,0.0,-0.53147894,-0.80707234,0.0,-0.122764215,-0.07225824,9.910252,-0.1405123,0.12796801,0.0,-0.022253655,0.732085161038858,0.0872650146484375,-0.0064849853515625,-0.010711669921875
16.923949241638184,-1.70775,0.49815053,-3.670084,-0.0004942763377717777,nan,nan,nan,6.9220287799835205,0.001294851303100586,-0.46610826,-0.8574666,0.025640555,-0.1181979784393567,-0.05092623617809111,9.655672988891618,0.11310551,0.0038458435,-0.00802616,-1.869565,0.6641081,-3.0,0.0,-0.44638345,-0.93950784,0.0,-0.10649843,-0.07467162,9.893466,-0.14411755,0.14952579,0.0,-0.018951813,0.7320473088006796,0.1013336181640625,-0.0053253173828125,-0.013763427734375
17.00156831741333,-1.7282466,0.4205593,-3.667827,0.0008301524760646051,nan,nan,nan,6.999221086502075,0.0007455348968505859,-0.40900558,-0.93929535,0.024228005,-0.10886835956689976,-0.05116357802424765,9.652355499267598,0.12486944,0.003358347,-0.010159469,-1.9018104,0.58857673,-3.0,0.0,-0.38890702,-1.0159174,0.0,-0.094462484,-0.07604647,9.882494,-0.13921647,0.1620795,0.0,-0.016654376,0.7319198217919082,0.1255035400390625,-0.0008697509765625,-0.0157470703125
17.10586643218994,-1.7452012,0.32931507,-3.6650434,0.0022242065916377174,nan,nan,nan,7.104110479354858,0.0015146732330322266,-0.34625456,-1.0181668,0.02209602,-0.09635335152062674,-0.050930386055705545,9.646159896850605,0.150869,0.006545292,-0.011717817,-1.9384446,0.4772204,-3.0,0.0,-0.30936804,-1.1043122,0.0,-0.07666861,-0.077623464,9.868619,-0.12369527,0.17672063,0.0,-0.013388244,0.7316816738033158,0.11932373046875,-0.01617431640625,-0.01837158203125
17.201413869857788,-1.7594669,0.20581287,-3.661778,0.0037123376882393366,nan,nan,nan,7.1990649700164795,0.0010247230529785156,-0.26757714,-1.0991602,0.01858761,-0.07807970342745289,-0.05069426435375979,9.638991394042987,0.16597372,0.004711318,-0.014193795,-1.9643542,0.36921597,-3.0,0.0,-0.23619492,-1.1678478,0.0,-0.059363652,-0.078749135,9.857862,-0.10173909,0.18732925,0.0,-0.01030288,0.7314060337888121,0.1543121337890625,-0.004638671875,-0.020843505859375
17.301490783691406,-1.7658983,0.095885254,-3.6592906,0.004660882195899312,nan,nan,nan,7.2993268966674805,0.0009319782257080078,-0.20184311,-1.1497465,0.015456566,-0.06151505558293645,-0.05093949220417637,9.630998916625996,0.17541115,-0.0025071127,-0.015768388,-1.9841232,0.24950922,-3.0,0.0,-0.15802574,-1.2168927,0.0,-0.040142458,-0.079614185,9.849107,-0.0719128,0.19557035,0.0,-0.006936844,0.7310985898035477,0.1609954833984375,-0.012847900390625,-0.022125244140625
17.4064621925354,-1.7659732,-0.024638766,-3.656933,0.005568704502712733,nan,nan,nan,7.397732734680176,0.0009005069732666016,-0.13094434,-1.183524,0.011470279,-0.04279003914405798,-0.052062233784496925,9.62352050781252,0.1836388,-0.011967777,-0.018686708,-1.9958726,0.12815891,-3.0,0.0,-0.080691144,-1.2462745,0.0,-0.020627089,-0.08013094,9.843674,-0.037911877,0.20053013,0.0,-0.0035558443,0.7308108047788772,0.1713104248046875,-0.0067291259765625,-0.02227783203125
17.50489592552185,-1.7593834,-0.13504161,-3.655451,0.006512265151774145,nan,nan,nan,7.502804279327393,0.0010449886322021484,-0.06446946,-1.1943827,0.0073038507,-0.02460678969293772,-0.05331316010134701,9.61449676513674,0.18972619,-0.0029751088,-0.020599023,-1.9999969,-0.0035238431,-3.0,0.0,0.0022140995,-1.2566293,0.0,0.0005672405,-0.0803128,9.841725,0.0010518726,0.20228226,0.0,9.7704324e-05,0.7304634031254227,0.1678619384765625,-0.013275146484375,-0.02197265625
17.602747440338135,-1.7481422,-0.23360685,-3.6544871,0.007451116559568495,nan,nan,nan,7.600378036499023,0.0006723403930664062,-0.004049641,-1.1865306,0.0038651691,-0.00750678454614319,-0.0537786064635124,9.607391815185567,0.19020122,-0.004115852,-0.02164833,-1.9960235,-0.12580448,-3.0,0.0,0.079202764,-1.2466532,0.0,0.02024825,-0.08013758,9.843603,0.037227724,0.20059419,0.0,0.0034904305,0.7301897576166195,0.161712646484375,-0.0262298583984375,-0.02227783203125
17.701369762420654,-1.728991,-0.34579456,-3.6540244,0.008492063696299292,nan,nan,nan,7.699004411697388,0.0008518695831298828,0.066332445,-1.1567723,0.0007245856,0.012095032138998848,-0.05501035540911925,9.601280441284196,0.17892666,-0.0070949313,-0.022097627,-1.9843858,-0.2474779,-3.0,0.0,0.15671848,-1.2175475,0.0,0.039815992,-0.07962571,9.848988,0.07136923,0.19568071,0.0,0.006880047,0.7299542985004724,0.152069091796875,-0.0184783935546875,-0.02191162109375
17.80247712135315,-1.7059094,-0.44356418,-3.6542857,0.009229682056580478,nan,nan,nan,7.800216197967529,0.0008695125579833984,0.13043733,-1.1108239,-0.000994839,0.029029813408258637,-0.05599352593675766,9.597543106079119,0.16593987,-0.007851119,-0.023232663,-1.9645236,-0.36837742,-3.0,0.0,0.23563816,-1.1682658,0.0,0.059229143,-0.078756526,9.857789,0.10154775,0.18739931,0.0,0.01027914,0.7298102694599998,0.148284912109375,-0.0255126953125,-0.0208740234375
17.90151357650757,-1.6751086,-0.5407129,-3.6550572,0.009888239082235125,nan,nan,nan,7.899337530136108,0.0008609294891357422,0.19880812,-1.0422293,-0.0021200627,0.04617005469727033,-0.05712438251407814,9.596486358642595,0.15395758,-0.011338456,-0.023723138,-1.9373732,-0.48102412,-3.0,0.0,0.31200638,-1.101703,0.0,0.07727729,-0.0775771,9.869047,0.12435866,0.17628656,0.0,0.013498118,0.729769539550359,0.1361083984375,-0.0196380615234375,-0.01947021484375
18.00708794593811,-1.6448985,-0.615202,-3.6558664,0.010232748177720626,nan,nan,nan,8.004924297332764,0.0008640289306640625,0.25560242,-0.97053266,-0.0022696904,0.05985271257823489,-0.05844475511449532,9.59812118530275,0.14770253,-0.015830453,-0.022913447,-1.9001915,-0.5927807,-3.0,0.0,0.3920185,-1.0120502,0.0,0.09513314,-0.07597717,9.883072,0.13962421,0.16144192,0.0,0.016780125,0.729832549250871,0.149078369140625,-0.04278564453125,-0.017425537109375
18.101276636123657,-1.6016634,-0.6977211,-3.6569903,0.01048596831718971,nan,nan,nan,8.098899602890015,0.0008542537689208984,0.32619795,-0.8624179,-0.0010841653,0.07587402545622587,-0.059949443642572264,9.602358322143571,0.12832,-0.013443913,-0.021228388,-1.8600614,-0.6835387,-3.0,0.0,0.46179122,-0.9172374,0.0,0.10958984,-0.07426862,9.896486,0.14445314,0.1458835,0.0,0.01955845,0.7299958325539921,0.11480712890625,-0.0191192626953125,-0.014862060546875
18.201401233673096,-1.5607796,-0.75586355,-3.6580262,0.010700341020603348,nan,nan,nan,8.199083089828491,0.0010404586791992188,0.3852029,-0.75605345,0.0005802178,0.08806462951586574,-0.061266906068591975,9.609060440063493,0.119407006,-0.022615405,-0.019704938,-1.8101442,-0.7697786,-3.0,0.0,0.5343952,-0.80212516,0.0,0.12328448,-0.07216726,9.910824,0.14014749,0.12716724,0.0,0.022364741,0.7302540334077988,0.10943603515625,-0.0274505615234375,-0.0123291015625
18.302209854125977,-1.5130328,-0.8049081,-3.6588554,0.010865804853355913,nan,nan,nan,8.299920797348022,0.0008497238159179688,0.4475086,-0.6280418,0.003336088,0.10081706917121669,-0.06378232143558393,9.61752334594728,0.11097133,-0.026731474,-0.018089462,-1.752661,-0.844275,-3.0,0.0,0.6053352,-0.6734446,0.0,0.1350772,-0.06977645,9.924332,0.12620299,0.106439866,0.0,0.025027383,0.7305799404773282,0.0823822021484375,-0.0203094482421875,-0.008392333984375
18.403507947921753,-1.4658225,-0.8369142,-3.6589398,0.011101552367599715,nan,nan,nan,8.401168823242188,0.0010159015655517578,0.50432396,-0.50008047,0.00596478,0.11031546512480626,-0.06545385402187587,9.627245178222669,0.07801031,-0.017301464,-0.014714977,-1.6878682,-0.9054516,-3.0,0.0,0.67411906,-0.533379,0.0,0.14473332,-0.0671138,9.936023,0.1033594,0.08407313,0.0,0.027544154,0.7309541519638889,0.0738983154296875,-0.0294189453125,-0.005096435546875
18.509743213653564,-1.4152141,-0.8558718,-3.6584706,0.01152447557990536,nan,nan,nan,8.507798433303833,0.001211404800415039,0.5602782,-0.3651793,0.00914289,0.11707405934439177,-0.06685446121063321,9.637682266235366,0.056494467,-0.021298349,-0.012670316,-1.6122546,-0.95403904,-3.0,0.0,0.74360514,-0.37659198,0.0,0.15238316,-0.06404248,9.945398,0.071297735,0.059224032,0.0,0.030037906,0.7313556847339325,0.0829925537109375,-0.0474853515625,-0.00225830078125
18.614704370498657,-1.3605897,-0.86195,-3.6573513,0.011972483165102299,nan,nan,nan,8.613063335418701,0.0015103816986083984,0.61599445,-0.2263976,0.0123069715,0.1227435181896363,-0.06911592259425392,9.64816719055177,0.052699722,-0.034635935,-0.010442531,-1.5305101,-0.985231,-3.0,0.0,0.8089315,-0.21517454,0.0,0.15728477,-0.060757212,9.950968,0.033734426,0.03378728,0.0,0.032358248,0.7317588389926472,0.08929443359375,-0.0556182861328125,0.001617431640625
18.71200203895569,-1.2959026,-0.85413015,-3.65564,0.012546637193212862,nan,nan,nan,8.709673881530762,0.0009326934814453125,0.67788875,-0.072395965,0.015311608,0.1281680008534535,-0.07211478395933635,9.657766265869155,0.04003669,-0.027544355,-0.008127094,-1.4495883,-0.9987163,-3.0,0.0,0.8657796,-0.06365249,0.0,0.15940158,-0.05753272,9.952431,-0.0037253671,0.009988131,0.0,0.03437834,0.7321277395677617,0.0498199462890625,-0.0271453857421875,0.006317138671875
18.80539059638977,-1.2309312,-0.8336115,-3.6543162,0.013461601860354507,nan,nan,nan,8.803014278411865,0.0008668899536132812,0.7361036,0.07132087,0.017651709,0.13110538174749164,-0.07361277677344469,9.664908905029309,0.013469173,-0.008376101,-0.0032431425,-1.3663299,-0.9977817,-3.0,0.0,0.9176769,0.08365592,0.0,0.15925491,-0.054236222,9.950361,-0.040557913,-0.013127618,0.0,0.036241498,0.7324021182799618,0.0211639404296875,-0.007598876953125,0.00921630859375
18.91325044631958,-1.1548053,-0.7971449,-3.652825,0.014881951692435474,nan,nan,nan,8.911242485046387,0.0010118484497070312,0.7987061,0.22655351,0.019698134,0.13179269140952013,-0.07378908770629988,9.671263885498059,-0.01025968,0.0069692926,0.0013764508,-1.2639301,-0.9795419,-3.0,0.0,0.9738898,0.25288612,0.0,0.15639134,-0.05020141,9.94373,-0.08141411,-0.039720073,0.0,0.038302604,0.732646154499687,0.0059356689453125,0.0003204345703125,0.01092529296875
19.00528621673584,-1.0787296,-0.75078547,-3.6508894,0.016585682463686476,nan,nan,nan,9.00333833694458,0.001455545425415039,0.85513127,0.36652923,0.020676818,0.12978327244285517,-0.0725893532366011,9.674073486328135,-0.03612783,0.018817227,0.0031541693,-1.1721741,-0.9497518,-3.0,0.0,1.0181879,0.39333242,0.0,0.15170889,-0.046596285,9.934768,-0.11249064,-0.06186947,0.0,0.039976362,0.7327540198086379,-0.02325439453125,0.0165252685546875,0.011077880859375
19.103426694869995,-0.9904703,-0.6874226,-3.648586,0.018824177420516154,nan,nan,nan,9.101585865020752,0.002019166946411133,0.9135286,0.5119673,0.020694673,0.12504285292364872,-0.0701277136763645,9.674306335449229,-0.051229127,0.022112329,0.0076276036,-1.0699711,-0.90397704,-3.0,0.0,1.0616839,0.53731406,0.0,0.1445009,-0.04258436,9.922314,-0.13991416,-0.08469913,0.0,0.041679252,0.7327629585757591,-0.05560302734375,0.0335235595703125,0.009979248046875
19.201385259628296,-0.9117495,-0.6237252,-3.6464381,0.020876453185353257,nan,nan,nan,9.19904899597168,0.0007357597351074219,0.9596758,0.62870145,0.019685777,0.11948981624818608,-0.06747553281823127,9.671818771362316,-0.06677753,0.025791591,0.007895914,-0.96455437,-0.84496766,-3.0,0.0,1.1008375,0.6720714,0.0,0.13518667,-0.03844349,9.90765,-0.15963349,-0.106219664,0.0,0.04327714,0.7326674587442785,-0.054046630859375,0.0255279541015625,0.008575439453125
19.302489280700684,-0.8219905,-0.54396,-3.6438022,0.023329983413487007,nan,nan,nan,9.300203084945679,0.0009217262268066406,1.006119,0.74809474,0.018030468,0.11170775549260571,-0.06411340277542954,9.666008529663099,-0.09810705,0.04156094,0.009805162,-0.8513273,-0.77035034,-3.0,0.0,1.1371076,0.801258,0.0,0.123375125,-0.03398649,9.89085,-0.17087443,-0.12702692,0.0,0.044825457,0.7324443504647834,-0.0666351318359375,0.023040771484375,0.006622314453125
19.401415586471558,-0.7204501,-0.44667017,-3.6412628,0.026005168174535902,nan,nan,nan,9.399041414260864,0.000728607177734375,1.0514293,0.86541975,0.015521592,0.10096180792882872,-0.060187660937231824,9.658405761718765,-0.10837679,0.03468539,0.009594591,-0.7373688,-0.6854246,-3.0,0.0,1.1681129,0.91501224,0.0,0.10988979,-0.02948642,9.873824,-0.17199048,-0.14551997,0.0,0.04621109,0.7321523094186072,-0.0989532470703125,0.034698486328125,0.00421142578125
19.501296520233154,-0.62345356,-0.34819102,-3.6394885,0.028346784623044314,nan,nan,nan,9.498957872390747,0.0007610321044921875,1.0889071,0.96132815,0.012504794,0.08994261810206217,-0.05681133207420852,9.64835670471193,-0.122596554,0.035685033,0.01002811,-0.6192791,-0.588844,-3.0,0.0,1.1948785,1.0156728,0.0,0.09450513,-0.024805373,9.857004,-0.16300337,-0.16203918,0.0,0.04746068,0.7317661239572595,-0.1171722412109375,0.0367279052734375,0.0025634765625
19.601442337036133,-0.5147727,-0.23411289,-3.6385405,0.03068791175126881,nan,nan,nan,9.599117040634155,0.0009300708770751953,1.1252909,1.0496552,0.008303514,0.07570986996990545,-0.05249882700445818,9.635413131713884,-0.15428567,0.048167832,0.007417958,-0.49845383,-0.48272517,-3.0,0.0,1.216984,1.1005274,0.0,0.07754947,-0.019996343,9.84154,-0.14421651,-0.17609102,0.0,0.048534878,0.7312684057201514,-0.1446533203125,0.0482330322265625,0.00054931640625
19.715103149414062,-0.41143453,-0.1237965,-3.6385565,0.03252556862586387,nan,nan,nan,9.71324634552002,0.0017099380493164062,1.15437,1.1141945,0.004233294,0.05977608112562475,-0.047496240765630304,9.619916992187516,-0.17565398,0.05432843,0.0060629225,-0.3583981,-0.35259667,-3.0,0.0,1.2362957,1.17593,0.0,0.056697413,-0.014398857,9.826808,-0.11224461,-0.18868414,0.0,0.04950787,0.730672093937311,-0.136260986328125,0.0285186767578125,-0.00189208984375
19.801210641860962,-0.2968068,-0.0007993789,-3.6394522,0.03412342466649605,nan,nan,nan,9.798859596252441,0.0010726451873779297,1.1801448,1.1635449,-0.0003679424,0.0410995093914476,-0.04203622828798248,9.60814727783205,-0.17760694,0.04409111,0.0031085531,-0.25208822,-0.25007772,-3.0,0.0,1.2466149,1.2167084,0.0,0.040233824,-0.010136239,9.81845,-0.0822668,-0.1955393,0.0,0.050042044,0.7302188588925795,-0.157562255859375,0.052276611328125,-0.004150390625
19.901562690734863,-0.19827905,0.10441652,-3.6407487,0.035143089047905286,nan,nan,nan,9.899197816848755,0.0009682178497314453,1.1976444,1.1881351,-0.00417314,0.025090399741260067,-0.03736532829761985,9.593732604980486,-0.18393655,0.055386946,0.0017704624,-0.12658677,-0.12633295,-3.0,0.0,1.2541175,1.2465688,0.0,0.020333283,-0.0050931387,9.812156,-0.04254448,-0.2005799,0.0,0.050436985,0.7296633918852,-0.1527252197265625,0.0415802001953125,-0.0054931640625
20.010213136672974,-0.07156417,0.23726664,-3.642742,0.035893377129690186,nan,nan,nan,10.00786018371582,0.000732421875,1.2142788,1.1964383,-0.008345324,0.004412459138527995,-0.03135889521831814,9.581899261474629,-0.18184136,0.050198562,-0.0016338286,0.009877514,0.009877394,-3.0,0.0,1.2566217,1.2565758,0.0,-0.0015899838,0.0003975006,9.810014,0.0033522092,-0.20227319,0.0,0.05057008,0.729207084001064,-0.1540985107421875,0.0490875244140625,-0.0068359375
20.109156847000122,0.028586384,0.33908445,-3.644715,0.036071315365800646,nan,nan,nan,10.10727858543396,0.0014641284942626953,1.2231044,1.1853967,-0.011116744,-0.011468388425051374,-0.027040407580578796,9.571615066528341,-0.17696401,0.046180844,-0.0020776843,0.13470873,0.13440283,-3.0,0.0,1.2537835,1.2452353,0.0,-0.021631734,0.005419768,9.81244,0.045215275,-0.20035444,0.0,0.05041928,0.7288102842393014,-0.154327392578125,0.0453338623046875,-0.006866455078125
20.202754735946655,0.14721084,0.45500755,-3.6477954,0.035945564903320355,nan,nan,nan,10.200546503067017,0.0007216930389404297,1.2286391,1.1531398,-0.013391434,-0.029916784185559438,-0.021677070748833627,9.563541641235373,-0.17501317,0.05163234,-0.003479472,0.25134814,0.24935535,-3.0,0.0,1.246674,1.2169425,0.0,-0.04011773,0.010106529,9.818401,0.0820444,-0.19557874,0.0,0.050045125,0.7284986342251207,-0.150115966796875,0.061553955078125,-0.00732421875
20.30628728866577,0.24793984,0.5480423,-3.6506526,0.03552708843430638,nan,nan,nan,10.303938150405884,0.0016372203826904297,1.229398,1.1102375,-0.014045488,-0.045004143588409276,-0.01631438768644422,9.557695236206076,-0.16545898,0.06294613,-0.006874138,0.37962294,0.3727216,-3.0,0.0,1.2337922,1.1660879,0.0,-0.05992596,0.015248576,9.828784,0.11769655,-0.1870344,0.0,0.04937981,0.7282728694222691,-0.1573333740234375,0.05224609375,-0.0076904296875
20.406611442565918,0.35840094,0.6427772,-3.6537817,0.03471360960713657,nan,nan,nan,10.40482497215271,0.0015344619750976562,1.2259192,1.0482585,-0.013106338,-0.06096724038807236,-0.010180293481184322,9.555522613525412,-0.16100158,0.06452512,-0.006928123,0.50325096,0.48705873,-3.0,0.0,1.2162044,1.0975082,0.0,-0.07824283,0.020187644,9.842111,0.14513016,-0.17558889,0.0,0.048496295,0.728188953817898,-0.1610870361328125,0.0520172119140625,-0.008209228515625
20.51070499420166,0.477728,0.73657376,-3.6569505,0.03351073494738152,nan,nan,nan,10.508878707885742,0.001573801040649414,1.2160596,0.9643403,-0.01067324,-0.07764926260213038,-0.003364056378946545,9.557229080200218,-0.15642266,0.06273653,-0.007409993,0.6286359,0.5967752,-3.0,0.0,1.1929479,1.0083362,0.0,-0.0957703,0.025176967,9.858286,0.16406988,-0.16082986,0.0,0.047368743,0.7282548653679476,-0.158447265625,0.054290771484375,-0.0087890625
20.60807466506958,0.6044166,0.8250165,-3.6598213,0.031989926258076916,nan,nan,nan,10.606206893920898,0.0013515949249267578,1.1981394,0.855306,-0.006684368,-0.09494145880492039,0.003800363217433489,9.561834945678731,-0.15049051,0.06442986,-0.009326245,0.7434956,0.690212,-3.0,0.0,1.1665787,0.90931165,0.0,-0.11065108,0.029728776,9.874727,0.1721823,-0.144589,0.0,0.046141032,0.7284327355956244,-0.127105712890625,0.0628814697265625,-0.009246826171875
20.70592474937439,0.7020834,0.884118,-3.6618207,0.030652260804600998,nan,nan,nan,10.704124450683594,0.0020389556884765625,1.1785136,0.75636023,-0.0030053847,-0.10783572334782236,0.009447350829880241,9.569181594848652,-0.13454229,0.06406889,-0.008507623,0.8562454,0.77380663,-3.0,0.0,1.1356488,0.79598147,0.0,-0.12392303,0.034180354,9.891589,0.17059891,-0.1261732,0.0,0.044761747,0.7287163613131538,-0.1263885498046875,0.05682373046875,-0.0091552734375
20.813194751739502,0.82306397,0.94390476,-3.663991,0.028812386282063646,nan,nan,nan,10.811294794082642,0.0016064643859863281,1.1463968,0.615036,0.0027236745,-0.12240070288474664,0.016420481613920623,9.580158767700217,-0.1188098,0.059415318,-0.009637748,0.9759207,0.8518478,-3.0,0.0,1.0968755,0.6582132,0.0,-0.13627389,0.038890284,9.909292,0.15793587,-0.10399852,0.0,0.04311222,0.7291399447146344,-0.092193603515625,0.0542449951171875,-0.009368896484375
20.901540994644165,0.9151957,0.9780648,-3.6654,0.027277698255487988,nan,nan,nan,10.899164199829102,0.0010423660278320312,1.1163148,0.49386525,0.0077233193,-0.13193162760459562,0.021564264301903613,9.591755294799826,-0.09530529,0.05505203,-0.010514589,1.0707668,0.9043794,-3.0,0.0,1.0613672,0.5362438,0.0,-0.14456433,0.042615596,9.922419,0.1397317,-0.084528856,0.0,0.041666597,0.7295871640298802,-0.069091796875,0.050750732421875,-0.009033203125
21.001279830932617,1.0125227,1.0022291,-3.666431,0.025578581131336625,nan,nan,nan,10.99890398979187,0.0009722709655761719,1.0790704,0.35406888,0.013128623,-0.13993031447571633,0.026708782896263106,9.607005157470727,-0.060227353,0.05128443,-0.009843093,1.1744568,0.9506303,-3.0,0.0,1.0171487,0.38996667,0.0,-0.15184708,0.046685915,9.9350195,0.11178876,-0.06133746,0.0,0.039936464,0.7301748626812727,-0.0532073974609375,0.048065185546875,-0.008453369140625
21.101726293563843,1.1141376,1.012311,-3.666688,0.023762832043346477,nan,nan,nan,11.09945797920227,0.0010166168212890625,1.034458,0.19699499,0.01911767,-0.14485845083244892,0.031862998588019664,9.622601089477564,-0.031705014,0.04857183,-0.010961346,1.2743232,0.98215944,-3.0,0.0,0.9685282,0.23631084,0.0,-0.15680245,0.05061023,9.944581,0.07754246,-0.037111826,0.0,0.03810337,0.7307754158946804,-0.027435302734375,0.0484161376953125,-0.00738525390625
21.20116376876831,1.2043287,1.0069555,-3.6664379,0.022080401495568808,nan,nan,nan,11.198812007904053,0.0007216930389404297,0.98946565,0.050308134,0.023551885,-0.14687647968734285,0.03648567733028574,9.63755836486819,-0.011139323,0.048932754,-0.010766311,1.3680066,0.99793196,-3.0,0.0,0.9166903,0.08077543,0.0,-0.1592785,0.054302443,9.950435,0.039843343,-0.012675504,0.0,0.036205795,0.7313509193102764,-0.022247314453125,0.049102783203125,-0.006805419921875
21.32204246520996,1.3042995,0.9834582,-3.6657634,0.02016969867520245,nan,nan,nan,11.322309494018555,0.0013742446899414062,0.9323306,-0.11965614,0.02736809,-0.14736862773243564,0.041908463379793925,9.651081390380885,-0.0035219984,0.050188858,-0.00882206,1.4769849,0.9958744,-3.0,0.0,0.8473024,-0.11402986,0.0,-0.15895559,0.05862178,9.952349,-0.008855746,0.017895738,0.0,0.03372037,0.7318708535460372,-0.0332489013671875,0.0510406494140625,-0.00592041015625
21.401408672332764,1.3717475,0.95502764,-3.6650178,0.01884553851979348,nan,nan,nan,11.39902138710022,0.0007402896881103516,0.8880737,-0.24036324,0.029457226,-0.14812910212027763,0.04588757172550584,9.658139038085963,-0.007042914,0.05144997,-0.008427459,1.5402421,0.982517,-3.0,0.0,0.801606,-0.23395169,0.0,-0.15685858,0.06114671,9.950532,-0.038266387,0.036740676,0.0,0.032098457,0.7321420618202151,-0.0020599365234375,0.0489044189453125,-0.005523681640625
21.501511573791504,1.4542232,0.9034924,-3.663133,0.017278966901404638,nan,nan,nan,11.499143838882446,0.0008685588836669922,0.82667625,-0.3965111,0.031839386,-0.14773413762322302,0.05089533677633429,9.666726760864284,0.032070033,0.04657854,-0.0071100146,1.6174016,0.95138836,-3.0,0.0,0.7391794,-0.38703653,0.0,-0.15196627,0.064250454,9.944896,-0.07359489,0.060874358,0.0,0.029880125,0.7324719335561223,0.0462799072265625,0.0443878173828125,-0.005401611328125
21.601285934448242,1.5243742,0.84202164,-3.661014,0.015967734253040128,nan,nan,nan,11.599019765853882,0.0007932186126708984,0.76609826,-0.536623,0.033152703,-0.14298872135441332,0.05514105042608497,9.673263092041042,0.06515407,0.044644058,-0.007185285,1.6879959,0.9053505,-3.0,0.0,0.67399275,-0.53365,0.0,-0.1447174,0.06711902,9.936003,-0.10340966,0.08411624,0.0,0.027539581,0.7327229090143335,0.065093994140625,0.0423736572265625,-0.005279541015625
21.70123863220215,1.5935278,0.7606476,-3.6579747,0.014684799915980644,nan,nan,nan,11.698861122131348,0.0009012222290039062,0.6964825,-0.68051046,0.033319566,-0.13470722781057543,0.059450197178646746,9.67653900146487,0.10144553,0.038869664,-0.006936727,1.7519234,0.8450939,-3.0,0.0,0.6061774,-0.67182064,0.0,-0.13520661,0.06974595,9.924485,-0.12597859,0.10617946,0.0,0.02505856,0.7328486621853794,0.1002960205078125,0.0349273681640625,-0.00531005859375
21.801331758499146,1.6504476,0.67355084,-3.6544738,0.013655459322323447,nan,nan,nan,11.798945665359497,0.0007808208465576172,0.62854826,-0.8021755,0.03272129,-0.12388480661225276,0.06280152025599484,9.676629943847681,0.12800708,0.031542365,-0.006614091,1.8090898,0.7713567,-3.0,0.0,0.53580284,-0.7997276,0.0,-0.12353467,0.07212313,9.9111,-0.1399656,0.12677927,0.0,0.022418313,0.7328521529101453,0.108795166015625,0.03228759765625,-0.005126953125
21.912494897842407,1.7078577,0.5591425,-3.650758,0.012541581941086281,nan,nan,nan,11.910664319992065,0.001600027084350586,0.5457364,-0.9276612,0.030194871,-0.1088726498217818,0.06616528864353266,9.673849105834984,0.14269184,0.02905695,-0.0060255355,1.864445,0.67471606,-3.0,0.0,0.45475903,-0.9274954,0.0,-0.108186424,0.07445438,9.895105,-0.14435275,0.14756027,0.0,0.019282065,0.7327454060390673,0.1244964599609375,0.0258026123046875,-0.004730224609375
22.006436347961426,1.7464244,0.46136168,-3.6485507,0.011747468240811028,nan,nan,nan,12.004655838012695,0.0016222000122070312,0.4787526,-1.0120913,0.026977316,-0.09619294741572151,0.06865292164870751,9.66884849548342,0.1477493,0.027652852,-0.0049836566,1.903913,0.5830415,-3.0,0.0,0.38482407,-1.0209452,0.0,-0.093579315,0.076136544,9.881739,-0.13865751,0.16290876,0.0,0.016489122,0.7325534110826951,0.1276092529296875,0.024322509765625,-0.00469970703125
22.105113744735718,1.784619,0.33875805,-3.6466577,0.010899631370709859,nan,nan,nan,12.103122472763062,0.001649618148803711,0.3978506,-1.0954982,0.022681177,-0.08083881072631709,0.07125600745096317,9.661882095336935,0.15698497,0.019265344,-0.004500648,1.9381386,0.4783106,-3.0,0.0,0.31012374,-1.1035671,0.0,-0.076843075,0.07761021,9.868742,-0.12388626,0.17659667,0.0,0.013419724,0.7322858582142097,0.153564453125,0.0125274658203125,-0.004730224609375
22.20649480819702,1.808672,0.24004477,-3.6455493,0.010374680224076192,nan,nan,nan,12.204630374908447,0.0014691352844238281,0.33484122,-1.147327,0.0190012,-0.06771998825658562,0.07259817404933666,9.653413543701193,0.17032185,0.018278591,-0.0050853365,1.9656565,0.3627081,-3.0,0.0,0.23187797,-1.1710637,0.0,-0.05831969,0.07880595,9.8573,-0.100246616,0.1878682,0.0,0.010118712,0.731960483505379,0.143157958984375,0.0302886962890625,-0.00439453125
22.301508903503418,1.8315002,0.11797528,-3.6445374,0.009791405379667516,nan,nan,nan,12.299185752868652,0.0008957386016845703,0.25856277,-1.1941187,0.014517082,-0.051633602783787015,0.07490178357797772,9.642018356323266,0.17587098,0.02230846,-0.0039372537,1.9841009,0.24968034,-3.0,0.0,0.15813589,-1.2168373,0.0,-0.040169954,0.07961321,9.849117,-0.07195854,0.19556102,0.0,0.006941628,0.731522437665819,0.1640625,0.02197265625,-0.004974365234375
22.404955863952637,1.8470086,0.0046818512,-3.6436465,0.009350259169280142,nan,nan,nan,12.402696371078491,0.0014522075653076172,0.18853799,-1.221423,0.011242923,-0.03549500850444735,0.07663986146149115,9.631746673584006,0.18700117,0.022812942,-0.0042796056,1.9962634,0.121970214,-3.0,0.0,0.0767796,-1.2472547,0.0,-0.019631285,0.08014816,9.84349,-0.036112104,0.20069592,0.0,0.003383914,0.7311273589310259,0.168548583984375,0.03472900390625,-0.00531005859375
22.513249158859253,1.8587581,-0.13864835,-3.6419668,0.008742952989991441,nan,nan,nan,12.511389255523682,0.0018031597137451172,0.098304614,-1.2329832,0.0073171807,-0.013965489424797084,0.07923306293829024,9.622301864624045,0.19913971,0.018310139,-0.0044578705,1.9999487,-0.014311978,-3.0,0.0,-0.008992711,-1.2565085,0.0,0.0023038255,0.08031069,9.841748,0.004271699,0.2022618,0.0,-0.00039682613,0.7307638982116521,0.1797943115234375,0.02166748046875,-0.00677490234375
22.601489543914795,1.8611571,-0.24844714,-3.640196,0.008144891026765052,nan,nan,nan,12.599111557006836,0.0007088184356689453,0.026350604,-1.2225046,0.005499421,0.003796975827116245,0.08065231721683563,9.615325012207053,0.20388387,0.01367192,-0.0054409117,1.9961232,-0.12422593,-3.0,0.0,-0.07820505,-1.2469032,0.0,0.019994248,0.08014198,9.843555,0.03676865,0.20063643,0.0,-0.0034465767,0.7304952962890415,0.1771087646484375,0.0144500732421875,-0.00750732421875
22.70168399810791,1.8562013,-0.37275508,-3.6386113,0.0071250310603985356,nan,nan,nan,12.699352264404297,0.0007128715515136719,-0.059105296,-1.1880566,0.0045415666,0.024697065742676126,0.08140917243379131,9.60906539916994,0.19616793,0.0015490401,-0.004469607,1.9843313,-0.24790171,-3.0,0.0,-0.15699117,-1.2174114,0.0,0.039884105,0.07962331,9.849012,0.07148273,0.19565776,0.0,-0.0068918956,0.7302542244253337,0.164398193359375,0.0039825439453125,-0.007598876953125
22.816490173339844,1.8413637,-0.49784493,-3.6371474,0.005685440621319895,nan,nan,nan,12.814595222473145,0.0015902519226074219,-0.14959908,-1.1255524,0.0049388334,0.04580440096376913,0.08116571940990891,9.60571380615236,0.1780427,-0.0049398225,-0.007516253,1.961055,-0.38511553,-3.0,0.0,-0.24678066,-1.1597106,0.0,0.061913643,0.078605294,9.859277,0.10531248,0.18596643,0.0,-0.010753536,0.7301251147165736,0.149932861328125,0.0067291259765625,-0.006744384765625
22.901287317276,1.8228188,-0.5876957,-3.6359475,0.004311776401639322,nan,nan,nan,12.898898839950562,0.00091552734375,-0.2198345,-1.0592191,0.0064518307,0.06092732281801212,0.08095127562063964,9.6059369659424,0.16413656,-0.0018728661,-0.006657386,1.93751,-0.48054054,-3.0,0.0,-0.31167066,-1.1020361,0.0,0.077199906,0.07758302,9.868993,0.12427478,0.17634197,0.0,-0.013484143,0.7301337119540754,0.132171630859375,-0.0008697509765625,-0.006011962890625
