time,x,y,z,yaw,platform,trajectory,controller,feedforward,traj_time,comp_time,vx,vy,vz,roll,pitch,f,p,q,r,x_ref,y_ref,z_ref,yaw_ref,vx_ref,vy_ref,vz_ref,roll_ref,pitch_ref,f_ref,u_ff_df,u_ff_dphi,u_ff_dpsi,u_ff_dth,throttle,p_cmd,q_cmd,r_cmd
10.001846075057983,-0.087639354,-0.10136297,-2.6431377,0.05738105539369297,SIM,fig8_heading,contraction,0.0,1.6689300537109375e-06,0.014789819717407227,0.109774336,-0.023490837,-0.19558725,0.015130466157071806,-0.003169130869909109,9.808878707885743,0.022506326,0.011197212,-0.038958516,1.0486198e-06,1.0486198e-06,-3.0,0.7853982,0.62831855,0.62831855,0.0,-7.502159e-08,1.8755397e-08,9.81,3.5150563e-08,-0.0449519,-4.3924484e-07,0.011237975,0.7379111399995921,0.95965576171875,-0.82916259765625,0.719207763671875
10.101088047027588,-0.079537876,-0.110609464,-2.661565,0.05175955438221827,nan,nan,nan,nan,0.0990598201751709,0.0006418228149414062,0.10795245,-0.013446501,-0.19613792,0.01940036036618055,-0.005727375267187584,9.80130699157715,0.17400466,-0.20977764,-0.03895013,0.06222327,0.06216971,-3.0,0.784105,0.6277777,0.62615615,0.0,-0.004447789,0.0011129011,9.810103,0.0020772056,-0.04479631,-0.02614645,0.011227957,0.7376224187087256,0.9673004150390625,-0.8637542724609375,0.7255859375
10.201168537139893,-0.07046145,-0.11773713,-2.6837246,0.04971497723646917,nan,nan,nan,nan,0.19920134544372559,0.0006034374237060547,0.12384294,0.018478267,-0.23168473,0.0575881266486519,-0.04294401173791629,9.7854434967041,0.6256746,-0.61593026,0.045439556,0.12501672,0.124581754,-3.0,0.7801459,0.6261325,0.61958957,0.0,-0.008912738,0.002235931,9.810414,0.0041213017,-0.044323884,-0.05304034,0.0111974925,0.7370171572297392,0.7706298828125,-0.6616058349609375,0.756622314453125
10.301011800765991,-0.05802415,-0.1178267,-2.7076817,0.055909692526557316,nan,nan,nan,nan,0.29895782470703125,0.0006594657897949219,0.18917449,0.10820376,-0.265888,0.1327071463349788,-0.10903658750855239,9.761464920043945,0.78540164,-0.57016623,0.21223944,0.18735018,0.1858831,-3.0,0.7734814,0.62339836,0.60871494,0.0,-0.013297884,0.003350598,9.810923,0.0060474095,-0.0435417,-0.08077169,0.0111469235,0.736101337985941,0.2920074462890625,-0.2078857421875,0.802520751953125
10.401100873947144,-0.0328922,-0.10130707,-2.736405,0.08495767364376156,nan,nan,nan,nan,0.3990628719329834,0.0006918907165527344,0.31140798,0.28668675,-0.28464824,0.18680251661318004,-0.14577506491783931,9.733320922851565,0.30029607,-0.06989064,0.41981453,0.24957255,0.24609387,-3.0,0.7639443,0.61956066,0.59353125,0.0,-0.017604517,0.0044630817,9.811619,0.007818111,-0.042449947,-0.11005961,0.01107606,0.7350249917915472,-0.2408447265625,0.1662445068359375,0.797607421875
10.500937223434448,0.0061938753,-0.06438276,-2.7641287,0.13728264878070814,nan,nan,nan,nan,0.4988687038421631,0.0005457401275634766,0.43186435,0.4821836,-0.29043633,0.1811913728353571,-0.14488005797976733,9.706188812255863,-0.21890362,0.24038225,0.5809797,0.31117225,0.30440304,-3.0,0.75142103,0.61465013,0.5742395,0.0,-0.021774517,0.0055641867,9.812478,0.009374885,-0.041063443,-0.14128067,0.010985584,0.7339858702392936,-0.5226898193359375,0.3276214599609375,0.733917236328125
10.600796461105347,0.06589764,-0.0012409823,-2.7947567,0.2155854078267853,nan,nan,nan,nan,0.598691463470459,0.0005993843078613281,0.54249984,0.66890955,-0.2957651,0.12775929298306254,-0.12178877922713438,9.681840438842777,-0.56017774,0.37544283,0.6973296,0.3722385,0.36059463,-3.0,0.73565197,0.60866433,0.5509312,0.0,-0.025792362,0.006655468,9.813481,0.010682444,-0.039389156,-0.17516004,0.010875579,0.7330521247258152,-0.57733154296875,0.364288330078125,0.622344970703125
10.702690362930298,0.13402803,0.07230435,-2.8231971,0.29802979188971557,nan,nan,nan,nan,0.7007596492767334,0.0006692409515380859,0.620663,0.78335714,-0.30419526,0.0611779971053336,-0.09117915811372224,9.659476089477545,-0.632714,0.37810925,0.74289966,0.4340046,0.41544116,-3.0,0.71586084,0.60144377,0.5231185,0.0,-0.029713232,0.007758935,9.814628,0.011725908,-0.037392523,-0.21330118,0.010743282,0.7321934302946509,-0.477996826171875,0.3180084228515625,0.495849609375
10.801610708236694,0.21899827,0.15787885,-2.85485,0.38034029445613726,nan,nan,nan,nan,0.7995650768280029,0.0006444454193115234,0.6915062,0.8291749,-0.31494403,-0.00698138218895733,-0.05676113035950925,9.638237838745123,-0.5476561,0.3198564,0.73229,0.49304193,0.46564668,-3.0,0.6927914,0.5934068,0.4925513,0.0,-0.03330153,0.008813329,9.815824,0.012427103,-0.03519962,-0.254432,0.010596509,0.7313770524700457,-0.2910919189453125,0.2588043212890625,0.363250732421875
10.905173301696777,0.29095092,0.22113052,-2.8801553,0.4313967035213909,nan,nan,nan,nan,0.9036228656768799,0.0016641616821289062,0.7444872,0.81174886,-0.32242462,-0.04808924068306206,-0.03236997239209871,9.617978057861336,-0.40585518,0.27480447,0.69015867,0.5543027,0.51506734,-3.0,0.66382885,0.5838441,0.45671695,0.0,-0.036832888,0.009907095,9.817141,0.0128181,-0.03263067,-0.30327168,0.010422497,0.7305974474034815,-0.1399383544921875,0.22088623046875,0.264251708984375
11.001118659973145,0.40017474,0.29717156,-2.9167333,0.47838580600278674,nan,nan,nan,nan,0.9990856647491455,0.00074005126953125,0.8187617,0.72657037,-0.32925147,-0.08379931952968328,-0.0012728583269998595,9.59873237609864,-0.18284135,0.24314134,0.5974901,0.60958016,0.5569741,-3.0,0.6325012,0.57409537,0.42078468,0.0,-0.039826628,0.010893748,9.818368,0.0128552215,-0.030056547,-0.3541167,0.010245745,0.72985610446744,0.05926513671875,0.21661376953125,0.161102294921875
11.10124659538269,0.4998487,0.3461725,-2.948661,0.4978951392124883,nan,nan,nan,nan,1.0991322994232178,0.0006532669067382812,0.87063664,0.6167793,-0.3320255,-0.09286182573032661,0.024908907942888137,9.580768280029305,0.001372987,0.2344709,0.50253934,0.66646445,0.5970677,-3.0,0.59410495,0.5628938,0.3802445,0.0,-0.042690165,0.011908822,9.819643,0.012564615,-0.027154349,-0.41482094,0.010043392,0.7291634572552232,0.1709747314453125,0.2001495361328125,0.08233642578125
11.200883388519287,0.610375,0.38072082,-2.9832916,0.5029076334445705,nan,nan,nan,nan,1.1987884044647217,0.0007257461547851562,0.8977252,0.4809454,-0.33304003,-0.08431289625070004,0.052417885069532266,9.564287490844732,0.1428874,0.20841357,0.39532834,0.7219634,0.6328378,-3.0,0.5493907,0.5507533,0.33720815,0.0,-0.045244325,0.012898959,9.820867,0.011949691,-0.024075592,-0.48413047,0.009824883,0.7285274309930805,0.232330322265625,0.1528778076171875,0.010162353515625
11.300960779190063,0.70958287,0.39657077,-3.0147543,0.4994868516475881,nan,nan,nan,nan,1.2988877296447754,0.0006937980651855469,0.88658214,0.35644445,-0.33173808,-0.06517772992447238,0.07377608651007872,9.549393081665047,0.21426064,0.14862943,0.3007609,0.77644277,0.66432863,-3.0,0.49702674,0.53759277,0.29161617,0.0,-0.04749244,0.013870746,9.82202,0.011023898,-0.020816125,-0.56390196,0.009588861,0.72795215470472,0.235137939453125,0.0781097412109375,-0.056060791015625
11.401810884475708,0.8084824,0.39888063,-3.0484004,0.4895770039762635,nan,nan,nan,nan,1.399799108505249,0.0007073879241943359,0.83625996,0.23668998,-0.3289062,-0.039355922252940545,0.0879573892505301,9.535995101928716,0.22752751,0.05703776,0.20414443,0.8299823,0.6913485,-3.0,0.43559378,0.5233691,0.24358061,0.0,-0.04942099,0.014825681,9.823072,0.009805757,-0.017384,-0.6555933,0.009334642,0.7274342925588497,0.2061767578125,-0.0083770751953125,-0.118896484375
11.50170111656189,0.8888365,0.3916818,-3.079403,0.4770726691838287,nan,nan,nan,nan,1.4996097087860107,0.0006239414215087891,0.76312333,0.14944306,-0.32527593,-0.016086650530012403,0.09084444072601738,9.523715972900396,0.20055735,-0.033146888,0.120064124,0.88147956,0.7132166,-3.0,0.36515945,0.5083807,0.1943564,0.0,-0.050981563,0.015744176,9.82398,0.008354686,-0.013868763,-0.7575873,0.009067589,0.7269593569297607,0.1546173095703125,-0.0755462646484375,-0.17828369140625
11.603299140930176,0.9521546,0.38040277,-3.1074266,0.4626258168684252,nan,nan,nan,nan,1.601470708847046,0.0010731220245361328,0.68497956,0.09212781,-0.3216495,0.0016739290934746076,0.08575246017213534,9.512260818481451,0.15513119,-0.09556453,0.049237378,0.93244576,0.73039466,-3.0,0.28224674,0.49216858,0.14272319,0.0,-0.05220727,0.01665327,9.824747,0.00666447,-0.010183064,-0.8718383,0.008779534,0.7265160151030667,0.0918121337890625,-0.1168060302734375,-0.2412109375
11.701220273971558,1.0136958,0.3647096,-3.1399047,0.44188002849921404,nan,nan,nan,nan,1.699235200881958,0.0007276535034179688,0.59024686,0.051036227,-0.31650293,0.015981773067063304,0.07343188676128753,9.501431503295901,0.088423304,-0.13617326,-0.029638687,0.97976714,0.7418839,-3.0,0.19138944,0.4757655,0.09218483,0.0,-0.05302697,0.017497495,9.825313,0.0048892274,-0.006576667,-0.98733056,0.008488774,0.7260966492136979,0.0309295654296875,-0.136566162109375,-0.299285888671875
11.805703401565552,1.0592976,0.35124063,-3.1693459,0.419479183043133,nan,nan,nan,nan,1.8041582107543945,0.0013167858123779297,0.50988376,0.034195606,-0.31205857,0.022125652745910107,0.05894674380216758,9.49087844848633,0.026008043,-0.15283756,-0.100363076,1.0287237,0.7486795,-3.0,0.081319824,0.45727462,0.037267677,0.0,-0.053511776,0.018371135,9.825721,0.0028726372,-0.0026586205,-1.1095554,0.008161641,0.7256877515417632,-0.031036376953125,-0.1369476318359375,-0.372802734375
11.90093445777893,1.0984538,0.3400028,-3.200994,0.3914648614593803,nan,nan,nan,nan,1.8988125324249268,0.0009717941284179688,0.43703923,0.030228497,-0.30703083,0.02119130436724248,0.04264078079841016,9.480451507568361,-0.038620148,-0.14742722,-0.17271775,1.0711869,0.74985075,-3.0,-0.02848856,0.43983465,-0.012533647,0.0,-0.05359533,0.019129187,9.825905,0.0010050263,0.0008941237,-1.2077236,0.007853538,0.7252835170546843,-0.0704193115234375,-0.1171875,-0.438934326171875
12.001410484313965,1.1269735,0.3338815,-3.2301345,0.36219916448548917,nan,nan,nan,nan,1.9995293617248535,0.0007328987121582031,0.38524064,0.03249127,-0.3025632,0.014497060914019255,0.029315406496011942,9.470140686035158,-0.08511991,-0.12545325,-0.24175234,1.1145195,0.7459222,-3.0,-0.15435788,0.42051917,-0.06543093,0.0,-0.053315073,0.01990311,9.825906,-0.0009782508,0.004667843,-1.2861489,0.0075126137,0.7248835656605308,-0.1020050048828125,-0.093780517578125,-0.522430419921875
12.101066827774048,1.1522108,0.3314856,-3.2615151,0.32557989701935136,nan,nan,nan,nan,2.0990006923675537,0.00061798095703125,0.34568885,0.03424919,-0.29800352,0.002922312664484117,0.017627764969039283,9.459873886108403,-0.11989957,-0.09518667,-0.31918362,1.1553696,0.7368328,-3.0,-0.28458837,0.4007079,-0.11721855,0.0,-0.052666612,0.020633122,9.825713,-0.0028793062,0.008362946,-1.325155,0.0071630874,0.7244851054476034,-0.1125030517578125,-0.062774658203125,-0.604217529296875
12.202448606491089,1.1729683,0.33140108,-3.2901213,0.2866509471713674,nan,nan,nan,nan,2.2006757259368896,0.0009920597076416016,0.3228561,0.028708523,-0.29375312,-0.009959900285331141,0.009823617018124953,9.449735260009772,-0.134354,-0.06383922,-0.3925579,1.1950517,0.7222576,-3.0,-0.41940472,0.37973914,-0.16931,0.0,-0.051626682,0.021342726,9.825326,-0.004708655,0.012080719,-1.3188953,0.0067931158,0.724091407483863,-0.1137542724609375,-0.032562255859375,-0.691986083984375
12.303166389465332,1.1952928,0.3316408,-3.3206806,0.23814791343595618,nan,nan,nan,nan,2.3013288974761963,0.0008509159088134766,0.30987045,0.011015137,-0.28891096,-0.024444989956742574,0.004456348319602288,9.439791870117194,-0.13011745,-0.025893398,-0.47999611,1.2322001,0.70267,-3.0,-0.5499851,0.35830265,-0.21966988,0.0,-0.050228953,0.022007527,9.824768,-0.006355358,0.015676264,-1.2692443,0.006414682,0.7237050856420136,-0.090850830078125,0.0017852783203125,-0.767852783203125
12.401289701461792,1.2163163,0.3303816,-3.3481295,0.18667179958241004,nan,nan,nan,nan,2.3992624282836914,0.0007491111755371094,0.30419013,-0.017027732,-0.28355438,-0.036275630221621336,0.0022714555576044404,9.43024002075196,-0.108250216,0.007930174,-0.559357,1.2662436,0.6788174,-3.0,-0.6705759,0.33683372,-0.26717383,0.0,-0.048526622,0.022617254,9.824075,-0.007756888,0.019069487,-1.1893263,0.0060353074,0.7233337843300288,-0.066375732421875,0.028778076171875,-0.83404541015625
12.502477884292603,1.2401775,0.3252804,-3.377018,0.12341473087636126,nan,nan,nan,nan,2.500636577606201,0.0009286403656005859,0.300877,-0.058695745,-0.2762641,-0.0460336994523384,0.002362103323901632,9.421369247436532,-0.0723811,0.03871803,-0.6442738,1.2992381,0.64931893,-3.0,-0.7860909,0.31401414,-0.3144495,0.0,-0.046420965,0.023208706,9.823225,-0.008959725,0.02244827,-1.0876093,0.005631514,0.7229887894891471,-0.033843994140625,0.0513916015625,-0.88531494140625
12.601714134216309,1.2628522,0.31564635,-3.40282,0.05812088199102089,nan,nan,nan,nan,2.599601984024048,0.0006194114685058594,0.29626188,-0.10533871,-0.2687717,-0.052048592327214635,0.0038973057610334205,9.413367385864264,-0.044159118,0.05724642,-0.71970797,1.3291895,0.6160045,-3.0,-0.8885206,0.2911903,-0.35841796,0.0,-0.044042423,0.02374609,9.822291,-0.009859111,0.025592651,-0.982306,0.0052269585,0.7226774482927336,-0.0082550048828125,0.0648651123046875,-0.92291259765625
12.701318264007568,1.2854986,0.30071577,-3.4272866,-0.013270489351680438,nan,nan,nan,nan,2.6992552280426025,0.0006051063537597656,0.28730103,-0.15656966,-0.26006833,-0.05508939361198347,0.0062060468763438514,9.406432647705081,-0.013237423,0.06906893,-0.7855547,1.3570414,0.578183,-3.0,-0.98123825,0.2677023,-0.4002033,0.0,-0.041341476,0.024246268,9.821277,-0.010466437,0.028582906,-0.87962943,0.0048098206,0.7224075203188703,0.0128326416015625,0.0699920654296875,-0.945587158203125
12.801175355911255,1.3075217,0.28014186,-3.4507265,-0.0898958383358528,nan,nan,nan,nan,2.799138069152832,0.0006604194641113281,0.27299967,-0.2089713,-0.24989164,-0.055641821530058644,0.008726747976050886,9.400825881958012,0.01399222,0.072892755,-0.8417806,1.3825848,0.5362331,-3.0,-1.0643177,0.24369225,-0.4392873,0.0,-0.038345017,0.024705423,9.820213,-0.010759351,0.031381823,-0.78570175,0.004382499,0.7221892096345068,0.02899169921875,0.0682525634765625,-0.953704833984375
12.902096509933472,1.329597,0.2516957,-3.4747593,-0.1773550795456672,nan,nan,nan,nan,2.9002883434295654,0.000993490219116211,0.25102937,-0.26357788,-0.23757908,-0.05359412099664507,0.011156809339083251,9.396557464599617,0.04039255,0.068440296,-0.8894608,1.4059863,0.4899281,-3.0,-1.1394742,0.21894307,-0.47573334,0.0,-0.035036672,0.025126457,9.819124,-0.01072709,0.03399371,-0.7024188,0.0039410233,0.7220229665826235,0.0430755615234375,0.0587615966796875,-0.943267822265625
13.003664255142212,1.3476682,0.22021438,-3.4953284,-0.26095409297306194,nan,nan,nan,nan,3.0025758743286133,0.0017559528350830078,0.22571202,-0.30937982,-0.22533152,-0.04984388513379692,0.012695501884839144,9.393748245239266,0.060769428,0.05777646,-0.9194045,1.4270842,0.43952835,-3.0,-1.2075601,0.19351615,-0.50911623,0.0,-0.031434894,0.025506388,9.818043,-0.010360776,0.036387812,-0.63097024,0.0034864019,0.7219135346540512,0.040618896484375,0.0487060546875,-0.928985595703125
13.103506565093994,1.3649217,0.18231568,-3.516242,-0.3526968056803405,nan,nan,nan,nan,3.102047920227051,0.0013685226440429688,0.19556172,-0.3510778,-0.21125117,-0.04458432437857751,0.013395650977376272,9.392300033569343,0.064016275,0.047971446,-0.9369602,1.4450893,0.3874189,-3.0,-1.267364,0.16844805,-0.537999,0.0,-0.027710082,0.0258309,9.817042,-0.009694809,0.03846061,-0.57332945,0.0030371852,0.7218571138010099,0.03643798828125,0.0382537841796875,-0.8974609375
13.200891733169556,1.378642,0.14472453,-3.5341787,-0.4373967590404306,nan,nan,nan,nan,3.19880747795105,0.0006897449493408203,0.16701935,-0.38180256,-0.1978702,-0.03980282367990137,0.013426015479776954,9.392246475219734,0.06102778,0.036237203,-0.93983865,1.4601971,0.33414716,-3.0,-1.320547,0.14378256,-0.562513,0.0,-0.023901397,0.02610339,9.816148,-0.008773537,0.04022098,-0.5275631,0.0025942663,0.7218550271388023,0.02447509765625,0.032562255859375,-0.865997314453125
13.301627159118652,1.3909959,0.101513214,-3.5518982,-0.5276187031938153,nan,nan,nan,nan,3.2995598316192627,0.0006420612335205078,0.13711867,-0.40834066,-0.18289822,-0.03539880694120065,0.013161646429355356,9.393485336303716,0.0492738,0.032930896,-0.9302005,1.4733791,0.27635032,-3.0,-1.3717111,0.11784884,-0.58411056,0.0,-0.019768404,0.02634131,9.815323,-0.007556128,0.04177279,-0.48964682,0.0021276912,0.7219032923125653,0.0157928466796875,0.0289306640625,-0.826690673828125
13.401352882385254,1.3991925,0.06385264,-3.5656002,-0.6025316475766757,nan,nan,nan,nan,3.399256706237793,0.0005719661712646484,0.111866,-0.42546806,-0.1699225,-0.032509656784635355,0.01302852089217521,9.396003570556644,0.041904464,0.027107466,-0.9143049,1.4838402,0.21722066,-3.0,-1.4190263,0.0919801,-0.60138845,0.0,-0.015539405,0.026530229,9.814639,-0.006128147,0.04301485,-0.46091208,0.0016615073,0.722001391173897,0.0013885498046875,0.0293426513671875,-0.798919677734375
13.501422643661499,1.4056392,0.022900766,-3.5794327,-0.6827107287367074,nan,nan,nan,nan,3.4994444847106934,0.0006659030914306641,0.084793605,-0.43860468,-0.15603162,-0.03018879730854257,0.013018759866837426,9.399628067016604,0.031848356,0.027399315,-0.88906795,1.4917463,0.15627493,-3.0,-1.4640925,0.065822475,-0.61452746,0.0,-0.011179939,0.026673073,9.814104,-0.0045120665,0.04395975,-0.43999186,0.0011894797,0.722142561865213,-0.00750732421875,0.0274810791015625,-0.7637939453125
13.602854251861572,1.4095273,-0.020861259,-3.5927615,-0.7674045282813642,nan,nan,nan,nan,3.60141921043396,0.0017790794372558594,0.05511161,-0.4469675,-0.14122434,-0.02863599703188302,0.01303784112322326,9.40421112060547,0.020033557,0.024808152,-0.85683393,1.4970958,0.09311494,-3.0,-1.5081962,0.039079558,-0.6234573,0.0,-0.00666164,0.02676976,9.813734,-0.0027303086,0.044602133,-0.42622358,0.00070640293,0.7223210284843492,-0.011627197265625,0.0220489501953125,-0.7232666015625
13.701128244400024,1.4100783,-0.06070902,-3.603441,-0.8437940875882921,nan,nan,nan,nan,3.699098587036133,0.0006756782531738281,0.02674438,-0.4507655,-0.12723087,-0.02823250021752849,0.013045220807126556,9.409731903076171,0.011622124,0.020774977,-0.8245617,1.4996591,0.031972367,-3.0,-1.5494604,0.013395598,-0.62774736,0.0,-0.0022874007,0.026816094,9.813554,-0.00094439305,0.044910803,-0.41973653,0.00024217152,0.722535953046139,-0.012115478515625,0.016326904296875,-0.6883544921875
13.801113605499268,1.4072603,-0.103367254,-3.6133785,-0.9236466712386345,nan,nan,nan,nan,3.7990782260894775,0.0006434917449951172,-0.0048052864,-0.45212352,-0.11278979,-0.02826486708765863,0.01261750499795311,9.415692520141604,0.010274212,0.014573592,-0.78736395,1.499683,-0.030828377,-3.0,-1.5913674,-0.01291609,-0.62778753,0.0,0.0022055567,0.026816525,9.813553,0.00091066444,0.044913698,-0.41967618,-0.00023350304,0.7227679296367252,-0.0055694580078125,0.0084228515625,-0.64996337890625
13.903790712356567,1.401355,-0.14258197,-3.621312,-0.9945864313423095,nan,nan,nan,nan,3.904327392578125,0.0011873245239257812,-0.03423431,-0.45144954,-0.10005512,-0.028164595582498175,0.011697542609027334,9.423057556152346,0.012249852,0.008327914,-0.75167054,1.496867,-0.09669701,-3.0,-1.6358477,-0.040589128,-0.6230745,0.0,0.006917901,0.026765618,9.81375,0.0028334789,0.04457459,-0.42680645,-0.0007336812,0.7230544623172609,-0.0010223388671875,0.0079193115234375,-0.623016357421875
14.001607656478882,1.3912461,-0.18459539,-3.628804,-1.0679813947825956,nan,nan,nan,nan,3.999598503112793,0.0006115436553955078,-0.06597747,-0.44911224,-0.08687158,-0.0274276135155076,0.010350242866003834,9.430966262817384,0.018842183,0.0033553604,-0.71369565,1.4918091,-0.15568721,-3.0,-1.6770796,-0.065572165,-0.6146321,0.0,0.011137896,0.026674207,9.8141,0.0044959164,0.043967277,-0.43982837,-0.00118496,0.7233620215534544,0.0103302001953125,0.0004425048828125,-0.589874267578125
14.10104513168335,1.378953,-0.22253697,-3.6346643,-1.1325818297860666,nan,nan,nan,nan,4.098942041397095,0.000537872314453125,-0.09358106,-0.44501686,-0.07562405,-0.025960391636220437,0.008816331004982025,9.439247817993165,0.02552989,-0.00030050403,-0.67800546,1.4840055,-0.21613753,-3.0,-1.7217368,-0.091511264,-0.6016623,0.0,0.015461932,0.026533214,9.814628,0.0061005675,0.043034542,-0.46046796,-0.0016530523,0.7236839421905796,0.0169525146484375,0.0018463134765625,-0.5689697265625
14.20086407661438,1.3630363,-0.2624511,-3.6397576,-1.1994880821184124,nan,nan,nan,nan,4.198796987533569,0.000492095947265625,-0.12137156,-0.43884605,-0.063995875,-0.02367335422197958,0.007374051144142468,9.447801208496092,0.030375456,0.0035991033,-0.64410305,1.4735723,-0.27539086,-3.0,-1.7690778,-0.11742429,-0.5844285,0.0,0.019699788,0.026344799,9.8153105,0.007534298,0.04179565,-0.48910528,-0.002120046,0.724016281397717,0.0249176025390625,0.0011138916015625,-0.548370361328125
14.30229926109314,1.3460796,-0.29833257,-3.6436458,-1.2584313497176174,nan,nan,nan,nan,4.300445079803467,0.0007753372192382812,-0.1440803,-0.4319701,-0.054526802,-0.020966994271035655,0.00637690552539838,9.456516952514647,0.034263242,0.0057121576,-0.6163105,1.4603044,-0.33372715,-3.0,-1.8206519,-0.14359127,-0.562688,0.0,0.023871362,0.02610533,9.816141,0.008765444,0.04023355,-0.5272469,-0.002590828,0.7243547740853382,0.0323944091796875,0.0070343017578125,-0.5404052734375
14.401692390441895,1.3255725,-0.33621204,-3.6473913,-1.3199222338014946,nan,nan,nan,nan,4.39958643913269,0.0005719661712646484,-0.16515501,-0.42261356,-0.045020904,-0.017383262717999615,0.006103046806677392,9.465242538452149,0.03983491,0.008998989,-0.5896656,1.4448135,-0.3882984,-3.0,-1.875167,-0.16886267,-0.5375537,0.0,0.027772957,0.025825929,9.817059,0.009708127,0.038428638,-0.5741876,-0.0030446232,0.7246934927860621,0.0401611328125,0.007904052734375,-0.533660888671875
14.502710819244385,1.3069092,-0.3673161,-3.6500695,-1.3704361530596545,nan,nan,nan,nan,4.501265048980713,0.0012028217315673828,-0.17948395,-0.41294745,-0.037787303,-0.013867432333768748,0.006266766353952846,9.473830108642579,0.045754004,0.012348766,-0.572064,1.4263389,-0.44148195,-3.0,-1.9364611,-0.19447784,-0.50792855,0.0,0.03157452,0.025492964,9.818083,0.010380478,0.036302604,-0.6334253,-0.0035036153,0.7250267014444839,0.0483551025390625,0.021148681640625,-0.544708251953125
14.601261615753174,1.285827,-0.3996912,-3.653056,-1.4244548307562794,nan,nan,nan,nan,4.599248886108398,0.0007042884826660156,-0.19096574,-0.39974573,-0.030892665,-0.009481573490630169,0.007332636554287841,9.482111206054686,0.050973378,0.021534849,-0.5574177,1.4060874,-0.4897083,-3.0,-2.001794,-0.21882908,-0.47589213,0.0,0.03502096,0.025128275,9.819119,0.010726182,0.03400509,-0.70206726,-0.003938987,0.7253478755682938,0.0539703369140625,0.0303955078125,-0.55731201171875
14.70087218284607,1.2626963,-0.43246984,-3.6567338,-1.4824826968409623,nan,nan,nan,nan,4.6987624168396,0.0006077289581298828,-0.1980096,-0.3820163,-0.025029331,-0.0045239668542874645,0.009773105036096519,9.489988555908202,0.052392654,0.031931132,-0.5509487,1.3830957,-0.5353104,-3.0,-2.0756278,-0.24318306,-0.44007647,0.0,0.038279094,0.024714611,9.820191,0.01076205,0.031438354,-0.7838478,-0.004373426,0.7256532606134238,0.0566253662109375,0.03839111328125,-0.57537841796875
14.800821781158447,1.2407981,-0.46255073,-3.660503,-1.5406848375611342,nan,nan,nan,nan,4.79870867729187,0.0004925727844238281,-0.19814798,-0.3599357,-0.019968634,0.0004164245559410418,0.013539832229130688,9.497240600585934,0.053894874,0.042156804,-0.5509157,1.3575857,-0.57736766,-3.0,-2.1585665,-0.26721764,-0.40102854,0.0,0.041283246,0.024256049,9.821256,0.010475596,0.028641984,-0.87761265,-0.0048012035,0.7259342921157257,0.05645751953125,0.05120849609375,-0.603790283203125
14.901178359985352,1.2223072,-0.487888,-3.6638992,-1.5952717251191282,nan,nan,nan,nan,4.899101972579956,0.0005745887756347656,-0.19187479,-0.33549795,-0.01640604,0.0048209367935254654,0.0186080693398607,9.503866119384762,0.05295232,0.05797281,-0.55992955,1.3295665,-0.61554,-3.0,-2.251801,-0.29088822,-0.3589776,0.0,0.04400925,0.023752855,9.822279,0.009868963,0.025632687,-0.9809344,-0.0052215992,0.7261909506859509,0.0572052001953125,0.070831298828125,-0.646881103515625
15.000991106033325,1.2041441,-0.5127099,-3.6675591,-1.6562158901461754,nan,nan,nan,nan,4.9989495277404785,0.0005519390106201172,-0.17891873,-0.30337006,-0.013530745,0.008935739236821894,0.026312925123787245,9.509824752807614,0.049573276,0.078664534,-0.57861507,1.2993678,-0.64918894,-3.0,-2.3550525,-0.3139199,-0.3146378,0.0,0.046411686,0.023211032,9.823221,0.0089640645,0.022461733,-1.0871738,-0.005629845,0.7264216991300203,0.05242919921875,0.085845947265625,-0.696014404296875
15.101023197174072,1.1901649,-0.53282744,-3.6711357,-1.7149767292883946,nan,nan,nan,nan,5.098989725112915,0.0006902217864990234,-0.16052824,-0.26757562,-0.011445626,0.011464977187804926,0.03526329756486635,9.515127410888672,0.03929356,0.09327526,-0.6061707,1.2668319,-0.67834985,-3.0,-2.4689403,-0.33644548,-0.26800594,0.0,0.048493255,0.022627795,9.824061,0.0077798595,0.019128943,-1.1876962,-0.0060284426,0.7266269841049428,0.0518951416015625,0.1068572998046875,-0.7587890625
15.203153610229492,1.179122,-0.5496774,-3.6744606,-1.7770791658762546,nan,nan,nan,nan,5.201304197311401,0.0011801719665527344,-0.13655487,-0.22485475,-0.00971605,0.012727876007787908,0.046046747073912764,9.519412307739259,0.035717994,0.11537181,-0.642143,1.2312557,-0.7032469,-3.0,-2.5949535,-0.35887194,-0.21837023,0.0,0.05027013,0.021990618,9.824784,0.006314742,0.015583452,-1.2710195,-0.006424736,0.7267928260973849,0.0507659912109375,0.130615234375,-0.831695556640625
15.305944681167603,1.1706207,-0.5632134,-3.6772282,-1.8491264075930358,nan,nan,nan,nan,5.304097414016724,0.0009758472442626953,-0.10429332,-0.16858849,-0.00849209,0.012510468098248295,0.060074434590971615,9.523725814819336,0.029480929,0.13897476,-0.6911043,1.1932365,-0.7230601,-3.0,-2.7284873,-0.38073933,-0.16688879,0.0,0.05168394,0.021310255,9.825348,0.004626108,0.011907887,-1.320232,-0.006810767,0.7269597377208511,0.038726806640625,0.1507720947265625,-0.905120849609375
15.401246070861816,1.1667943,-0.56993365,-3.6789362,-1.9147175522986646,nan,nan,nan,nan,5.399211883544922,0.0005614757537841797,-0.07117705,-0.111532964,-0.007452474,0.010646646262213677,0.07390945542987626,9.52762306213379,0.018905634,0.15638295,-0.74132574,1.1560854,-0.7366225,-3.0,-2.8546362,-0.4003455,-0.11814248,0.0,0.052651607,0.020645915,9.825707,0.0029126054,0.008428878,-1.3254544,-0.0071566952,0.7271105096270819,0.0277252197265625,0.1737823486328125,-0.977508544921875
15.508910417556763,1.1663862,-0.57135475,-3.6803262,-1.985331565298892,nan,nan,nan,nan,5.50736141204834,0.0009818077087402344,-0.032460544,-0.044693653,-0.0061837006,0.006184066353770334,0.08909683712764438,9.531313323974612,0.00089423626,0.17451993,-0.79635036,1.1116167,-0.7463607,-3.0,-2.996084,-0.42186508,-0.061821997,0.0,0.05334635,0.019851256,9.8259115,0.0008437954,0.0044103665,-1.2819115,-0.0075363624,0.7272532455134362,0.023956298828125,0.2100830078125,-1.060943603515625
15.60091495513916,1.171456,-0.56303245,-3.6821756,-2.0831220716532988,nan,nan,nan,nan,5.598826885223389,0.0005371570587158203,0.025498211,0.058058757,-0.004128796,-0.003722071002541627,0.11073917185012183,9.534918594360354,-0.017546462,0.20436478,-0.87327474,1.0722244,-0.7498197,-3.0,-3.1102512,-0.43939087,-0.013775654,0.0,0.053593114,0.019147709,9.825907,-0.000958299,0.000982726,-1.2099206,-0.0078457035,0.7273926673275973,-0.023834228515625,0.230377197265625,-1.095733642578125
15.701319932937622,1.1831894,-0.5423383,-3.683932,-2.1802435137679277,nan,nan,nan,nan,5.699298620223999,0.0006105899810791016,0.09045797,0.1758884,-0.017172072,-0.017642997688031015,0.13265498085781524,9.539163665771484,0.011234658,0.21407233,-0.8180131,1.0271415,-0.74854755,-3.0,3.056443,-0.45789826,0.03908438,0.0,0.05350236,0.018342895,9.825711,-0.0029403064,-0.0027882238,-1.1056776,-0.008172665,0.7275567975278938,-0.0969390869140625,0.24859619140625,5.114471435546875
15.80273151397705,1.201436,-0.5110373,-3.6846237,-2.235295175613667,nan,nan,nan,nan,5.801201581954956,0.0015451908111572266,0.16038716,0.29076624,0.038518887,-0.014702008408240541,0.15248594243364155,9.545301361083986,0.13037552,0.24915229,-0.2600299,0.97955894,-0.74184346,-3.0,2.9497712,-0.47584075,0.09241275,0.0,0.05302409,0.01749378,9.825311,-0.0048974394,-0.0065929303,-0.9868098,-0.008490108,0.7277940390260237,-0.2400360107421875,0.318634033203125,5.0465087890625
15.905085563659668,1.2286863,-0.46821278,-3.6757889,-2.236983463623522,nan,nan,nan,nan,5.903777122497559,0.0013403892517089844,0.24943313,0.40982655,0.13739963,-0.006111248919926426,0.1818685208743025,9.57111846923828,0.016507557,0.35155544,0.2808349,0.92986035,-0.7296385,-3.0,2.854786,-0.49302608,0.14541228,0.0,0.05215332,0.01660715,9.824712,-0.0067559658,-0.010374986,-0.8657519,-0.008794752,0.7287911184067128,-0.4337615966796875,0.3686065673828125,4.9283447265625
16.0037202835083,1.2707055,-0.40774775,-3.652824,-2.1803632660825993,nan,nan,nan,nan,6.002263784408569,0.001592397689819336,0.36733845,0.56158847,0.2519902,-0.0038441032055100965,0.22291824476741762,9.616863098144531,-0.21383134,0.4133238,0.8450666,0.8805265,-0.71285146,-3.0,2.775015,-0.50867045,0.19529434,0.0,0.050955508,0.015727177,9.823965,-0.0083839465,-0.013935731,-0.7555736,-0.009072742,0.7305545194488002,-0.6661529541015625,0.4029998779296875,4.757904052734375
16.103351354599,1.3276356,-0.32950363,-3.6155572,-2.064314019551748,nan,nan,nan,nan,6.101532697677612,0.0008800029754638672,0.49214634,0.75422835,0.37503058,-0.011451793119671594,0.26875118161838807,9.680940246582033,-0.49825558,0.44122076,1.3940258,0.8292845,-0.69102335,-3.0,2.7051258,-0.52356315,0.24422729,0.0,0.049397785,0.014813235,9.823059,-0.009823567,-0.017430194,-0.6543061,-0.009338105,0.7330175803989971,-0.9225616455078125,0.4345550537109375,4.5340576171875
16.204225063323975,1.3867128,-0.24512708,-3.5722713,-1.9205317556525818,nan,nan,nan,nan,6.202206611633301,0.0007479190826416016,0.58315337,0.9602513,0.48802936,-0.02572830379571356,0.310749972587804,9.763555450439451,-0.7903823,0.44572663,1.83855,0.7758539,-0.664009,-3.0,2.643949,-0.53774196,0.29212666,0.0,0.047469623,0.013860243,9.822007,-0.011035605,-0.020852609,-0.5629702,-0.009591533,0.7361812268160202,-1.1644287109375,0.44329833984375,4.294891357421875
16.30178427696228,1.4714327,-0.10717068,-3.5010934,-1.6768806830298812,nan,nan,nan,nan,6.299788951873779,0.0006339550018310547,0.6374881,1.2850688,0.6449527,-0.05359482543240979,0.3672905106293425,9.862982482910155,-1.1916035,0.38250142,2.3861532,0.7227463,-0.63331676,-3.0,2.592891,-0.55057305,0.33657643,0.0,0.04527852,0.012912926,9.820884,-0.011938648,-0.024030412,-0.48518944,-0.009821645,0.739970966188737,-1.5691070556640625,0.3351593017578125,3.953765869140625
16.400927305221558,1.5371355,0.029965507,-3.4323804,-1.4369718487308238,nan,nan,nan,nan,6.398814916610718,0.0005407333374023438,0.59162,1.5838795,0.76245165,-0.08175879018453935,0.41080607280594617,9.978449401855464,-1.556759,0.25347668,2.766322,0.667619,-0.5978469,-3.0,2.54834,-0.56265366,0.37938425,0.0,0.04274581,0.011929423,9.819669,-0.012555182,-0.027092788,-0.41615427,-0.010039061,0.7443481847570583,-1.9258880615234375,0.14129638671875,3.634002685546875
16.501601934432983,1.5981994,0.23164922,-3.3422906,-1.1063018416696961,nan,nan,nan,nan,6.499633073806763,0.000652313232421875,0.35989285,1.9774892,0.79592735,-0.13308978061725812,0.45231506368088503,10.092477340698238,-2.10551,-0.088915646,3.0527792,0.61031526,-0.55751264,-3.0,2.5095456,-0.57395834,0.42028382,0.0,0.039865095,0.010906867,9.818385,-0.012853617,-0.030020677,-0.35484305,-0.010243265,0.7486460682205897,-2.3579864501953125,-0.314178466796875,3.23052978515625
16.601194620132446,1.6176491,0.4527962,-3.2576706,-0.7684415942638346,nan,nan,nan,nan,6.599191427230835,0.0005550384521484375,-0.037970003,2.2365384,0.8353137,-0.20794838983142883,0.46967673143223587,10.195872116088863,-2.5380583,-0.62238586,3.1318939,0.5526587,-0.51378024,-3.0,2.476912,-0.58411753,0.45773333,0.0,0.036740925,0.009877748,9.817104,-0.0128123155,-0.032703508,-0.30186555,-0.010427463,0.7525222306497225,-2.4762115478515625,-0.908782958984375,2.846435546875
16.702739477157593,1.5877162,0.66989857,-3.1765904,-0.4422237414086588,nan,nan,nan,nan,6.700981378555298,0.001127481460571289,-0.5058526,2.2779627,0.89889395,-0.29458014396659477,0.4596676918679403,10.297782363891596,-2.6443436,-1.2057683,3.0630429,0.49271727,-0.46537715,-3.0,2.4486623,-0.5934541,0.49273,0.0,0.03328227,0.0088075325,9.815817,-0.012424092,-0.03521243,-0.25419116,-0.0105973715,0.7563235540334484,-2.19671630859375,-1.4896240234375,2.501312255859375
16.80337381362915,1.4758738,0.92843187,-3.0650318,-0.01647458465220536,nan,nan,nan,nan,6.801558017730713,0.0011031627655029297,-1.0775006,1.9884746,0.99336475,-0.3979190293851929,0.40840510892838866,10.402461013793939,-2.2123184,-1.9142872,2.8399298,0.43261003,-0.41422758,-3.0,2.4252384,-0.6016201,0.52379346,0.0,0.029626485,0.007734024,9.814601,-0.011705719,-0.037440963,-0.21238934,-0.010746505,0.7602086083691737,-1.3688201904296875,-2.0565185546875,2.09674072265625
16.902466535568237,1.3158107,1.1103754,-2.953026,0.37157231257651363,nan,nan,nan,nan,6.900654077529907,0.0012862682342529297,-1.3862027,1.4496869,1.0728244,-0.45012962097679415,0.3269550572073019,10.509536743164054,-1.3345357,-2.2262454,2.5489032,0.3726365,-0.36095482,-3.0,2.4060555,-0.6086216,0.55076563,0.0,0.025818115,0.0066625797,9.813489,-0.010690106,-0.03937726,-0.17539224,-0.010874794,0.7641624568734258,-0.3681488037109375,-2.1102752685546875,1.76019287109375
17.002009630203247,1.1520158,1.2088943,-2.844233,0.6981129500602952,nan,nan,nan,nan,7.000025987625122,0.0005428791046142578,-1.4029295,0.8901625,1.1177309,-0.4431982218655479,0.23917938425122753,10.614475326538079,-0.32301036,-2.0608895,2.2423325,0.31185132,-0.30503735,-3.0,2.390328,-0.6145897,0.5740032,0.0,0.021819878,0.0055763233,9.812489,-0.009390792,-0.041046463,-0.14163987,-0.010984472,0.7680178942683865,0.425048828125,-1.70623779296875,1.494720458984375
17.10381579399109,1.0140268,1.2436281,-2.7433262,0.950697154085271,nan,nan,nan,nan,7.101986646652222,0.0008246898651123047,-1.2424072,0.4530813,1.120175,-0.390356908632015,0.16652863086527936,10.708620300292962,0.39754668,-1.5828133,1.9541425,0.24892178,-0.24547036,-3.0,2.377533,-0.6196066,0.5937124,0.0,0.017559923,0.004451448,9.81161,-0.0078005427,-0.04246298,-0.10974282,-0.011076909,0.77146058802318,0.843658447265625,-1.109588623046875,1.2928466796875
17.201560258865356,0.8856069,1.234545,-2.628402,1.1839789156466707,nan,nan,nan,nan,7.199589490890503,0.0006568431854248047,-0.96520424,0.09261758,1.0707074,-0.29330833398203937,0.10943263210651932,10.78481887817382,0.8396503,-0.8641321,1.6286044,0.18825527,-0.18676674,-3.0,2.368229,-0.62335056,0.6085251,0.0,0.013361091,0.0033667819,9.810931,-0.0060743717,-0.043528043,-0.08118472,-0.011146041,0.7742359517889477,0.938140869140625,-0.4321441650390625,1.09942626953125
17.301138877868652,0.80379856,1.1975217,-2.5312972,1.3462596761322025,nan,nan,nan,nan,7.299122095108032,0.0006387233734130859,-0.73109955,-0.116286434,0.9860174,-0.19346347512371054,0.09304495413429059,10.836757888793937,0.89752775,-0.25249195,1.3603554,0.12606609,-0.12562007,-3.0,2.361536,-0.6260956,0.6194424,0.0,0.008987017,0.002254697,9.810422,-0.004154719,-0.0443133,-0.053497124,-0.01119681,0.7761220991784364,0.7978668212890625,-0.0161895751953125,0.943634033203125
17.4010009765625,0.748639,1.1475228,-2.445531,1.4722117892653288,nan,nan,nan,nan,7.398884057998657,0.0006453990936279297,-0.5708555,-0.26580182,0.88095516,-0.10152666538128796,0.1047828014283465,10.86406166076659,0.7566588,0.10488385,1.1258214,0.06351382,-0.06345686,-3.0,2.357542,-0.62775505,0.62606555,0.0,0.0045398744,0.0011359829,9.810107,-0.0021199223,-0.044789795,-0.026692279,-0.011227536,0.7771118138046895,0.6056976318359375,0.148284912109375,0.801544189453125
17.501262426376343,0.7043883,1.0838997,-2.3663287,1.580331187938314,nan,nan,nan,nan,7.499248266220093,0.0006704330444335938,-0.48575482,-0.41902623,0.7598706,-0.021816106653045897,0.1312829831246214,10.868513107299794,0.5420922,0.22866946,0.9084326,0.00047158002,-0.00047157996,-3.0,2.3561945,-0.6283185,0.6283184,0.0,3.3738328e-05,8.434583e-06,9.81,-1.580773e-05,-0.044951893,-0.000197535,-0.011237974,0.7772730531011376,0.4843597412109375,0.124114990234375,0.666534423828125
17.607620239257812,0.6700374,1.0211877,-2.3105133,1.6540311147266928,nan,nan,nan,nan,7.60632061958313,0.0010902881622314453,-0.4703844,-0.56400687,0.65993327,0.03137060931146374,0.15072496213308995,10.854286117553697,0.4397508,0.19251311,0.7499807,-0.066781506,0.066715285,-3.0,2.3576846,-0.62769556,0.6258277,0.0,-0.004772987,-0.0011944261,9.81012,0.0022279783,-0.044772685,0.02807531,-0.011226433,0.7767576103104094,0.49407958984375,0.0536041259765625,0.5755615234375
17.70281434059143,0.62160677,0.92608136,-2.2527945,1.7273285536899232,nan,nan,nan,nan,7.701143026351929,0.0011832714080810547,-0.5106359,-0.7704188,0.5408775,0.09261873324909176,0.16160969540385617,10.824414291381823,0.4549041,0.059137598,0.5766905,-0.12623313,0.12578534,-3.0,2.3615503,-0.6260897,0.61941886,0.0,-0.008998839,-0.0022576845,9.810423,0.004160035,-0.0443116,0.05356986,-0.011196701,0.7756742558476613,0.5753936767578125,-0.0690765380859375,0.49407958984375
17.802417278289795,0.56367236,0.81893694,-2.2110708,1.7765426238819317,nan,nan,nan,nan,7.8008105754852295,0.0012586116790771484,-0.60983723,-0.9745936,0.44086364,0.1539002351218961,0.15613905638311,10.783399047851544,0.5507492,-0.055347327,0.44430006,-0.18850565,0.18701118,-3.0,2.3682613,-0.62333727,0.6084724,0.0,-0.013378575,-0.0033712587,9.810934,0.0060818256,-0.043524254,0.081299044,-0.011145794,0.7741843274340622,0.669158935546875,-0.1876983642578125,0.453887939453125
17.900862216949463,0.49266022,0.7029782,-2.1813893,1.807415786838185,nan,nan,nan,nan,7.898775100708008,0.0005486011505126953,-0.7642585,-1.1640143,0.36023962,0.21824701219474774,0.13821950793565674,10.734840393066388,0.6586471,-0.19606264,0.35233626,-0.2493946,0.24592339,-3.0,2.3776166,-0.61957324,0.5935808,0.0,-0.017592324,-0.004459901,9.811616,0.007813308,-0.04245351,0.10997296,-0.011076294,0.7724167075528022,0.73333740234375,-0.3273468017578125,0.4451904296875
18.00101399421692,0.397439,0.5715687,-2.159084,1.824861443527744,nan,nan,nan,nan,7.998917579650879,0.0005986690521240234,-0.99109393,-1.3426445,0.29512456,0.2889669601844609,0.10607804695562995,10.68319374084471,0.7337054,-0.34622473,0.28355718,-0.31120265,0.3044314,-3.0,2.3901787,-0.61464745,0.57422894,0.0,-0.021776548,-0.005564729,9.812479,0.009375596,-0.04106268,0.14129671,-0.010985534,0.7705322862291792,0.7633819580078125,-0.5120849609375,0.464599609375
18.101024627685547,0.26970163,0.42628545,-2.1423085,1.828366436449865,nan,nan,nan,nan,8.098944187164307,0.0005850791931152344,-1.3005661,-1.4970967,0.25025505,0.3634530962538246,0.05747728815265929,10.631643295288066,0.7715879,-0.5632679,0.24461856,-0.3723925,0.36073402,-3.0,2.405985,-0.60864776,0.55086714,0.0,-0.02580233,-0.00665822,9.813484,0.010685411,-0.03938455,0.17524986,-0.010875276,0.7686468273957474,0.7535552978515625,-0.7528839111328125,0.51507568359375
18.20238971710205,0.1171532,0.28435177,-2.1293788,1.8178716339421124,nan,nan,nan,nan,8.200548887252808,0.0010902881622314453,-1.661494,-1.5998068,0.23197025,0.4325088572576906,-0.005388052204984506,10.584483642578103,0.7672137,-0.7897614,0.2325715,-0.43387848,0.41533142,-3.0,2.425687,-0.60145974,0.52317965,0.0,-0.029705388,-0.007756681,9.814626,0.011724088,-0.037396915,0.2132186,-0.010743574,0.7669179542206261,0.6951751708984375,-1.00872802734375,0.595672607421875
18.301106691360474,-0.13742463,0.100942425,-2.1119683,1.7817095978274717,nan,nan,nan,nan,8.299008131027222,0.0007145404815673828,-2.230897,-1.642098,0.25116318,0.5187020243882633,-0.1144507851149612,10.547468414306618,0.68743396,-1.1694703,0.2546764,-0.49271214,0.46537286,-3.0,2.44866,-0.59345484,0.49273285,0.0,-0.03328196,-0.008807439,9.815817,0.012424044,-0.035212636,0.25418735,-0.0105973855,0.7655582760902075,0.5150299072265625,-1.39654541015625,0.742950439453125
18.40103554725647,-0.42054835,-0.0459643,-2.0915253,1.7246725341982048,nan,nan,nan,nan,8.398943185806274,0.0005323886871337891,-2.8141406,-1.558541,0.31700712,0.5876301371484184,-0.23818481121262813,10.527280807495094,0.51798594,-1.5165414,0.30979976,-0.55156964,0.5129263,-3.0,2.4763503,-0.5842981,0.45840496,0.0,-0.036679916,-0.009858305,9.8170805,0.012808337,-0.032751642,0.30093718,-0.010430744,0.7648157204492543,0.210693359375,-1.74603271484375,0.928924560546875
18.502835750579834,-0.80165744,-0.17704937,-2.0568478,1.6313994340608535,nan,nan,nan,nan,8.50113844871521,0.0011487007141113281,-3.5188,-1.2948035,0.45738977,0.6524943307261043,-0.40501388956066964,10.533913879394511,0.15074801,-1.9154744,0.41124916,-0.61075914,0.55783755,-3.0,2.50982,-0.5738755,0.41998115,0.0,-0.039888304,-0.0109147895,9.818395,0.012852628,-0.029999005,0.35528234,-0.0102417655,0.7650597815304878,-0.3333282470703125,-2.11285400390625,1.1929931640625
18.605376958847046,-1.2657079,-0.25365913,-1.9994243,1.4993141736152176,nan,nan,nan,nan,8.603912115097046,0.0015680789947509766,-4.2495794,-0.7947766,0.69019294,0.6975039583080613,-0.6079595047466668,10.57859359741209,-0.4573862,-2.272839,0.5676628,-0.6691541,0.5988807,-3.0,2.5494783,-0.56233364,0.37823817,0.0,-0.042819638,-0.011956813,9.819702,0.012542421,-0.027010774,0.41793373,-0.010033292,0.7667017547915373,-1.1542816162109375,-2.3858184814453125,1.532867431640625
18.70111894607544,-1.7620134,-0.25166246,-1.9171566,1.342552408319805,nan,nan,nan,nan,8.699098348617554,0.0005805492401123047,-4.8636427,-0.08664915,1.0076649,0.7111396322617773,-0.8246152184578666,10.674547729492168,-1.2625828,-2.4647825,0.76244146,-0.72213477,0.6329426,-3.0,2.5923526,-0.5507139,0.33706996,0.0,-0.045251813,-0.012902016,9.82087,0.011947281,-0.024065709,0.48436198,-0.009824176,0.7702163761591686,-2.180633544921875,-2.4433441162109375,1.913848876953125
18.801384210586548,-2.3084521,-0.1529354,-1.7953652,1.1650658009818264,nan,nan,nan,nan,8.79925537109375,0.0005259513854980469,-5.306402,0.8707132,1.4439679,0.6653312374653163,-1.0643610150164085,10.840244216918927,-2.3979237,-2.4503107,1.0155495,-0.7766409,0.6644361,-3.0,2.644774,-0.5375426,0.2914443,0.0,-0.04750011,-0.01387428,9.822023,0.011019948,-0.02080384,0.56421584,-0.009587964,0.7762485419401652,-3.33685302734375,-2.1632080078125,2.346771240234375
18.90184211730957,-2.8764179,0.06578778,-1.6196483,1.0602255109327667,nan,nan,nan,nan,8.89996862411499,0.0009233951568603516,-5.420326,1.9800352,2.0386906,0.4534048943049939,-1.3139746647961323,11.092950286865216,-3.5273936,-2.107193,1.3131914,-0.83007157,0.69139004,-3.0,2.7061107,-0.5233443,0.24349786,0.0,-0.04942396,-0.014827271,9.823074,0.009803475,-0.017378092,0.6557581,-0.009334197,0.7853601967333693,-3.92901611328125,-1.3668975830078125,2.729583740234375
19.00143551826477,-3.4212203,0.40680796,-1.3729863,2.0235048795032005,nan,nan,nan,nan,8.999886512756348,0.001369476318359375,-5.1069574,3.0714476,2.807055,-0.9001697822605402,-1.4682845232931248,11.463160171508768,-3.833296,-1.3147932,1.6197454,-0.88162076,0.71327055,-3.0,2.7766435,-0.50833774,0.1942174,0.0,-0.050985415,-0.015746694,9.823982,0.008350347,-0.013858841,0.75788593,-0.009066825,0.7985232261334736,1.5402984619140625,-0.485107421875,1.99798583984375
19.101701021194458,-3.9310858,0.89566684,-1.0057393,2.7793264801212567,nan,nan,nan,nan,9.099778413772583,0.001003265380859375,-4.427025,4.026804,3.8069432,-1.8347480625844408,-1.3011639975106575,11.968572463989238,1.6580329,-0.81931955,1.6896887,-0.9316129,0.7301525,-3.0,2.8578725,-0.49244526,0.1435903,0.0,-0.052189987,-0.016638413,9.824736,0.00669401,-0.010244951,0.8698745,-0.008784444,0.8161549258996937,4.58758544921875,-0.9863128662109375,1.186248779296875
19.20144033432007,-4.304433,1.4427392,-0.56078184,2.8852919929337295,nan,nan,nan,nan,9.199427843093872,0.001081228256225586,-3.7363365,5.120345,4.774161,-1.63069750510293,-1.1270016456803646,12.614240570068338,3.8854322,-0.7944446,1.6342137,-0.9798591,0.74190176,-3.0,2.9503942,-0.4757323,0.09208416,0.0,-0.053028245,-0.017499136,9.825314,0.0048856004,-0.0065694847,0.98756045,-0.008488187,0.8381465005334452,1.1709442138671875,-1.3959808349609375,1.0064697265625
19.301355600357056,-4.6288576,2.1589844,0.028813154,3.0888596169013534,nan,nan,nan,nan,9.299390316009521,0.0008015632629394531,-3.3437443,6.4516253,5.733027,-1.5752183087935718,-0.9519263268742019,13.381630630493143,0.8059093,-1.4273891,1.5352684,-1.0265421,0.74849594,-3.0,3.054997,-0.45813406,0.039771892,0.0,-0.053498678,-0.018332196,9.825707,0.002965903,-0.0028372714,1.1042061,-0.008176833,0.863564222518194,-1.95648193359375,-2.1960296630859375,0.7427978515625
19.404420614242554,-5.029988,2.816379,-0.031185657,6.057041464909674,nan,nan,nan,nan,9.402551412582397,0.0007562637329101562,-5.0305076,5.7405095,-3.6909761,1.1387552310315583,0.23409498601156797,12.608500061035137,2.779037,12.132244,-33.157093,-1.0728307,0.7498002,-3.0,-3.1085806,-0.43913114,-0.014501934,0.0,-0.053591724,-0.019158535,9.825908,0.00093097443,0.0010345374,1.2111987,-0.007841118,0.837953490630418,-17.09869384765625,-12.212661743164062,-9.484466552734375
19.501415729522705,-5.4927297,3.5417602,-0.3396288,3.0129327781304873,nan,nan,nan,nan,9.499392986297607,0.0007491111755371094,-4.738274,6.535044,-2.9230483,-1.1856230665006333,-0.6671252502474522,11.572104949951155,-8.6640005,-12.511845,-32.35453,-1.1144626,0.7459311,-3.0,-2.9874084,-0.42054558,-0.06536027,0.0,-0.053315703,-0.019902097,9.825906,-0.0009756199,0.0046628015,1.2860676,-0.007513078,0.8023562043297904,-5.8997344970703125,-6.7845916748046875,-5.4881591796875
19.60221838951111,-5.899694,4.248152,-0.5538895,-0.5731361858513657,nan,nan,nan,nan,9.600255489349365,0.0006475448608398438,-4.3248706,7.1489964,-2.1245062,0.8763368212875715,0.6453513443270973,10.889898529052717,-6.164045,11.793813,-31.435596,-1.1558727,0.7366852,-3.0,-2.8553402,-0.40045327,-0.11786784,0.0,-0.052656073,-0.020642113,9.825709,-0.0029027094,0.00840928,1.3253669,-0.0071585956,0.7780472110898881,-19.58087158203125,-14.559600830078125,-3.025543212890625
19.703706741333008,-6.326853,5.059208,-0.7137537,-3.610216703757609,nan,nan,nan,nan,9.70194149017334,0.0013701915740966797,-4.1355596,7.9097342,-1.3887355,-0.9409996369548989,-0.8924314219260808,10.504731979370098,2.194075,-11.020115,-30.689917,-1.1955323,0.7220428,-3.0,-2.720518,-0.37947357,-0.16995177,0.0,-0.051611356,-0.021351326,9.82532,-0.0047304886,0.01212653,1.3185242,-0.006788429,0.7639854703386149,-10.815780639648438,-5.4106292724609375,1.544158935546875
19.80147886276245,-6.6916494,5.7954593,-0.78595376,-6.742566734914957,nan,nan,nan,nan,9.799418210983276,0.0006024837493896484,-3.99172,8.560861,-0.66566426,1.0171666800810448,0.4628371161789673,10.32926612854002,-9.704171,4.89715,-29.811628,-1.2315155,0.70308864,-3.0,-2.5940328,-0.35871542,-0.21872772,0.0,-0.05025883,-0.021995272,9.8247795,-0.0063259257,0.015608982,1.2705336,-0.0064219725,0.7574941137140582,-24.039642333984375,-13.796051025390625,3.5133056640625
19.901333570480347,-7.136983,6.732975,-0.8045372,-9.609364888412536,nan,nan,nan,nan,9.899311542510986,0.0006327629089355469,-4.0490074,9.370696,0.031589396,-1.2021874727214532,-0.5452933689873829,10.370692520141578,2.7714553,-1.7895565,-29.140766,-1.2662601,0.6788043,-3.0,-2.4709582,-0.33682278,-0.26719725,0.0,-0.048525687,-0.022617549,9.824075,-0.0077575357,0.019071162,1.1892805,-0.006035114,0.759031623564028,-13.5928955078125,-8.22393798828125,7.42974853515625
20.00104522705078,-7.5766087,7.6711397,-0.74974716,-12.82247165329986,nan,nan,nan,nan,9.999053478240967,0.00063323974609375,-4.0754266,10.069473,0.8222673,1.1816223360372202,0.1683469929586887,10.539464797973608,-10.575029,1.7046248,-28.347721,-1.2987412,0.6498156,-3.0,-2.357223,-0.31437454,-0.3137286,0.0,-0.046456423,-0.023199793,9.823239,-0.008943074,0.022396734,1.0892738,-0.0056378962,0.7652639661839273,-29.036331176757812,-13.067901611328125,10.035797119140625
20.10099697113037,-8.078064,8.760513,-0.61859834,-15.599388853311954,nan,nan,nan,nan,10.098891258239746,0.000797271728515625,-4.3047767,10.854562,1.4720833,-1.3246651907885214,-0.13353866279730853,10.865803375244115,1.1753572,2.522991,-27.70811,-1.3289828,0.61625886,-3.0,-2.2537696,-0.29135582,-0.35811096,0.0,-0.04406058,-0.023742381,9.822299,-0.009853687,0.025570692,0.98305833,-0.0052298955,0.7771749057284324,-17.555099487304688,-12.071578979492188,13.2081298828125
20.201032638549805,-8.58037,9.841159,-0.42694268,-18.830217569119057,nan,nan,nan,nan,10.199000120162964,0.0005757808685302734,-4.51143,11.608196,2.2575402,1.387213863544745,-0.3904349312353097,11.25670028686521,-8.311049,-3.121935,-27.001226,-1.3569733,0.57828474,-3.0,-2.1605783,-0.26776284,-0.4001001,0.0,-0.041348744,-0.024245048,9.821279,-0.010465285,0.028575517,0.8798816,-0.004810897,0.7912090964636669,-34.443084716796875,-11.388153076171875,16.67962646484375
20.301011323928833,-9.15517,11.089559,-0.14039505,-21.403728324111782,nan,nan,nan,nan,10.298970460891724,0.0005807876586914062,-4.7710953,12.336546,2.8633194,-1.2216375107062882,0.4915363237833197,11.782691040039039,-3.6652036,5.4010262,-26.299103,-1.382544,0.5363065,-3.0,-2.0774062,-0.2437328,-0.43922445,0.0,-0.03835026,-0.02470469,9.820215,-0.01075913,0.03137732,0.7858496,-0.004383221,0.8097144007726588,-23.165420532226562,-17.666351318359375,18.559600830078125
20.400861024856567,-9.729863,12.31004,0.19003397,-24.402771837634884,nan,nan,nan,nan,10.398776292800903,0.0005564689636230469,-5.1539,13.099318,3.621459,1.075074761697886,-1.146162617827795,12.335723495483375,-1.5015053,-4.6951723,-25.782164,-1.4056551,0.49064666,-3.0,-2.003181,-0.21931584,-0.4752133,0.0,-0.035088018,-0.025120497,9.81914,-0.010730006,0.033956423,0.70357054,-0.0039476794,0.8287308799450455,-37.14256286621094,-8.969879150390625,23.035125732421875
20.50196599960327,-10.340772,13.601856,0.59727657,-26.11313156365467,nan,nan,nan,nan,10.499977111816406,0.0006458759307861328,-5.3271866,13.813786,4.296634,0.24867155508943606,0.8242333361855851,12.995243301391579,-10.779208,0.9220523,-25.0208,-1.4265805,0.44085008,-3.0,-1.935674,-0.1941666,-0.5083136,0.0,-0.031529363,-0.025497314,9.818069,-0.010374152,0.036330227,0.6326287,-0.0034980448,0.8508599972389828,-36.21327209472656,-21.760772705078125,23.022186279296875
20.6034197807312,-10.789598,14.679747,0.60037684,-23.876374315893678,nan,nan,nan,nan,10.601743936538696,0.0010650157928466797,-1.5360366,8.33749,-3.2558756,0.7600925007404085,-0.7401788099138272,12.525037231445292,7.895026,-16.16911,49.10682,-1.4450382,0.3875823,-3.0,-1.8744029,-0.16852504,-0.5379163,0.0,-0.027721763,-0.025829976,9.817046,-0.009697287,0.038454674,0.57348865,-0.0030385663,0.8351422875683487,-31.285110473632812,-7.2745361328125,22.262451171875
20.70158815383911,-11.046895,15.421897,0.3609307,-24.84969509019616,nan,nan,nan,nan,10.699594497680664,0.0006923675537109375,-2.1172476,8.780654,-2.6607127,0.9176854289874052,0.9026913946257276,11.630748825073224,-12.693168,10.95595,47.991882,-1.4603103,0.3337037,-3.0,-1.82063,-0.14358059,-0.5626977,0.0,-0.02386969,-0.026105441,9.81614,-0.008764992,0.040234245,0.5272293,-0.0025906363,0.8044119890203679,-34.561004638671875,-18.336288452148438,21.785736083984375
20.803160667419434,-11.432667,16.412285,0.0901711,-26.56835511179466,nan,nan,nan,nan,10.801289796829224,0.0008494853973388672,-3.1391637,9.769313,-2.366495,-0.4964332649304737,0.6560270307554772,10.98721099853514,18.331848,9.527928,46.609604,-1.4735826,0.2753392,-3.0,-1.7690346,-0.11740144,-0.5844456,0.0,-0.019696092,-0.026344987,9.81531,-0.007533122,0.04179687,0.48907623,-0.0021196348,0.7815603871876603,-29.23187255859375,-18.740386962890625,23.779998779296875
20.901086568832397,-11.880654,17.464582,-0.16554838,-27.726914503185036,nan,nan,nan,nan,10.89901065826416,0.0006635189056396484,-3.8855364,10.629094,-2.0236692,-1.2156581488751461,-0.5189529155278596,10.535361099243149,-8.271782,-20.211206,45.344284,-1.4838176,0.21736841,-3.0,-1.7226796,-0.09204406,-0.60135096,0.0,-0.015549973,-0.026529822,9.81464,-0.0061319056,0.043012157,0.46097288,-0.0016626611,0.7651130211615096,-27.010940551757812,-13.206878662109375,26.037811279296875
21.001610279083252,-12.453374,18.712418,-0.40279642,-23.2811443132007,nan,nan,nan,nan,10.999508142471313,0.0005371570587158203,-4.8327575,11.356286,-1.2772027,0.9247754636155421,-0.9610845921162695,10.288388290405255,-6.557807,19.935732,43.900757,-1.4917505,0.1562358,-3.0,-1.6774722,-0.065805815,-0.61453444,0.0,-0.011177139,-0.02667315,9.814104,-0.0045109903,0.04396025,0.43998095,-0.0011891787,0.7559739378704191,-40.758575439453125,-12.53857421875,22.00103759765625
21.10770583152771,-13.003475,19.823673,-0.54266167,-24.731335894212574,nan,nan,nan,nan,11.106609582901001,0.0010921955108642578,-5.6092215,11.73403,-0.666628,0.5616859066504984,0.886316861892197,10.229273376464825,11.390463,-18.90529,42.59795,-1.4972951,0.089877784,-3.0,-1.6311853,-0.03771593,-0.6237906,0.0,-0.006430053,-0.026773358,9.813721,-0.0026368957,0.044626113,0.4257166,-0.000681761,0.7537702052397319,-41.584991455078125,-25.4248046875,21.8095703125
21.20140814781189,-13.779798,21.281048,-0.62030745,-27.168607266297812,nan,nan,nan,nan,11.199496030807495,0.0008206367492675781,-6.493874,12.283461,0.13528594,-1.4058509218368274,0.8252587847684056,10.321174087524396,-19.475975,6.214409,41.072712,-1.4996643,0.03172212,-3.0,-1.5919648,-0.013290706,-0.62775624,0.0,-0.0022694974,-0.026816187,9.813554,-0.0009370156,0.044911444,0.41972315,-0.00024027526,0.7571934238777361,-33.1629638671875,-27.149612426757812,24.3414306640625
21.300933599472046,-14.507367,22.564987,-0.58992493,-26.741663796235255,nan,nan,nan,nan,11.29889178276062,0.0005505084991455078,-7.173311,12.788442,1.0315571,-1.9079906495121834,-1.1642541462610883,10.580413208007796,26.21045,-4.2613297,40.15556,-1.4996855,-0.030711662,-3.0,-1.5503032,0.01286717,-0.6277915,0.0,0.0021972063,-0.02681657,9.813552,0.0009072229,0.044913985,0.41967016,0.00023261868,0.766768551665818,-31.343612670898438,-16.888748168945312,25.743804931640625
21.402105808258057,-15.150595,23.659014,-0.49538246,-23.94464946713281,nan,nan,nan,nan,11.4003427028656,0.0008990764617919922,-7.7325263,13.174842,1.6768136,1.7258231927238183,0.7461487403545117,10.942806167602521,-17.823378,16.940329,39.204666,-1.4970264,-0.094214275,-3.0,-1.5074444,0.039542776,-0.6233413,0.0,0.006740287,-0.026768504,9.813739,0.0027619938,0.044593796,0.42640004,0.0007147735,0.7799592214819913,-53.91644287109375,-29.975982666015625,21.189971923828125
21.501523971557617,-16.170198,25.355322,-0.24013403,-26.157136035379562,nan,nan,nan,nan,11.499418020248413,0.0004487037658691406,-8.598711,13.675122,2.7820714,-0.3301487101473443,1.0350184940419882,11.456043853759748,29.272152,4.4634495,37.98261,-1.4918209,-0.15557678,-3.0,-1.4645921,0.065525144,-0.6146518,0.0,0.011129999,-0.02667442,9.814099,0.0044928817,0.04396869,0.43979773,0.001184111,0.7982722219884643,-45.37007141113281,-34.04206848144531,23.181976318359375
21.601550817489624,-17.02853,26.763391,0.057620883,-27.905026474002387,nan,nan,nan,nan,11.599617719650269,0.0008478164672851562,-9.139292,14.273146,3.5828273,-1.232719822184649,-0.6827737493277748,12.071536026000958,-27.445189,-1.5861145,36.909992,-1.4839435,-0.21654479,-3.0,-1.419544,0.09168752,-0.6015595,0.0,0.015491063,-0.026532091,9.814632,0.006110943,0.043027155,0.46063462,0.001656231,0.8197009498517914,-41.778778076171875,-25.364700317382812,26.5086669921875
21.701184511184692,-17.92541,28.21395,0.4360006,-24.65731932031279,nan,nan,nan,nan,11.699262380599976,0.0006270408630371094,-9.630725,14.805124,4.371625,1.561750391686405,-0.2059775132413426,12.801043395996075,30.506123,-4.845738,35.762115,-1.4735174,-0.2756632,-3.0,-1.3722868,0.11754479,-0.58433837,0.0,0.019719264,-0.026343808,9.815314,0.0075404984,0.041789167,0.48925874,0.0021222162,0.8444034725618715,-59.50126647949219,-29.943878173828125,22.816131591796875
21.80084466934204,-18.943062,29.825537,0.9307867,-22.18379878146252,nan,nan,nan,nan,11.798688411712646,0.0005135536193847656,-10.17968,15.377433,5.289572,-2.553656006005672,1.2684703132204471,13.57760696411131,-27.003124,8.454225,34.362694,-1.4605561,-0.3327387,-3.0,-1.3218659,0.1431413,-0.56309867,0.0,0.02380069,-0.026109876,9.816125,0.008746355,0.04026305,0.5265053,0.0025827405,0.8699377229004656,-40.41636657714844,-40.66981506347656,19.127227783203125
21.900870084762573,-19.92942,31.34659,1.4514157,-26.824230860701938,nan,nan,nan,nan,11.898746728897095,0.0006442070007324219,-10.551425,15.367001,2.7683651,-2.2876959806778814,-0.758747282041633,14.3246799468994,2.366976,-31.276756,18.90834,-1.4449553,-0.3878468,-3.0,-1.2669077,0.16864975,-0.53778255,0.0,0.027740672,-0.025828486,9.817051,0.009701297,0.03844507,0.5737465,0.0030408036,0.8938217403827672,-42.225982666015625,-30.041152954101562,25.5933837890625
22.000980377197266,-21.029974,32.94276,1.4468721,-22.56878427128049,nan,nan,nan,nan,11.998899698257446,0.0006403923034667969,-10.695869,14.929617,0.48690867,-0.08850851234982149,-0.6250217900061387,13.838499832153305,-9.4475355,-42.51265,4.599289,-1.4267981,-0.44027996,-3.0,-1.2066276,0.19388592,-0.5086603,0.0,0.031488616,-0.025501236,9.818058,0.010368406,0.0363551,0.631912,0.0034930208,0.8783514719331966,-55.22734069824219,-32.24641418457031,21.226898193359375
22.103843450546265,-22.044611,34.387203,1.505436,-25.40287653302192,nan,nan,nan,nan,12.102022647857666,0.0011491775512695312,-10.875497,14.874584,1.7845017,-2.258364488846256,1.3100031714045666,13.61096214294432,3.3337784,-35.35753,4.6282687,-1.4054794,-0.4910269,-3.0,-1.1378484,0.21951322,-0.4749376,0.0,0.035115186,-0.025117334,9.819149,0.01073152,0.03393666,0.7041816,0.003951205,0.8710179013319358,-45.915863037109375,-45.26837158203125,22.381500244140625
22.201590299606323,-23.109533,35.857952,1.6638973,-25.751296713038155,nan,nan,nan,nan,12.199637413024902,0.0007803440093994141,-10.487053,13.965589,1.8359724,-3.0273544624014805,-0.877955166527363,13.639613952636703,13.431791,-52.40319,13.134065,-1.3828827,-0.5356957,-3.0,-1.0652778,0.24339558,-0.43974727,0.0,0.038306624,-0.024710776,9.820201,0.010760941,0.031414773,0.784621,0.0043772133,0.8719447089522144,-66.15223693847656,-30.924896240234375,23.775390625
22.301467180252075,-23.859203,36.820942,1.4626895,-23.435524181062224,nan,nan,nan,nan,12.299458026885986,0.0005834102630615234,-8.495504,9.485654,-5.324213,-0.4963947712122456,0.2758778076330308,12.760484161376935,-22.656048,-44.404087,-18.18386,-1.3573854,-0.577668,-3.0,-0.9823685,0.2673961,-0.40072486,0.0,0.0413047,-0.024252452,9.821263,0.010472241,0.028620243,0.87835467,0.004804377,0.8430488390732634,-49.48291015625,-37.53985595703125,21.435882568359375
22.40112590789795,-24.568039,37.662872,0.9480034,-28.173748080981632,nan,nan,nan,nan,12.399158477783203,0.0006361007690429688,-7.9329185,9.190443,-4.242794,0.597359306719613,0.27685077449774687,11.463315353393533,-52.323227,11.27806,-17.702732,-1.3295498,-0.61556053,-3.0,-0.88973576,0.29090154,-0.3589529,0.0,0.044010714,-0.023752559,9.822279,0.009868531,0.02563092,0.9809949,0.005221836,0.7985286987837552,-55.83966064453125,-37.541107177734375,26.200958251953125
22.50090479850769,-25.25001,38.513382,0.49567088,-33.27300783123057,nan,nan,nan,nan,12.498812675476074,0.0006232261657714844,-7.1940823,8.754928,-3.0486815,0.5216040132588228,-0.5960511827930903,10.656994476318337,2.3599875,46.613934,-17.501957,-1.2994106,-0.649146,-3.0,-0.78668857,0.31388882,-0.31469995,0.0,0.04640862,-0.023211798,9.82322,0.008965494,0.022466177,1.0870303,0.0056292946,0.769574617336066,-55.12416076660156,-31.966964721679688,32.148834228515625
