time,x,y,z,yaw,platform,trajectory,controller,feedforward,traj_time,comp_time,vx,vy,vz,roll,pitch,f,p,q,r,x_ref,y_ref,z_ref,yaw_ref,vx_ref,vy_ref,vz_ref,roll_ref,pitch_ref,f_ref,u_ff_df,u_ff_dphi,u_ff_dpsi,u_ff_dth,throttle,p_cmd,q_cmd,r_cmd
10.047304630279541,-0.09293435,-0.07682189,-2.6442738,0.05802834717536094,SIM,fig8_heading,contraction,1.0,0.04578447341918945,0.0007421970367431641,0.07280478,-0.026250305,-0.19916451,0.011169487089903413,-0.009698782494722558,9.80753198876977,0.016526664,0.016971005,-0.040179364,0.028765474,0.028760184,-3.0,0.7851222,0.62820303,0.62785643,0.0,-0.0020575922,0.0005144922,9.810022,0.0009633946,-0.044918653,-0.012057383,0.011235835,0.737859795659751,0.9362672567367554,-0.8633826971054077,0.711880624294281
10.10126256942749,-0.084879175,-0.08472625,-2.6647835,0.0513334482442126,nan,nan,nan,nan,0.09951090812683105,0.0006279945373535156,0.07882599,-0.017228205,-0.2005719,0.01625801797131295,-0.013276349689627986,9.800631449669599,0.20402981,-0.25253382,-0.038485326,0.06250645,0.06245216,-3.0,0.7840932,0.6277728,0.6261364,0.0,-0.004467996,0.0011179658,9.810104,0.002086581,-0.044794895,-0.0262662,0.011227866,0.7375966538297114,0.9236651659011841,-0.8549373149871826,0.7064608335494995
10.202346086502075,-0.07526691,-0.09026278,-2.6855874,0.04830668918805497,nan,nan,nan,nan,0.20058894157409668,0.0005545616149902344,0.10285324,0.010175958,-0.23407947,0.0531973440935987,-0.050378336511993194,9.78442543670535,0.65941185,-0.673953,0.042822074,0.12588552,0.12544142,-3.0,0.78007203,0.626102,0.6194678,0.0,-0.008974236,0.0022514681,9.81042,0.004148971,-0.044315122,-0.053418506,0.011196929,0.7369782970560577,0.739238977432251,-0.6416656374931335,0.7110162973403931
10.30193042755127,-0.06143313,-0.09036738,-2.707204,0.05232085812686466,nan,nan,nan,nan,0.3004446029663086,0.0007143020629882812,0.17038575,0.08703786,-0.26455024,0.12048403213323883,-0.11034328948771743,9.760680633634328,0.76937157,-0.5698247,0.19163448,0.188277,0.186788,-3.0,0.7733611,0.6233494,0.6085205,0.0,-0.01336261,0.0033671702,9.810932,0.0060750195,-0.04352772,-0.08119465,0.011146018,0.7360713645701431,0.3191584348678589,-0.22017721831798553,0.7260868549346924
10.40114426612854,-0.032587666,-0.07658824,-2.7349298,0.07671522451537509,nan,nan,nan,nan,0.3994889259338379,0.0006754398345947266,0.29936585,0.25299975,-0.28251386,0.17618711973048656,-0.14784358404912368,9.73344942495227,0.3237679,-0.07945271,0.3869121,0.24983653,0.24634674,-3.0,0.7638974,0.619542,0.5934576,0.0,-0.017622603,0.004467801,9.811622,0.007825232,-0.042444658,-0.11018818,0.011075717,0.7350299097923659,-0.20025105774402618,0.1723763793706894,0.6973069310188293
10.500909566879272,0.010702565,-0.044316027,-2.7608132,0.1226504211529901,nan,nan,nan,nan,0.4991447925567627,0.0006248950958251953,0.42781526,0.43821576,-0.286392,0.17479828001117512,-0.1463369416488114,9.707763446867464,-0.17610285,0.2489683,0.53152704,0.31134194,0.30456156,-3.0,0.751382,0.61463505,0.5741805,0.0,-0.021785852,0.005567219,9.812481,0.009378862,-0.0410592,-0.14137037,0.010985305,0.7340462161904694,-0.4844490885734558,0.3459462523460388,0.6085380911827087
10.600951910018921,0.076266445,0.011849431,-2.788707,0.18992243971080378,nan,nan,nan,nan,0.5991983413696289,0.0005588531494140625,0.5482155,0.61623806,-0.28929862,0.12636607057515162,-0.12093857707160227,9.685567893236874,-0.51816595,0.39581764,0.6250978,0.37254697,0.36087382,-3.0,0.73556316,0.6086312,0.5508029,0.0,-0.025812322,0.0066609806,9.813487,0.010688385,-0.039379936,-0.17533998,0.010874971,0.7331951464166332,-0.5464142560958862,0.3884384334087372,0.4716326594352722
10.704304456710815,0.14402853,0.07146701,-2.8125627,0.2532647356848966,nan,nan,nan,nan,0.7030801773071289,0.0011830329895019531,0.62705666,0.7189566,-0.29584265,0.06866677994976027,-0.0907263299989185,9.665771737545725,-0.6097206,0.40893,0.65002775,0.43540013,0.4166543,-3.0,0.7153648,0.6012668,0.52244085,0.0,-0.029799946,0.0077838623,9.814655,0.011745946,-0.037343893,-0.21421617,0.010740043,0.7324352564294355,-0.4622859060764313,0.3441293239593506,0.3253040909767151
10.801722764968872,0.24250697,0.15157895,-2.844033,0.3231287442108516,nan,nan,nan,nan,0.8001515865325928,0.00064849853515625,0.70826626,0.76438487,-0.30790192,-0.00188786584709566,-0.051008088361462534,9.646836681812998,-0.51124984,0.34866595,0.61319226,0.49338996,0.46593553,-3.0,0.6926421,0.5933561,0.49235955,0.0,-0.03332217,0.008819544,9.815831,0.012430318,-0.035185862,-0.25469035,0.010595584,0.7317076919392834,-0.25689607858657837,0.2823241055011749,0.16047078371047974
10.900830507278442,0.33513469,0.21512938,-2.8726544,0.36282899451587675,nan,nan,nan,nan,0.8990490436553955,0.0006098747253417969,0.7686865,0.7331299,-0.3189048,-0.04564614847794013,-0.020606013023507286,9.628250207602973,-0.33275658,0.29470667,0.53211874,0.5516313,0.5129746,-3.0,0.6652107,0.5842879,0.458367,0.0,-0.03668337,0.009859406,9.817081,0.012808567,-0.032748923,-0.30098966,0.010430559,0.7309928266441483,-0.07124684751033783,0.24163173139095306,0.023015469312667847
11.001756191253662,0.4403438,0.27210048,-2.9047897,0.38434995679954037,nan,nan,nan,nan,1.0004584789276123,0.0015099048614501953,0.820017,0.6483335,-0.3292339,-0.07098210428221474,0.008851845111173873,9.609664897918694,-0.12592658,0.25257492,0.41553858,0.6103682,0.5575514,-3.0,0.6320145,0.57394844,0.42024776,0.0,-0.039867856,0.010907811,9.818386,0.0128535,-0.030018097,-0.3548954,0.010243085,0.7302773158781091,0.09205221384763718,0.20726457238197327,-0.10919839143753052
11.101103782653809,0.5388071,0.30970952,-2.9350367,0.38701354470123617,nan,nan,nan,nan,1.0994164943695068,0.0006203651428222656,0.84553367,0.54324627,-0.3368469,-0.07524014906725474,0.03343640316730845,9.59284855768084,0.0348503,0.21348153,0.29141647,0.6666244,0.5971758,-3.0,0.59398705,0.56286055,0.3801254,0.0,-0.042697888,0.011911677,9.819646,0.01256332,-0.027145829,-0.41500545,0.010042793,0.7296293116936955,0.18623307347297668,0.16081488132476807,-0.22997736930847168
11.201205730438232,0.64273995,0.3341354,-2.9682097,0.3753794877218705,nan,nan,nan,nan,1.1995134353637695,0.0007834434509277344,0.8410458,0.42231032,-0.3434921,-0.0644462534726204,0.055260813788865715,9.574643184244627,0.14845146,0.1541678,0.15136029,0.72236264,0.6330821,-3.0,0.5490395,0.5506614,0.33688608,0.0,-0.04526177,0.012906081,9.820875,0.011944069,-0.024052558,-0.4846702,0.009823234,0.7289271416129097,0.22967058420181274,0.09505882859230042,-0.3505149185657501
11.30110764503479,0.72474873,0.34344566,-2.9969234,0.35721556638245067,nan,nan,nan,nan,1.2993884086608887,0.0005748271942138672,0.8096425,0.3286436,-0.34804443,-0.048483944313443356,0.06787421854291309,9.5570664897561,0.19142404,0.086273685,0.032132715,0.7767118,0.6644746,-3.0,0.49674425,0.5375246,0.29138267,0.0,-0.04750286,0.013875547,9.822024,0.011018532,-0.020799438,-0.56432843,0.009587642,0.7282485856347769,0.2196180373430252,0.025807734578847885,-0.4743931293487549
11.400983333587646,0.81146264,0.34434158,-3.0318878,0.3272332447077775,nan,nan,nan,nan,1.3992743492126465,0.0006654262542724609,0.7470072,0.23787586,-0.35296318,-0.027593031866154888,0.07413048070121397,9.539745824187987,0.19253018,0.0028400456,-0.10970169,0.8297076,0.6912206,-3.0,0.4359377,0.5234455,0.24383523,0.0,-0.049411867,0.014820785,9.823067,0.009812773,-0.017402187,-0.6550864,0.009336006,0.7275793030829704,0.18499039113521576,-0.04289482906460762,-0.6002768278121948
11.501441478729248,0.88008213,0.33944827,-3.065213,0.2914770905791764,nan,nan,nan,nan,1.4997293949127197,0.0007674694061279297,0.6752022,0.17792816,-0.35718897,-0.010726490788797616,0.07170209125101601,9.522355351895085,0.15803912,-0.06562688,-0.23862323,0.88154036,0.71323985,-3.0,0.3650688,0.50836223,0.1942965,0.0,-0.050983224,0.01574526,9.823981,0.008352816,-0.013864487,-0.75771594,0.00906726,0.7269067116072627,0.13245204091072083,-0.08845166116952896,-0.7349193096160889
11.601932048797607,0.9416498,0.33183146,-3.1020997,0.2432229756959488,nan,nan,nan,nan,1.6005747318267822,0.0007486343383789062,0.59414667,0.13791904,-0.36163205,0.0017738091914059062,0.0626967546240702,9.504335092902172,0.102459624,-0.111461245,-0.3819115,0.9320047,0.7302666,-3.0,0.28302744,0.49231514,0.14318247,0.0,-0.05219813,0.016645402,9.824741,0.0066801207,-0.010215843,-0.87079805,0.008782134,0.7262091143362068,0.07598105818033218,-0.11209799349308014,-0.8727206587791443
11.700973272323608,0.9880241,0.32536948,-3.1369147,0.1890533311830227,nan,nan,nan,nan,1.6992478370666504,0.0006368160247802734,0.525293,0.11837022,-0.3663184,0.0069707670541092615,0.05122488406456349,9.485796331465231,0.04332708,-0.12959124,-0.5150404,0.9797732,0.74188507,-3.0,0.19137691,0.47576332,0.092178226,0.0,-0.053027052,0.017497603,9.825313,0.00488899,-0.0065761968,-0.9873456,0.008488737,0.7254907543979836,0.02635226957499981,-0.1152905598282814,-1.015910029411316
11.801070928573608,1.0294253,0.32148457,-3.175203,0.11951041454681965,nan,nan,nan,nan,1.7993922233581543,0.0011699199676513672,0.46348453,0.10946314,-0.37187555,0.006074400378278617,0.03803023457532584,9.46627565190195,-0.011857201,-0.12409397,-0.6644768,1.0265424,0.748496,-3.0,0.086595125,0.45813397,0.03977163,0.0,-0.053498678,0.0183322,9.825707,0.0029658931,-0.0028372528,-1.1042066,0.008176832,0.7247335868996295,-0.01194674987345934,-0.10031315684318542,-1.1550793647766113
11.901742696762085,1.0611961,0.32088423,-3.21117,0.04424000685887333,nan,nan,nan,nan,1.9001233577728271,0.0005922317504882812,0.4190542,0.104436256,-0.3768607,0.0006541059238726991,0.026955650301285994,9.446072892695653,-0.052903816,-0.10663185,-0.8026163,1.0717633,0.7498339,-3.0,-0.030072477,0.43958825,-0.0132234935,0.0,-0.053594124,0.019139478,9.825906,0.0009790726,0.00094333594,-1.2089458,0.007849188,0.7239491403808805,-0.04002651199698448,-0.07973626255989075,-1.2904887199401855
12.00195860862732,1.086999,0.3225907,-3.2450652,-0.0345277825476243,nan,nan,nan,nan,2.000441074371338,0.001500844955444336,0.3881909,0.09770523,-0.3808713,-0.006800585015900737,0.018327844204211186,9.425300513207898,-0.07468025,-0.08349176,-0.9321514,1.1149027,0.74586236,-3.0,-0.15553068,0.42034087,-0.06590819,0.0,-0.053310804,0.019909957,9.825905,-0.0009960171,0.004701893,-1.2866956,0.007509467,0.7231417010844009,-0.0610940046608448,-0.057492975145578384,-1.4062329530715942
12.103080987930298,1.1133764,0.32601348,-3.2827654,-0.1314707554763362,nan,nan,nan,nan,2.1014537811279297,0.0007040500640869141,0.36351952,0.08463389,-0.38430715,-0.01630020903636835,0.010480900760400313,9.404314074665296,-0.08817252,-0.05634097,-1.0677967,1.156352,0.7365437,-3.0,-0.28783953,0.40021038,-0.11848686,0.0,-0.052645985,0.020650683,9.825706,-0.0029250102,0.008453453,-1.3255621,0.0071543115,0.7223250370723988,-0.06709281355142593,-0.02746788039803505,-1.4723821878433228
12.202337503433228,1.1410989,0.33023116,-3.3241801,-0.2489252931037797,nan,nan,nan,nan,2.2011961936950684,0.0010838508605957031,0.34281132,0.0616383,-0.38549376,-0.02664241969465643,0.003943752220666674,9.383329557478412,-0.08334758,-0.018557463,-1.2015744,1.1952492,0.7221694,-3.0,-0.420091,0.37963,-0.16957377,0.0,-0.05162039,0.021346262,9.825323,-0.004717631,0.012099547,-1.3187437,0.0067911902,0.7215075362198484,-0.05683965981006622,0.00465495977550745,-1.4737730026245117
12.300988912582397,1.1685218,0.33332828,-3.364656,-0.37768062865521546,nan,nan,nan,nan,2.2992489337921143,0.0005462169647216797,0.32394728,0.030055594,-0.3819826,-0.03452504152644484,-0.00036991456759549735,9.363435385227188,-0.063248456,0.011045716,-1.3084756,1.2314545,0.70312583,-3.0,-0.54734373,0.35875216,-0.2186438,0.0,-0.050261483,0.021994175,9.824781,-0.0063233003,0.015602988,-1.2706479,0.006422621,0.720731667773329,-0.04764469340443611,0.02854786440730095,-1.4195431470870972
12.406303882598877,1.1914548,0.334127,-3.3973944,-0.4925586124723765,nan,nan,nan,nan,2.4050700664520264,0.001476287841796875,0.30713013,-0.0011724955,-0.37447584,-0.039050841297031014,-0.0028421633292026183,9.345491908341629,-0.043508485,0.030383134,-1.3684814,1.2681961,0.6772577,-3.0,-0.67746735,0.33554244,-0.26993755,0.0,-0.048415307,0.022652239,9.82403,-0.007832951,0.019266954,-1.1838864,0.006012474,0.7200311687599731,-0.06354249268770218,0.04234365001320839,-1.3452023267745972
12.502968549728394,1.2177002,0.33251533,-3.4339457,-0.6314334685392484,nan,nan,nan,nan,2.50128436088562,0.0005369186401367188,0.284587,-0.04003227,-0.36082894,-0.042165780105544226,-0.004766729478335785,9.331666726022942,-0.02795253,0.04290102,-1.3960799,1.2994415,0.6491151,-3.0,-0.78679544,0.3138664,-0.31474474,0.0,-0.046406414,0.023212353,9.823219,-0.008966527,0.022469379,-1.0869267,0.005628898,0.7194909858808446,-0.06615366786718369,0.05081017315387726,-1.2164738178253174
12.60087776184082,1.2417616,0.32745495,-3.4686308,-0.7692578728435875,nan,nan,nan,nan,2.5990781784057617,0.0005707740783691406,0.25828555,-0.07854466,-0.34308967,-0.04394220386959374,-0.006102057908142777,9.319585100635871,-0.020852042,0.05090305,-1.3792292,1.3290371,0.61619216,-3.0,-0.8880061,0.2913124,-0.35819152,0.0,-0.04405582,0.023743354,9.822297,-0.009855111,0.025576454,-0.982861,0.005229125,0.7190186002078935,-0.07464326918125153,0.050608761608600616,-1.074230670928955
12.700968980789185,1.2628686,0.31903717,-3.5018656,-0.901054554848777,nan,nan,nan,nan,2.6991982460021973,0.0005633831024169922,0.22813417,-0.11523928,-0.32377326,-0.04517506567718593,-0.00721252192136812,9.310778043270094,-0.02365135,0.047839396,-1.3174542,1.3570261,0.57820576,-3.0,-0.9811881,0.26771587,-0.40018016,0.0,-0.041343108,0.024245996,9.821277,-0.010466179,0.028581252,-0.8796859,0.0048100622,0.7186740555669989,-0.08669889718294144,0.04332324489951134,-0.9312300682067871
12.801908731460571,1.2790872,0.3086814,-3.5308523,-1.01534364046191,nan,nan,nan,nan,2.8006083965301514,0.001058340072631836,0.19654168,-0.14635408,-0.30546203,-0.04661310786954004,-0.008653941623803618,9.304860728010517,-0.02933083,0.04178843,-1.2317874,1.3829429,0.5355869,-3.0,-1.065472,0.24333556,-0.43984032,0.0,-0.03829885,0.024711858,9.820198,-0.010761257,0.031421438,-0.7844024,0.0043761428,0.718442470226931,-0.10319159924983978,0.03410026431083679,-0.8043608665466309
12.90125322341919,1.2926812,0.2952533,-3.559814,-1.1288889662018082,nan,nan,nan,nan,2.8996212482452393,0.0006754398345947266,0.1584487,-0.17761347,-0.28513488,-0.04895173911423567,-0.010915099028005804,9.30152445506303,-0.04025551,0.028161198,-1.1190176,1.40584,0.4902454,-3.0,-1.1390054,0.21910761,-0.47550386,0.0,-0.03505934,0.025123829,9.819131,-0.010728388,0.03397726,-0.7029268,0.0039439616,0.7183118664026072,-0.10738016664981842,0.02017931267619133,-0.6808626055717468
13.00076699256897,1.3008907,0.2800782,-3.5843482,-1.2236372574019072,nan,nan,nan,nan,2.9989728927612305,0.0005102157592773438,0.118839346,-0.20599796,-0.26597476,-0.05220751794263778,-0.013790216798223565,9.300397069239972,-0.052677263,0.017337866,-1.0047077,1.4263853,0.44136065,-3.0,-1.2052827,0.19441809,-0.5080025,0.0,-0.031565856,0.0254938,9.81808,-0.010379267,0.036307912,-0.6332722,0.003502546,0.7182677277585438,-0.1064227968454361,0.00507420115172863,-0.5801105499267578
13.101248025894165,1.3046589,0.2607206,-3.6089125,-1.3148719752048317,nan,nan,nan,nan,3.099468231201172,0.0005328655242919922,0.07060023,-0.23664172,-0.24532513,-0.05619279557158385,-0.018209015147120367,9.30141399510203,-0.05118896,-0.0015197224,-0.8775517,1.444654,0.38880593,-3.0,-1.2658832,0.16910206,-0.53729624,0.0,-0.02780924,0.025823051,9.817068,-0.009715784,0.038410157,-0.5746843,0.0030489173,0.7183075418674415,-0.09086230397224426,-0.014666536822915077,-0.4868852496147156
13.200991868972778,1.3028044,0.24175952,-3.627858,-1.3831319605455243,nan,nan,nan,nan,3.1992452144622803,0.0005550384521484375,0.025191078,-0.26317582,-0.22725278,-0.05903786388968624,-0.023257716416182905,9.304259015563858,-0.045420513,-0.019320643,-0.7747249,1.46026,0.33390093,-3.0,-1.3207779,0.14367041,-0.56261563,0.0,-0.02388379,0.026104528,9.816144,-0.008768794,0.040228352,-0.52737767,0.0025922505,0.7184189169465494,-0.08374930918216705,-0.02964957058429718,-0.4218478798866272
13.301071405410767,1.294175,0.2166481,-3.647666,-1.4537764586019204,nan,nan,nan,nan,3.2993602752685547,0.0005784034729003906,-0.033610422,-0.29614076,-0.20587131,-0.06153422096640904,-0.03068600940469235,9.308820031937195,-0.038899656,-0.041228775,-0.66048044,1.4733555,0.27646685,-3.0,-1.3716135,0.11790042,-0.5840719,0.0,-0.019776737,0.026340885,9.815324,-0.0075587765,0.041770007,-0.48971277,0.00212862,0.7185974332337308,-0.05786988511681557,-0.05387113615870476,-0.35809046030044556
13.400927543640137,1.2803895,0.19081734,-3.6642418,-1.5099003536980522,nan,nan,nan,nan,3.399162769317627,0.0006005764007568359,-0.091058955,-0.3293713,-0.18619172,-0.06250234774684515,-0.03910770036611355,9.3149754472263,-0.022585483,-0.061609406,-0.56469405,1.4838315,0.21727714,-3.0,-1.418983,0.09200455,-0.6013741,0.0,-0.015543445,0.026530074,9.814639,-0.006129584,0.04301382,-0.46093535,0.0016619486,0.7188382843092725,-0.03399728983640671,-0.07275516539812088,-0.3133523464202881
13.501915216445923,1.2606978,0.16248444,-3.679245,-1.5583151286838595,nan,nan,nan,nan,3.5004096031188965,0.0007698535919189453,-0.1500558,-0.36643165,-0.16627274,-0.061657313018666726,-0.048946937783991507,9.322461564484968,-0.004855643,-0.07993944,-0.48239654,1.4918098,0.15568183,-3.0,-1.464517,0.06556988,-0.6146331,0.0,-0.0111375125,0.026674217,9.8141,-0.004495769,0.043967348,-0.43982688,0.0011849187,0.7191310963031157,-0.007088560611009598,-0.08838417381048203,-0.2811049520969391
13.601855039596558,1.2326672,0.12820889,-3.6938205,-1.6030426448380681,nan,nan,nan,nan,3.600127935409546,0.0005719661712646484,-0.21413714,-0.4132678,-0.14459349,-0.058250103225612304,-0.06081954558779823,9.331350330356491,0.025236169,-0.09943322,-0.4063767,1.4970452,0.09391989,-3.0,-1.5076458,0.039418723,-0.62337255,0.0,-0.0067192256,0.026768843,9.813738,-0.0027535104,0.044596035,-0.42635256,0.00071253174,0.7194786188648616,0.03321297839283943,-0.10553441941738129,-0.2560949921607971
13.711905241012573,1.2006584,0.09237669,-3.705548,-1.6384524519283925,nan,nan,nan,nan,3.7106809616088867,0.0010836124420166016,-0.27132154,-0.46429905,-0.124582596,-0.05196693905390248,-0.07298523393382195,9.342456431779995,0.05774224,-0.11312195,-0.34883666,1.4997966,0.024700223,-3.0,-1.5543199,0.010347809,-0.6279777,0.0,-0.0017671306,0.026818577,9.813544,-0.0007298763,0.04492738,-0.41939056,0.00018707356,0.7199125996950595,0.06679322570562363,-0.10848601907491684,-0.25032317638397217
13.801312923431396,1.159736,0.047873203,-3.716075,-1.6719280483793262,nan,nan,nan,nan,3.7995331287384033,0.0005314350128173828,-0.32809857,-0.5298853,-0.1026696,-0.04155530907216165,-0.08636765109371902,9.352622189391388,0.093003355,-0.11713837,-0.30153722,1.4996772,-0.031113878,-3.0,-1.5915582,-0.013035757,-0.62777764,0.0,0.0022259818,0.026816418,9.813553,0.00091908255,0.04491298,-0.41969106,-0.00023566636,0.7203096096899753,0.12317530810832977,-0.1180335208773613,-0.2434520423412323
13.900968074798584,1.1209437,0.0047017587,-3.7229977,-1.6973982480189052,nan,nan,nan,nan,3.8991641998291016,0.0005304813385009766,-0.3693487,-0.5941683,-0.0843574,-0.029233213189525542,-0.09748713044623458,9.36500925684346,0.13338064,-0.11746286,-0.27210397,1.4970729,-0.09347915,-3.0,-1.6336454,-0.039233014,-0.62341905,0.0,0.006687695,0.026769344,9.813736,0.0027408074,0.044599377,-0.42628184,-0.0007091759,0.7207930784340261,0.16625770926475525,-0.1103283166885376,-0.2577332556247711
14.00224256515503,1.0711731,-0.05424974,-3.7288308,-1.725628358911092,nan,nan,nan,nan,4.000761270523071,0.0006172657012939453,-0.40638047,-0.6820399,-0.06283375,-0.00994105775088372,-0.10971781560468696,9.378494145069256,0.18333244,-0.10891869,-0.25180715,1.4917327,-0.15640168,-3.0,-1.677591,-0.06587646,-0.6145048,0.0,0.011189005,0.026672829,9.814105,0.0045155473,0.043958124,-0.4400272,-0.0011904542,0.721319031894003,0.2281164526939392,-0.09785488247871399,-0.2773685157299042
14.102652311325073,1.0230128,-0.117774405,-3.7325954,-1.7511139168181487,nan,nan,nan,nan,4.10094952583313,0.0004699230194091797,-0.42572403,-0.7740525,-0.043218553,0.012996269288472417,-0.11915281496584029,9.393069867584833,0.23799469,-0.09282711,-0.24293135,1.4838212,-0.21734506,-3.0,-1.7226617,-0.09203395,-0.6013569,0.0,0.015548303,0.026529886,9.81464,0.0061313114,0.04301258,-0.46096325,-0.0016624785,0.7218871062924277,0.2861308753490448,-0.073378786444664,-0.31078624725341797
14.200898885726929,0.9704734,-0.19787353,-3.7353473,-1.7794406244558436,nan,nan,nan,nan,4.1991143226623535,0.0005095005035400391,-0.42516485,-0.88617086,-0.022348443,0.0440056238065768,-0.12618646424404933,9.408437572810778,0.29667652,-0.05967611,-0.24823423,1.4735351,-0.2755761,-3.0,-1.7692329,-0.11750626,-0.5843672,0.0,0.019713037,0.026344128,9.815312,0.007538518,0.04179124,-0.48920965,-0.002121522,0.7224855703109372,0.35162094235420227,-0.03785760700702667,-0.3523077964782715
14.30132007598877,0.9238295,-0.2834456,-3.736373,-1.8071934857922285,nan,nan,nan,nan,4.299663066864014,0.0006246566772460938,-0.3993756,-1.0000124,-0.0031400349,0.078546690937504,-0.12828492645656087,9.424824043605454,0.3562374,-0.016740242,-0.2641634,1.4604166,-0.33328703,-3.0,-1.8202397,-0.14339088,-0.56287104,0.0,0.023839895,0.026107356,9.8161335,0.008756952,0.040246695,-0.52691627,-0.0025872265,0.7231231698901334,0.4097230136394501,0.01384648960083723,-0.4125669002532959
14.402263402938843,0.87931573,-0.3896965,-3.7355309,-1.8399006175288588,nan,nan,nan,nan,4.400739669799805,0.0006031990051269531,-0.33674276,-1.1325408,0.018788517,0.12227897918255226,-0.12388311940404595,9.442453908864385,0.41261497,0.04237001,-0.2943251,1.4446187,-0.38891792,-3.0,-1.8758293,-0.16915493,-0.5372393,0.0,0.02781725,0.025822414,9.81707,0.00971747,0.03840607,-0.5747942,-0.0030498654,0.7238085314443787,0.4689480662345886,0.08400152623653412,-0.4885209798812866
14.512796878814697,0.84676296,-0.50108355,-3.7327366,-1.8729594107717897,nan,nan,nan,nan,4.5113091468811035,0.0008149147033691406,-0.24217935,-1.2605344,0.040691316,0.16791831529556844,-0.11158023225436153,9.463735298458465,0.46548778,0.12095235,-0.335615,1.4243729,-0.4465679,-3.0,-1.942856,-0.19698979,-0.5047985,0.0,0.031938024,0.025457546,9.818187,0.010429825,0.03607806,-0.6399269,-0.0035485707,0.7246349943641641,0.5203157067298889,0.17208008468151093,-0.5993385314941406
14.603717565536499,0.824965,-0.6373417,-3.7274232,-1.9128270765794788,nan,nan,nan,nan,4.602064609527588,0.0006210803985595703,-0.09356488,-1.4016337,0.067339376,0.22211205800774136,-0.08688186248440055,9.483262719903118,0.50900275,0.21290252,-0.3960111,1.4054701,-0.49104694,-3.0,-2.003774,-0.21952361,-0.47492304,0.0,0.035116617,0.02511717,9.819149,0.0107316,0.033935618,-0.7042138,-0.0039513907,0.7253925247786553,0.5664826035499573,0.26599183678627014,-0.7072655558586121
14.701435804367065,0.8217681,-0.7777491,-3.720004,-1.9533766910942376,nan,nan,nan,nan,4.699774503707886,0.0005919933319091797,0.092215225,-1.5300223,0.096811436,0.2752350880848462,-0.05166587908167486,9.508117460552581,0.546966,0.31595886,-0.47049856,1.3828495,-0.53575563,-3.0,-2.0764217,-0.24342868,-0.43969598,0.0,0.038310908,0.02471018,9.820202,0.0107607655,0.0314111,-0.7847414,-0.004377803,0.7263555915238825,0.6058587431907654,0.3746810257434845,-0.8513612747192383
14.800863981246948,0.84358746,-0.9451423,-3.7084138,-2.001494532919941,nan,nan,nan,nan,4.799131870269775,0.0005800724029541016,0.3539716,-1.6621567,0.13715944,0.3348602245784229,0.0023650979744942457,9.53735389197243,0.5795231,0.43774083,-0.57166487,1.3574727,-0.57753724,-3.0,-2.1589375,-0.26731837,-0.40085718,0.0,0.04129536,0.02425402,9.8212595,0.010473707,0.028629716,-0.8780314,-0.0048029954,0.7274868294295117,0.6388439536094666,0.5079380869865417,-1.0265299081802368
14.90094518661499,0.89434177,-1.1133873,-3.6924994,-2.048917627023373,nan,nan,nan,nan,4.899228572845459,0.0005424022674560547,0.6606768,-1.7733312,0.1865888,0.3901809068143294,0.06917870127071346,9.573144286517033,0.6052342,0.56889987,-0.68811965,1.3295298,-0.6155854,-3.0,-2.251925,-0.2909177,-0.35892302,0.0,0.04401249,0.023752198,9.82228,0.009868006,0.025628781,-0.9810682,-0.005222122,0.7288693003156991,0.6654603481292725,0.6609918475151062,-1.2331128120422363
15.001625537872314,0.98142487,-1.2931039,-3.670266,-2.096288007355586,nan,nan,nan,nan,4.999853849411011,0.0005183219909667969,1.0395408,-1.8673829,0.25341088,0.4446950313720681,0.15543174719774577,9.617942648176083,0.6248794,0.7241381,-0.8279097,1.2990838,-0.6494733,-3.0,-2.3560362,-0.3141261,-0.31422564,0.0,0.04643199,0.023205938,9.82323,0.00895456,0.022432266,-1.0881264,-0.0056334957,0.7305960841051619,0.6790027022361755,0.8402985334396362,-1.4712135791778564
15.101339340209961,1.1140772,-1.4824232,-3.640271,-2.1412726279439074,nan,nan,nan,nan,5.099676609039307,0.0010519027709960938,1.5024115,-1.9355824,0.34497112,0.49680157562186467,0.26424795781242016,9.675528533104787,0.63419795,0.894978,-0.99560124,1.2666006,-0.6785339,-3.0,-2.4697564,-0.33659816,-0.26767883,0.0,0.048506387,0.02262365,9.824066,0.007770836,0.01910557,-1.1883378,-0.006031143,0.7328098753491818,0.6712509393692017,1.0525015592575073,-1.732954502105713
15.200952053070068,1.3204451,-1.6943176,-3.5956268,-2.1871691519423906,nan,nan,nan,nan,5.19926118850708,0.0005443096160888672,2.1098163,-1.9696642,0.48733938,0.5481276079115874,0.41241490271950276,9.752812199834715,0.62428254,1.1304369,-1.208214,1.2319884,-0.7027997,-3.0,-2.5923576,-0.35843036,-0.21937846,0.0,0.050238214,0.022003738,9.824771,0.00634626,0.015655452,-1.2696445,-0.0064169387,0.7357705865339126,0.6247557997703552,1.313346266746521,-2.0169284343719482
15.300990104675293,1.5790945,-1.8918548,-3.5373645,-2.228622040937569,nan,nan,nan,nan,5.29925799369812,0.0007560253143310547,2.777658,-1.9553088,0.67847586,0.5870914694950548,0.5821940284006182,9.858912597540748,0.5924194,1.3803519,-1.4321052,1.1950765,-0.7222465,-3.0,-2.7221017,-0.3797254,-0.16934314,0.0,0.051625893,0.021343172,9.825326,0.0047097825,0.012083084,-1.3188764,-0.006792873,0.7398162152901239,0.5549755692481995,1.5864077806472778,-2.298002243041992
15.400951623916626,1.9462706,-2.1031022,-3.446211,-2.278590570564437,nan,nan,nan,nan,5.399188995361328,0.0004899501800537109,3.6264193,-1.885766,0.98324776,0.6131189462027831,0.8060620354473844,10.008804915789494,0.53728884,1.6853105,-1.7002107,1.1560944,-0.73661983,-3.0,-2.854606,-0.4003409,-0.11815424,0.0,0.052651413,0.020646077,9.825707,0.002913029,0.008429717,-1.3254579,-0.007156614,0.7454947175163522,0.46451491117477417,1.9068753719329834,-2.575793743133545
15.500904560089111,2.3766942,-2.2905016,-3.324439,-2.3436669464027746,nan,nan,nan,nan,5.499138593673706,0.0005300045013427734,4.5280743,-1.7753698,1.3958889,0.6090975932453813,1.0529830981207424,10.21943332398308,0.50017005,2.004861,-1.9666425,1.1150789,-0.7458347,-3.0,-2.9855225,-0.42025885,-0.0661276,0.0,0.053308826,0.019913109,9.825904,0.0010041835,0.004717546,-1.2869458,-0.00750802,0.7534027623681597,0.44671890139579773,2.23088002204895,-2.8100476264953613
15.601733446121216,2.9058154,-2.4675543,-3.1505556,-2.5091049755843904,nan,nan,nan,nan,5.600122690200806,0.0005803108215332031,5.537097,-1.6437833,1.9868653,0.5039327451024946,1.3383368191760217,10.52223628008736,0.5852507,2.3409967,-2.2370024,1.071655,-0.74983716,-3.0,-3.1118178,-0.43963453,-0.013093908,0.0,0.053594355,0.019137543,9.825906,-0.0009839478,0.0009340916,-1.2087165,-0.007850003,0.7646300577147019,0.9219698309898376,2.581444501876831,-2.930365562438965
15.70140528678894,3.6027634,-2.6494403,-2.877667,1.16761513433045,nan,nan,nan,nan,5.699584245681763,0.0008699893951416016,6.725269,-1.5527712,2.8954659,-1.9842303658559555,1.4318401621266403,10.941324407700431,2.001667,2.5821288,-2.3135233,1.0270109,-0.7485364,-3.0,3.0561278,-0.45794964,0.039234187,0.0,0.05350156,0.018340565,9.825709,-0.0029458848,-0.0027989114,-1.1053572,-0.008173573,0.7799057356800566,14.536416053771973,4.543324947357178,-0.36320018768310547
15.81322455406189,4.2849674,-2.8092432,-2.5555263,0.5939908177989319,nan,nan,nan,nan,5.811700820922852,0.0010194778442382812,7.464066,-1.7089602,3.8506646,-2.0428708746105073,1.1125862275706822,11.577091199997792,8.891028,4.629271,-2.2346869,0.9745536,-0.7408446,-3.0,2.939476,-0.47764066,0.097875535,0.0,0.052952822,0.017404472,9.825258,-0.005093766,-0.0069827093,-0.9743161,-0.008521984,0.8025312016589715,15.523824691772461,8.314414978027344,0.5312075614929199
15.902522087097168,5.1504965,-3.063024,-2.0510123,-0.395474540391731,nan,nan,nan,nan,5.901265621185303,0.0014693737030029297,7.73339,-2.5837212,4.983382,-1.5032976899742536,0.759501567838277,12.221665498856431,14.583244,8.495263,-1.8583286,0.931098,-0.73000205,-3.0,2.8569639,-0.4926161,0.14412598,0.0,0.052179255,0.016629227,9.824729,-0.006712241,-0.010283181,-0.86866194,-0.0087874755,0.8248443578819892,14.395859718322754,11.767610549926758,1.867208480834961
16.001049041748047,5.9069133,-3.3982334,-1.4838588,-1.8406293669124825,nan,nan,nan,nan,5.999321699142456,0.0005755424499511719,7.0167108,-2.926883,5.7297745,-1.0941906375860206,0.9438112581196028,13.0299387332238,14.902986,11.462113,-1.4843684,0.8820224,-0.71342385,-3.0,2.777243,-0.50821555,0.19382179,0.0,0.050996356,0.01575386,9.823989,-0.008337983,-0.013830595,-0.7587362,-0.009064649,0.8520084174521039,12.978509902954102,10.435698509216309,3.1740946769714355
16.10161328315735,6.6287127,-3.7470384,-0.7880382,-4.236789831400214,nan,nan,nan,nan,6.099913835525513,0.001371622085571289,6.9872746,-2.158343,6.596104,-1.682643416800855,1.0790724372007507,13.87704858506096,14.244424,9.980589,-1.1058989,0.83013207,-0.6914182,-3.0,2.7061865,-0.5233274,0.24344172,0.0,0.049425963,0.014828351,9.823075,-0.009801926,-0.01737408,-0.6558699,-0.009333898,0.8795879147092069,15.420339584350586,10.37688159942627,5.495588779449463
16.20302104949951,7.327662,-4.004249,-0.055227518,-5.922354547161107,nan,nan,nan,nan,6.2015299797058105,0.0006337165832519531,7.814104,-2.4093912,7.567939,-1.6145558998417056,0.8626801314964951,14.807738167885669,15.54728,11.242544,-0.6701792,0.7762178,-0.6642066,-3.0,2.64433,-0.5376498,0.29181123,0.0,0.04748373,0.013866733,9.822015,-0.011028375,-0.020830065,-0.5635458,-0.009589884,0.9089347674393873,15.887205123901367,13.658760070800781,7.4164652824401855
16.303626537322998,7.960211,-4.1011114,0.09401956,-9.042370980756562,nan,nan,nan,nan,6.30226731300354,0.0007665157318115234,5.316667,1.2349757,-5.52367,-3.018039376266999,1.2228071090820278,13.877306820992358,9.273283,17.311934,14.0475855,0.7213814,-0.6324812,-3.0,2.591691,-0.55088705,0.33767724,0.0,0.045218874,0.012888578,9.820854,-0.011957856,-0.024109138,-0.4833449,-0.009827286,0.8795961917752413,18.197036743164062,8.568678855895996,10.252677917480469
16.401113986968994,8.478267,-4.0128393,-0.34733343,-4.033123532801206,nan,nan,nan,nan,6.399413347244263,0.0006365776062011719,4.938902,1.0212082,-3.800679,2.5594948739006567,-0.6599873234774042,12.273236148003464,-10.393939,11.217172,13.603634,0.6672827,-0.59762007,-3.0,2.5480914,-0.5627237,0.37963498,0.0,0.042729612,0.011923421,9.819661,-0.012557945,-0.027110733,-0.41576543,-0.010040323,0.82660386209396,-10.73916244506836,19.928802490234375,6.895178318023682
16.500962018966675,8.9170065,-3.9947445,-0.6286839,-7.912403073941751,nan,nan,nan,nan,6.499196529388428,0.000705718994140625,4.505815,0.0795037,-2.8277442,-1.446267172895648,-0.9473921071091631,11.235019442681198,-20.5687,5.1702175,13.167026,0.6105658,-0.5576961,-3.0,2.5097003,-0.57391155,0.42011297,0.0,0.039878197,0.01091134,9.81839,-0.012853061,-0.030008443,-0.355091,-0.010242418,0.7904371445837262,12.645467758178711,21.584331512451172,11.118114471435547
16.6009259223938,9.305015,-4.032903,-0.83246857,-8.869108501104,nan,nan,nan,nan,6.599149703979492,0.0004591941833496094,3.9913716,0.14513685,-1.3273238,2.8883803805493016,0.05472387408489854,10.676240820530776,-19.8373,-6.7376914,12.935038,0.552683,-0.5137992,-3.0,2.4769247,-0.5841135,0.45771834,0.0,0.03674228,0.009878181,9.817105,-0.012812402,-0.032702435,-0.30188623,-0.010427389,0.7702782488029654,-11.503878593444824,15.180810928344727,11.10457706451416
16.70084285736084,9.648762,-4.099033,-0.8698663,-10.3415716293139,nan,nan,nan,nan,6.699063301086426,0.0005431175231933594,3.7478049,-0.6907222,0.050047446,1.5548859508248571,-0.6291484254885954,10.57436637542208,-8.793531,-10.918109,12.656492,0.49385548,-0.4663217,-3.0,2.4491506,-0.5932881,0.4921029,0.0,0.033349767,0.008827856,9.815841,-0.012434603,-0.03516746,-0.25503623,-0.010594344,0.7665465536877785,-2.4953420162200928,19.385189056396484,13.238341331481934
16.800869941711426,9.902382,-4.2098074,-0.7940188,-13.006605072843083,nan,nan,nan,nan,6.799055576324463,0.0004818439483642578,2.9169366,-0.9108051,1.099516,-2.7141839367434697,-1.0964378523039766,10.689559238320191,-0.6998204,-3.5788476,12.31538,0.43411547,-0.41553757,-3.0,2.4257712,-0.6014297,0.52306473,0.0,0.029720124,0.007760914,9.8146305,-0.011727506,-0.037388667,-0.21337378,-0.010743025,0.770764788631153,21.504070281982422,21.369476318359375,16.414648056030273
16.901962757110596,10.065285,-4.321119,-0.6026239,-14.240541776478784,nan,nan,nan,nan,6.900285005569458,0.0007302761077880859,2.123168,-0.94832915,2.4000576,-1.984487823611686,-0.2742736249836437,11.07285311973651,-2.563528,7.523081,12.09458,0.37286097,-0.36115795,-3.0,2.40612,-0.60859746,0.5506722,0.0,0.02583264,0.0066665905,9.813493,-0.010694425,-0.03937055,-0.1755233,-0.010874351,0.7846393906019107,17.28768539428711,15.46342945098877,16.901411056518555
17.001445293426514,10.143565,-4.3962483,-0.28084654,-15.684846830459122,nan,nan,nan,nan,6.9997546672821045,0.0006356239318847656,1.5770094,-0.5538109,3.7835839,-2.6571925362856,0.020997838542210934,11.70411235130389,-10.909879,11.012934,11.925947,0.31201786,-0.30519286,-3.0,2.3903663,-0.6145749,0.57394516,0.0,0.021830996,0.0055792993,9.812491,-0.0093946885,-0.04104229,-0.141728,-0.010984198,0.8069764934022743,20.34079360961914,13.032014846801758,18.101924896240234
17.101128339767456,10.210229,-4.4255166,0.24623519,-16.88351622655177,nan,nan,nan,nan,7.099289894104004,0.0004525184631347656,1.6335391,-0.76634187,5.5688443,2.453515509043202,-1.0036892928245627,12.584761665230584,-18.967255,7.077055,11.564532,0.25059256,-0.24707085,-3.0,2.37783,-0.6194884,0.5932463,0.0,0.017674394,0.004481317,9.811631,-0.007845605,-0.04242947,-0.11055663,-0.011074728,0.837154881009594,-6.478601932525635,19.364505767822266,20.14289093017578
17.20301914215088,10.260427,-4.469245,0.87533575,-20.81964781399122,nan,nan,nan,nan,7.201271057128906,0.0004940032958984375,1.8132199,0.99468637,6.3061476,-1.9797585954967447,-1.2127961118682928,13.5883678797539,-25.821018,15.390694,-25.308588,0.18720713,-0.18574342,-3.0,2.3680925,-0.62340593,0.6087449,0.0,0.013287892,0.0033480402,9.810922,-0.006043145,-0.043543853,-0.08070645,-0.011147063,0.8702863506161846,15.30382251739502,21.048484802246094,24.357038497924805
17.300808429718018,10.6329975,-4.407086,0.9576563,-17.437652178113087,nan,nan,nan,nan,7.2989935874938965,0.0003952980041503906,4.736748,0.019114612,-1.0317737,-0.1993067145129801,0.05067193079358767,13.048943364983392,-1.296119,21.04953,-6.4170933,0.12614627,-0.1256994,-3.0,2.361543,-0.62609273,0.61943114,0.0,0.0089926915,0.0022561313,9.810422,-0.004157271,-0.04431249,-0.053532027,-0.011196759,0.8526368234540835,6.311629295349121,18.09323501586914,19.858089447021484
17.401132822036743,11.029926,-4.369703,0.90392417,-20.04026166792616,nan,nan,nan,nan,7.399456977844238,0.0005898475646972656,4.3424234,-0.59746236,-0.52369267,-1.7129896651382608,1.1106998018409358,12.54459454811175,10.353505,15.138032,-6.0311522,0.06315401,-0.06309801,-3.0,2.3575268,-0.6277614,0.626091,0.0,0.0045142015,0.0011295477,9.810106,-0.0021080151,-0.044791624,-0.026540078,-0.011227655,0.8358018571908045,14.832818031311035,11.5866117477417,21.54581642150879
17.501235485076904,11.347634,-4.4341393,0.9129939,-21.64485515709506,nan,nan,nan,nan,7.49947714805603,0.0005784034729003906,3.204399,-0.66192794,0.55591863,-1.2332499056615644,0.3262912201172641,12.335656681423975,16.994957,11.226633,-5.6200585,0.0003278136,-0.0003278136,-3.0,2.3561945,-0.62831855,0.6283185,0.0,2.3452827e-05,5.8632068e-06,9.81,-1.09885705e-05,-0.044951897,-0.00013731427,-0.011237975,0.8287286085302097,12.871247291564941,15.036689758300781,23.866317749023438
17.601099014282227,11.561892,-4.50933,0.9890065,-22.862944459324787,nan,nan,nan,nan,7.599407434463501,0.0005950927734375,3.2239947,-0.5920318,1.0403502,-0.007300745195945257,0.9396781492526749,12.334625531798196,19.766092,11.525165,-5.4225645,-0.062441792,0.062387668,-3.0,2.3574967,-0.6277739,0.62614095,0.0,-0.004463382,-0.0011168096,9.810104,0.0020844403,-0.04479522,0.026238857,-0.011227886,0.8286935527246122,6.3575029373168945,12.140536308288574,24.5372257232666
17.70204257965088,11.763399,-4.6112666,1.1085838,-26.91982145840737,nan,nan,nan,nan,7.700423240661621,0.0005660057067871094,2.9790542,-1.1682367,1.859729,-2.301998325536771,1.168481937349541,12.500805300241302,18.464874,8.838039,-5.144283,-0.12578233,0.12533931,-3.0,2.3615117,-0.6261056,0.61948234,0.0,-0.008966933,-0.002249623,9.810419,0.004145685,-0.04431617,0.05337357,-0.011196995,0.8343243520897032,19.16176986694336,10.147860527038574,28.438810348510742
