time,x,y,z,yaw,platform,trajectory,controller,feedforward,traj_time,comp_time,vx,vy,vz,roll,pitch,f,p,q,r,x_ref,y_ref,z_ref,yaw_ref,vx_ref,vy_ref,vz_ref,roll_ref,pitch_ref,f_ref,u_ff_df,u_ff_dphi,u_ff_dpsi,u_ff_dth,throttle,p_cmd,q_cmd,r_cmd
10.00178575515747,-0.013904176,0.018917067,-2.6323254,0.008989963887331972,SIM,figure_eight,contraction,0.0,9.5367431640625e-07,0.0001628398895263672,-0.0005928996,-0.034160264,-0.19580023,-0.006579599002228422,-0.002377209395072688,9.810692018270492,0.009831962,-0.0037559862,-0.015657023,1.1984225e-06,1.1984225e-06,-3.0,0.0,1.2566371,1.2566371,0.0,-1.9291265e-07,4.8228163e-08,9.81,0.0,0.0,0.0,0.0,0.7379802677972355,1.8849669694900513,-1.831726312637329,-0.017565403133630753
10.106058597564697,-0.015450212,0.014624777,-2.646178,0.007608639437665914,nan,nan,nan,nan,0.10486960411071777,0.0003325939178466797,0.0003704605,-0.031219533,-0.19901861,0.0016438313399209756,-0.012993322918654293,9.818553574569522,0.38359144,-0.49657378,-0.0042493246,0.1316877,0.13140193,-3.0,0.0,1.2539101,1.245741,0.0,-0.021148896,0.0052982783,9.812332,0.0,0.0,0.0,0.0,0.7382798955625592,2.1118650436401367,-2.1752185821533203,0.0009021833539009094
10.200791120529175,-0.01596561,0.010764906,-2.6649241,0.005169801635223896,nan,nan,nan,nan,0.19902658462524414,0.00018715858459472656,0.036926776,0.003208233,-0.23611028,0.07001824904773055,-0.09340650119760419,9.724438615925608,1.4349891,-1.8094453,0.018929198,0.24945284,0.2475049,-3.0,0.0,1.2468243,1.2175388,0.0,-0.039820332,0.010030446,9.818277,0.0,0.0,0.0,0.0,0.734684971611203,1.7076513767242432,-1.710620641708374,0.08735468983650208
10.300795555114746,-0.007310556,0.01579529,-2.685533,-0.018035528488986652,nan,nan,nan,nan,0.2990226745605469,0.00012946128845214844,0.2053276,0.15312193,-0.24003434,0.23620276818848018,-0.261506533476237,9.670125221051274,1.5433565,-1.3522887,0.03433119,0.3735562,0.3669824,-3.0,0.0,1.2345229,1.1689589,0.0,-0.05900537,0.015005747,9.828209,0.0,0.0,0.0,0.0,0.7326024347917743,0.4822881817817688,-0.3734475374221802,0.3161952495574951
10.400945663452148,0.031062229,0.048125442,-2.7047765,-0.029346475348222045,nan,nan,nan,nan,0.399169921875,0.00014257431030273438,0.5118224,0.46089956,-0.16993211,0.3348100880231135,-0.3222373891460939,9.778597868122157,0.19630471,0.16011709,0.08839011,0.49636936,0.4808393,-3.0,0.0,1.2173203,1.1018304,0.0,-0.07724772,0.01991321,9.841293,0.0,0.0,0.0,0.0,0.7367558151308128,-0.8664366006851196,0.7273037433624268,0.2660180330276489
10.500818729400635,0.10224146,0.113095276,-2.7148845,0.001175013567454447,nan,nan,nan,nan,0.499051570892334,0.00016164779663085938,0.7929669,0.7706771,-0.104492374,0.28179385110857136,-0.2702163990904196,9.878223232664164,-1.0425314,0.94994247,0.14233707,0.6169004,0.5868206,-3.0,0.0,1.1953641,1.0175203,0.0,-0.094182305,0.024710888,9.85668,0.0,0.0,0.0,0.0,0.7405501879228992,-1.4166418313980103,0.935206413269043,-0.05467543005943298
10.60117244720459,0.2143617,0.21687421,-2.7204473,0.02915803764177917,nan,nan,nan,nan,0.5995612144470215,0.00016188621520996094,1.0274272,1.0011857,-0.09018708,0.13191463992047403,-0.1776457693057114,9.8950669908151,-1.4629722,0.8432013,0.1375997,0.7357364,0.68414503,-3.0,0.0,1.1685191,0.9165232,0.0,-0.10968629,0.029421842,9.873584,0.0,0.0,0.0,0.0,0.7411898121247706,-1.0900580883026123,0.6000111699104309,-0.19664254784584045
10.701028823852539,0.3416728,0.32640657,-2.725959,0.021968998881850825,nan,nan,nan,nan,0.6992917060852051,0.0001742839813232422,1.1881448,1.0575647,-0.11006155,-0.0015284459853760392,-0.1171936882085487,9.855189815424378,-1.1271926,0.54898566,0.0778661,0.8507532,0.7699456,-3.0,0.0,1.1372772,0.8018721,0.0,-0.123310976,0.03396386,9.890763,0.0,0.0,0.0,0.0,0.7396746344650891,-0.5380495190620422,0.43265771865844727,-0.049331337213516235
10.801024675369263,0.47162825,0.42157036,-2.733483,-0.004874632652006494,nan,nan,nan,nan,0.7992706298828125,0.00014638900756835938,1.3031219,0.99726963,-0.13006376,-0.08160532080080965,-0.08018356247101854,9.807407847307616,-0.6448725,0.45518523,0.028337136,0.96270406,0.8438365,-3.0,0.0,1.1014768,0.674312,0.0,-0.13500787,0.038370747,9.907381,0.0,0.0,0.0,0.0,0.7378550625269703,-0.18644635379314423,0.4459342658519745,0.09817947447299957
10.901511669158936,0.63551986,0.5146226,-2.7449644,-0.048308392956548915,nan,nan,nan,nan,0.8999538421630859,0.00020837783813476562,1.3911185,0.8497842,-0.14770201,-0.12526457979744143,-0.035476255004870616,9.769512106142932,-0.21289204,0.47717884,0.01200736,1.0716046,0.9048024,-3.0,0.0,1.0610332,0.53511596,0.0,-0.144631,0.042648487,9.922528,0.0,0.0,0.0,0.0,0.7364088112736148,0.0008141808211803436,0.43437063694000244,0.23611371219158173
11.001473665237427,0.7885479,0.57831174,-2.7575889,-0.08456507258684914,nan,nan,nan,nan,0.9999020099639893,0.0001838207244873047,1.408109,0.69364184,-0.1600024,-0.13393215305434342,0.010452606744002724,9.738888794742518,-0.007492036,0.42686912,0.04185227,1.175471,0.95101845,-3.0,0.0,1.0166862,0.38846934,0.0,-0.15190811,0.046725728,9.935131,0.0,0.0,0.0,0.0,0.7352380542537471,-0.030722644180059433,0.2979710102081299,0.333387553691864
11.101896286010742,0.9464772,0.62555146,-2.773635,-0.10772929312223206,nan,nan,nan,nan,1.1004068851470947,0.0002999305725097656,1.3577418,0.5344219,-0.17078498,-0.1323407562757061,0.05249642877184302,9.712716679237776,-0.011855806,0.25827613,0.10896861,1.275242,0.98238295,-3.0,0.0,0.96805066,0.23483905,0.0,-0.15683755,0.050646372,9.944654,0.0,0.0,0.0,0.0,0.7342360108756492,-0.1335056722164154,0.11257067322731018,0.40555262565612793
11.202240228652954,1.0674576,0.65089035,-2.7884748,-0.11119818200531696,nan,nan,nan,nan,1.2007629871368408,0.00028514862060546875,1.2750844,0.41030315,-0.17658778,-0.13506173716339082,0.07340436170853559,9.695053235702211,-0.102433234,0.08481994,0.18532251,1.369793,0.99808645,-3.0,0.0,0.91563654,0.07770235,0.0,-0.15930273,0.054373004,9.950512,0.0,0.0,0.0,0.0,0.7335589730642857,-0.22939875721931458,-0.019511371850967407,0.42965784668922424
11.301227569580078,1.1921586,0.6673516,-2.8067107,-0.09667949196304745,nan,nan,nan,nan,1.2995731830596924,0.00020456314086914062,1.154748,0.26586378,-0.17979476,-0.14738052021421155,0.08121087933548732,9.680981706939631,-0.18986292,-0.052251067,0.26734567,1.4575701,0.9980603,-3.0,0.0,0.86047286,-0.07823234,0.0,-0.15929863,0.057849757,9.952449,0.0,0.0,0.0,0.0,0.7330191714501151,-0.20531058311462402,-0.09753493964672089,0.38462549448013306
11.402048349380493,1.2893492,0.66864544,-2.8235118,-0.07080281238491917,nan,nan,nan,nan,1.400627851486206,0.0003192424774169922,1.0396088,0.12156743,-0.17939499,-0.16191581102578903,0.07872721925054127,9.66798887331038,-0.18355708,-0.12040997,0.32125556,1.5415293,0.9821391,-3.0,0.0,0.80062854,-0.23644422,0.0,-0.15679926,0.06119826,9.95047,0.0,0.0,0.0,0.0,0.7325204014867056,-0.14172722399234772,-0.12224206328392029,0.29490476846694946
11.501093864440918,1.3715578,0.6568491,-2.840163,-0.03914530185068363,nan,nan,nan,nan,1.4995450973510742,0.0002923011779785156,0.9325193,-0.03477184,-0.1762032,-0.17377778806695396,0.07268382109147109,9.655008602626618,-0.13058653,-0.13528559,0.3422049,1.617698,0.95123297,-3.0,0.0,0.7389233,-0.38763905,0.0,-0.15194185,0.06426244,9.944866,0.0,0.0,0.0,0.0,0.7320217790151597,-0.050395846366882324,-0.11162661761045456,0.17612706124782562
11.6021728515625,1.4409181,0.62950444,-2.856475,-0.007648754484732304,nan,nan,nan,nan,1.6004688739776611,0.00024271011352539062,0.83627295,-0.20090726,-0.17136586,-0.1794310180048106,0.066802614969524,9.641932130493217,-0.04243707,-0.11781712,0.32579008,1.6889715,0.904576,-3.0,0.0,0.6730272,-0.53571993,0.0,-0.14459531,0.067158885,9.935853,0.0,0.0,0.0,0.0,0.7315191220461909,0.033486928790807724,-0.08594110608100891,0.05402040854096413
11.701138734817505,1.5004803,0.58586735,-2.8722632,0.01931193082955826,nan,nan,nan,nan,1.6995484828948975,0.00040078163146972656,0.750955,-0.3692683,-0.16593552,-0.17822505157172477,0.06232936645984122,9.627604318596417,0.011809702,-0.094008364,0.2755203,1.75234,0.84463173,-3.0,0.0,0.60570186,-0.67273784,0.0,-0.13513356,0.06976318,9.924398,0.0,0.0,0.0,0.0,0.7309679723280967,0.10977703332901001,-0.055664319545030594,-0.05423404276371002
11.80134892463684,1.5526061,0.52642083,-2.887447,0.03920148230823843,nan,nan,nan,nan,1.7997124195098877,0.00019407272338867188,0.6744155,-0.5340698,-0.16077664,-0.17196662137949376,0.05974597660276215,9.604435866810373,0.10099577,-0.056586448,0.20133524,1.8095002,0.7707434,-3.0,0.0,0.53525543,-0.80066085,0.0,-0.12343745,0.072140306,9.910993,0.0,0.0,0.0,0.0,0.7300758801421514,0.17711181938648224,-0.02732372283935547,-0.13730394840240479
11.902043104171753,1.6024951,0.4447057,-2.9038162,0.050978665760795135,nan,nan,nan,nan,1.9005975723266602,0.0002944469451904297,0.598076,-0.70035774,-0.1563036,-0.156122637818295,0.058556682558157824,9.575673819817593,0.18236984,-0.024101425,0.10650903,1.8598293,0.6839994,-3.0,0.0,0.4621602,-0.9166948,0.0,-0.10966312,0.07425878,9.896559,0.0,0.0,0.0,0.0,0.7289669104110938,0.23262988030910492,-0.006414420902729034,-0.18951937556266785
12.001168251037598,1.6437056,0.3556469,-2.9186523,0.050349435050107326,nan,nan,nan,nan,1.9994909763336182,0.0002288818359375,0.5291218,-0.8333823,-0.15212989,-0.13531709708291367,0.058224173070616336,9.551894543506197,0.24055761,-0.009406558,0.01910471,1.9019153,0.5883026,-3.0,0.0,0.38870442,-1.0161681,0.0,-0.09441876,0.07605097,9.882456,0.0,0.0,0.0,0.0,0.7280488015946567,0.24123147130012512,0.01058933138847351,-0.19054140150547028
12.101787090301514,1.6832776,0.24691328,-2.934281,0.03932234357010039,nan,nan,nan,nan,2.100337266921997,0.00023746490478515625,0.4546012,-0.9504945,-0.14827286,-0.10948164396489041,0.058589886078903586,9.523238285519174,0.2631185,0.007395954,-0.060254425,1.9372717,0.48138225,-3.0,0.0,0.31225502,-1.1014559,0.0,-0.07733459,0.07757271,9.869087,0.0,0.0,0.0,0.0,0.7269408746167265,0.24326756596565247,0.019330263137817383,-0.15001891553401947
12.202789306640625,1.7154063,0.13841395,-2.9480937,0.023184940746534807,nan,nan,nan,nan,2.20111346244812,0.0001747608184814453,0.38614458,-1.0311764,-0.14397423,-0.08425652954483676,0.05940453745643226,9.496409658230831,0.27319,0.022427207,-0.106986366,1.9648362,0.36682323,-3.0,0.0,0.23460668,-1.1690377,0.0,-0.058979835,0.07877017,9.857655,0.0,0.0,0.0,0.0,0.7259020968510111,0.22003008425235748,0.03736110031604767,-0.08918484300374985
12.301790714263916,1.7455952,0.015933411,-2.9619102,0.004442193678977552,nan,nan,nan,nan,2.3003721237182617,0.000362396240234375,0.31308767,-1.0886953,-0.13776241,-0.05752501960072813,0.06200735324994544,9.471626891978076,0.26638532,0.034604467,-0.12679377,1.984288,0.24823679,-3.0,0.0,0.1572068,-1.2173036,0.0,-0.039937958,0.079621404,9.849032,0.0,0.0,0.0,0.0,0.7249412282397517,0.2000003308057785,0.04462628811597824,-0.01875118538737297
12.401122093200684,1.7710491,-0.10806583,-2.9744604,-0.012026726529607273,nan,nan,nan,nan,2.399416446685791,0.00020360946655273438,0.24102,-1.1158092,-0.1293789,-0.03154434119461014,0.06551378813403264,9.452613200582556,0.24855468,0.05280128,-0.1151755,1.9960073,0.12606075,-3.0,0.0,0.079364754,-1.2466123,0.0,-0.020289484,0.08013687,9.843611,0.0,0.0,0.0,0.0,0.7242031836636843,0.167385071516037,0.05497155338525772,0.04313923418521881
12.502899169921875,1.7904625,-0.22081342,-2.9849715,-0.02280834793329685,nan,nan,nan,nan,2.501307487487793,0.0002703666687011719,0.17487502,-1.1160711,-0.11976549,-0.010007795068199127,0.07083175258801888,9.44073473338037,0.21661459,0.06689691,-0.08679413,1.9999993,-0.0016430292,-3.0,0.0,-0.001032346,-1.2566354,0.0,0.00026448193,0.080312915,9.841724,0.0,0.0,0.0,0.0,0.7237417266139489,0.1284271776676178,0.06935931742191315,0.08296070992946625
12.611965894699097,1.8051118,-0.32988045,-2.9942758,-0.028660072902963008,nan,nan,nan,nan,2.610440969467163,0.001279592514038086,0.10610475,-1.094954,-0.10837073,0.008261571276127134,0.07744690817772204,9.43486395250074,0.17712419,0.07486759,-0.046336357,1.9951867,-0.13833916,-3.0,0.0,-0.087130755,-1.2445544,0.0,0.02226507,0.080100715,9.843996,0.0,0.0,0.0,0.0,0.7235135501577719,0.1006491631269455,0.08635640144348145,0.1042713075876236
12.702163457870483,1.8132769,-0.43404716,-3.0023324,-0.030224168589804132,nan,nan,nan,nan,2.7007923126220703,0.0002963542938232422,0.03256579,-1.0572112,-0.095433585,0.023225971605554584,0.08437822755682434,9.436715411623002,0.14025317,0.07945765,-0.0034676618,1.9841044,-0.24965431,-3.0,0.0,-0.15811914,-1.2168458,0.0,0.04016578,0.07961335,9.849115,0.0,0.0,0.0,0.0,0.7235855174771509,0.08612644672393799,0.05956055968999863,0.10611870139837265
12.802975416183472,1.814383,-0.5320628,-3.0092845,-0.028215765743012728,nan,nan,nan,nan,2.8016350269317627,0.00027680397033691406,-0.046057645,-1.0056453,-0.081972554,0.035603644774705075,0.09076296863483413,9.443329046391876,0.11946867,0.059911687,0.029866084,1.9641885,-0.3700342,-3.0,0.0,-0.23673831,-1.1674386,0.0,0.0594949,0.07874191,9.857933,0.0,0.0,0.0,0.0,0.7238425357673638,0.08995087444782257,0.043040141463279724,0.09370426833629608
12.903705358505249,1.8064626,-0.62973994,-3.0154,-0.023447561750438946,nan,nan,nan,nan,2.9023241996765137,0.000278472900390625,-0.13645567,-0.93648285,-0.06662888,0.0481924910975473,0.0956854854316942,9.456768391826184,0.11576285,0.04146352,0.05617425,1.936438,-0.484311,-3.0,0.0,-0.31429005,-1.0994266,0.0,0.07780321,0.07753664,9.869419,0.0,0.0,0.0,0.0,0.724364536899299,0.09704185277223587,0.009162329137325287,0.06947462260723114
13.002089023590088,1.7897552,-0.71151775,-3.0195029,-0.017996932766405096,nan,nan,nan,nan,3.000533103942871,0.0002448558807373047,-0.2232882,-0.8612887,-0.0524432,0.059622389225145886,0.09700661792833287,9.475176759161979,0.110481724,-0.0023895632,0.06798835,1.9019059,-0.5883272,-3.0,0.0,-0.38872263,-1.0161456,0.0,0.09442268,0.07605056,9.88246,0.0,0.0,0.0,0.0,0.7250789394995245,0.11022819578647614,-0.005829036235809326,0.04512803256511688
13.101246118545532,1.7666016,-0.7788239,-3.0225618,-0.013074472528864945,nan,nan,nan,nan,3.0996692180633545,0.00020813941955566406,-0.30242476,-0.7833856,-0.04013007,0.07045086672025486,0.09611075128655311,9.497476144679814,0.12176338,-0.009139536,0.06921145,1.8597059,-0.68424404,-3.0,0.0,-0.46235612,-0.9164065,0.0,0.10970203,0.07425355,9.896598,0.0,0.0,0.0,0.0,0.7259434181297175,0.1327885389328003,0.00381411612033844,0.024983342736959457
13.201091289520264,1.7303553,-0.8482316,-3.02548,-0.007601676212787685,nan,nan,nan,nan,3.199406385421753,0.00023055076599121094,-0.3941812,-0.68020344,-0.026291592,0.08422122606074986,0.09457169070369198,9.524024740555316,0.12921804,-0.0065452834,0.0619077,1.8099716,-0.7700375,-3.0,0.0,-0.5346259,-0.8017328,0.0,0.12332553,0.07216003,9.910869,0.0,0.0,0.0,0.0,0.7269713032839331,0.12928976118564606,-0.015886172652244568,0.002681039273738861
13.302062511444092,1.6847855,-0.9061211,-3.0275028,-0.0030515182644183098,nan,nan,nan,nan,3.3006465435028076,0.0002682209014892578,-0.48322943,-0.56455797,-0.014240974,0.09871539451306932,0.09272514228297157,9.55005067537072,0.13674757,-0.01244432,0.046780422,1.7522217,-0.84476316,-3.0,0.0,-0.605837,-0.6724772,0.0,0.13515435,0.06975828,9.924423,0.0,0.0,0.0,0.0,0.7279775628292944,0.11351914703845978,-0.034332118928432465,-0.015302255749702454
13.40392017364502,1.6391753,-0.94506115,-3.0283303,-0.0003637188203533606,nan,nan,nan,nan,3.402533531188965,0.0003101825714111328,-0.5564284,-0.45698708,-0.005052634,0.10990124264382495,0.0894801090155215,9.577790085473088,0.11371425,-0.04003458,0.03175487,1.6869478,-0.906178,-3.0,0.0,-0.67502797,-0.5314274,0.0,0.14484783,0.06707619,9.936163,0.0,0.0,0.0,0.0,0.7290485633541446,0.12808944284915924,-0.012194111943244934,-0.023504607379436493
13.503973245620728,1.5818769,-0.9756571,-3.028288,0.0011543308708326858,nan,nan,nan,nan,3.5027668476104736,0.0003077983856201172,-0.632448,-0.33033425,0.0040512476,0.12093853422457154,0.08594816744811107,9.601240707435638,0.106906466,-0.03385567,0.01566665,1.6159878,-0.9521252,-3.0,0.0,-0.74039906,-0.38416442,0.0,0.15208219,0.064193316,9.945036,0.0,0.0,0.0,0.0,0.7299527673889381,0.11712636053562164,-0.008862152695655823,-0.026556387543678284
13.601929187774658,1.5112176,-0.99393034,-3.027578,0.001097753126696313,nan,nan,nan,nan,3.6005256175994873,0.0002837181091308594,-0.7110198,-0.1831458,0.012128561,0.13132196727734285,0.0824604040467698,9.6289584354544,0.09094151,-0.027884817,-0.00059967773,1.5406052,-0.98241085,-3.0,0.0,-0.80133057,-0.23465453,0.0,0.15684192,0.061161246,9.950515,0.0,0.0,0.0,0.0,0.73102007884969,0.07011735439300537,-0.02983919531106949,-0.02425285615026951
13.701975584030151,1.4379892,-0.9969437,-3.0266225,0.00012898469632474652,nan,nan,nan,nan,3.700408458709717,0.0001971721649169922,-0.78083295,-0.04011251,0.018039595,0.13871578825166234,0.0792886504491368,9.652592055448327,0.056973673,-0.043665934,-0.010876256,1.4575857,-0.99805886,-3.0,0.0,-0.8604625,-0.078260824,0.0,0.1592984,0.057850372,9.952449,0.0,0.0,0.0,0.0,0.7319289130776657,0.043474823236465454,-0.03539995104074478,-0.01853577233850956
13.801629781723022,1.3645521,-0.98801696,-3.0258262,-0.0012896406011588812,nan,nan,nan,nan,3.7999401092529297,0.0002205371856689453,-0.8415871,0.09371359,0.022320036,0.14219438060663978,0.07526382513388175,9.67479125136975,0.024611719,-0.053538308,-0.016630447,1.3691491,-0.99803144,-3.0,0.0,-0.91601664,0.07881045,0.0,0.1592941,0.054347564,9.950484,0.0,0.0,0.0,0.0,0.7327815735057611,0.04665180668234825,-0.01988794654607773,-0.009734979830682278
13.90107798576355,1.2709562,-0.96331143,-3.0243938,-0.002664427282986395,nan,nan,nan,nan,3.899442434310913,0.0002772808074951172,-0.90871257,0.25192818,0.024823261,0.1443607038945634,0.07113977872429511,9.688434750461017,0.023699842,-0.0361007,-0.019736355,1.2753875,-0.98241824,-3.0,0.0,-0.96797496,0.23460571,0.0,0.15684308,0.050652098,9.944666,0.0,0.0,0.0,0.0,0.7333051284413435,0.003971382975578308,-0.04070179909467697,-0.004263333976268768
14.001824617385864,1.1779841,-0.9269008,-3.022387,-0.003539975416779584,nan,nan,nan,nan,4.0001726150512695,0.0002143383026123047,-0.96735686,0.3974085,0.025958171,0.14458051241163325,0.06695359073528695,9.696995350443757,-0.015178172,-0.05599799,-0.017800089,1.1753949,-0.9509894,-3.0,0.0,-1.0167209,0.3885817,0.0,0.15190354,0.04672274,9.9351225,0.0,0.0,0.0,0.0,0.7336334442660162,-0.02064340002834797,-0.04578246921300888,6.403587758541107e-05
14.10122275352478,1.0703751,-0.8729535,-3.0203187,-0.004609805284731552,nan,nan,nan,nan,4.0995237827301025,0.00018143653869628906,-1.0259109,0.5513301,0.025526686,0.1418389807547814,0.06171519213998766,9.701515148873437,-0.049337637,-0.06749746,-0.016056918,1.072159,-0.9050818,-3.0,0.0,-1.0608121,0.5343692,0.0,0.14467505,0.042670254,9.922602,0.0,0.0,0.0,0.0,0.7338067289584328,-0.07054309546947479,-0.06763455271720886,0.003897828981280327
14.204967975616455,0.9655984,-0.8102981,-3.0182953,-0.005718974432439447,nan,nan,nan,nan,4.203384160995483,0.0002224445343017578,-1.073965,0.6867611,0.023870347,0.134765811928102,0.05486981408616409,9.703069300618953,-0.08580654,-0.07279213,-0.011226438,0.95977813,-0.8420413,-3.0,0.0,-1.1024843,0.6778464,0.0,0.13472413,0.038255714,9.906956,0.0,0.0,0.0,0.0,0.733866304303917,-0.07188771665096283,-0.05083359777927399,0.01235358789563179
14.313810348510742,0.8746086,-0.7492571,-3.0166566,-0.006223146119488744,nan,nan,nan,nan,4.312501907348633,0.001051187515258789,-1.1095954,0.7924777,0.021080855,0.12808135792660882,0.0502253690713681,9.701428146776742,-0.09100534,-0.06259713,-0.0071033165,0.83731705,-0.7604042,-3.0,0.0,-1.1412071,0.81612307,0.0,0.12179802,0.03343409,9.888743,0.0,0.0,0.0,0.0,0.733803393763412,-0.02627492882311344,-0.0015452578663825989,0.019689220935106277
14.404648542404175,0.78061664,-0.68123984,-3.0151033,-0.006038437535122669,nan,nan,nan,nan,4.4033215045928955,0.00039267539978027344,-1.1419756,0.8906717,0.017056376,0.12155703875620935,0.04710468069684781,9.69169222798664,-0.061156906,-0.013098901,-0.004009612,0.732367,-0.6814987,-3.0,0.0,-1.1693544,0.9196313,0.0,0.10926538,0.029288532,9.873088,0.0,0.0,0.0,0.0,0.7334300761920791,-0.03574074059724808,0.0013909712433815002,0.018721338361501694
14.50682806968689,0.66440225,-0.5912783,-3.0136392,-0.004674535831072794,nan,nan,nan,nan,4.50552225112915,0.0003108978271484375,-1.1794122,1.0003842,0.012013869,0.11585028971829395,0.045931942881437315,9.67653677355964,-0.07778888,-0.02902703,0.0016744841,0.6114301,-0.5821567,-3.0,0.0,-1.1964731,1.0217422,0.0,0.09343814,0.024493571,9.855937,0.0,0.0,0.0,0.0,0.7328485766694467,-0.09499574452638626,-0.03250984847545624,0.007680755108594894
14.60756540298462,0.52492803,-0.4753346,-3.0119581,-0.002783971677483066,nan,nan,nan,nan,4.605982542037964,0.0003809928894042969,-1.218976,1.1159906,0.007210624,0.10354931427050007,0.04082894516806368,9.658682312783785,-0.14005254,-0.058574893,0.0055760588,0.4900942,-0.4751518,-3.0,0.0,-1.2183237,1.1057198,0.0,0.076337576,0.019662907,9.840556,0.0,0.0,0.0,0.0,0.7321629344403484,-0.18460476398468018,-0.08585705608129501,-0.004375407472252846
14.702138423919678,0.41254097,-0.37647727,-3.01081,-0.001313407367600529,nan,nan,nan,nan,4.700481653213501,0.0003180503845214844,-1.2451686,1.1935639,0.0033653178,0.08912707866461939,0.034979465431097756,9.642397900936192,-0.1910065,-0.08406853,0.004561093,0.37416822,-0.36756185,-3.0,0.0,-1.2344497,1.1686714,0.0,0.059098322,0.015030245,9.828267,0.0,0.0,0.0,0.0,0.7315370320207871,-0.2113797962665558,-0.0898994728922844,-0.009350191801786423
14.801746368408203,0.28776357,-0.26272723,-3.009897,7.325859998087714e-05,nan,nan,nan,nan,4.800122022628784,0.0002391338348388672,-1.2672653,1.2599033,-0.0013517005,0.06875985935649409,0.027010824624753793,9.626737974849526,-0.23055103,-0.091043375,0.001427568,0.25051406,-0.2485411,-3.0,0.0,-1.2467402,1.2172055,0.0,0.039986864,0.010073047,9.818347,0.0,0.0,0.0,0.0,0.7309346334314187,-0.22245118021965027,-0.08806759119033813,-0.012503750622272491
14.901244878768921,0.15098518,-0.13519447,-3.0096965,0.001419589267520626,nan,nan,nan,nan,4.899604797363281,0.00019741058349609375,-1.282156,1.3065963,-0.0070621585,0.04391233783963153,0.018154981724854746,9.60429607715923,-0.251911,-0.09832767,-0.0028440377,0.12607633,-0.12582557,-3.0,0.0,-1.2541378,1.2466499,0.0,0.020251641,0.0050726105,9.812139,0.0,0.0,0.0,0.0,0.730070494332564,-0.22531326115131378,-0.09337610006332397,-0.016311494633555412
15.002395153045654,0.023873111,-0.015800346,-3.0105093,0.0025173316588973857,nan,nan,nan,nan,5.001113653182983,0.0004017353057861328,-1.286924,1.3245994,-0.011138045,0.019125418854437175,0.00877628566931632,9.583520551142277,-0.2560235,-0.0951602,-0.0060547483,-0.0014001686,0.0014001683,-3.0,0.0,-1.2566367,1.2566359,0.0,-0.00022538808,-5.634704e-05,9.81,0.0,0.0,0.0,0.0,0.7292696195215744,-0.20108337700366974,-0.06929604709148407,-0.016332674771547318
15.106414556503296,-0.10286607,0.10227036,-3.0123706,0.0035820142148804517,nan,nan,nan,nan,5.105736017227173,0.0006129741668701172,-1.2827275,1.3177052,-0.0140708955,-0.004606981265792818,0.0006714308174180506,9.567651625839057,-0.23299383,-0.075881235,-0.009619761,-0.13277408,0.13248117,-3.0,0.0,-1.2538649,1.2455605,0.0,-0.021322545,-0.0053419666,9.812371,0.0,0.0,0.0,0.0,0.7286573041039168,-0.17457665503025055,-0.042772941291332245,-0.018336091190576553
15.201689720153809,-0.23847823,0.22649504,-3.015237,0.0044513346337748515,nan,nan,nan,nan,5.200050115585327,0.00021314620971679688,-1.2692808,1.2854408,-0.015614872,-0.027389535219377266,-0.006247056860477551,9.55849466342944,-0.20339167,-0.057491943,-0.013515256,-0.25072965,0.24875158,-3.0,0.0,-1.2467232,1.2171376,0.0,-0.040020693,-0.010081701,9.81836,0.0,0.0,0.0,0.0,0.7283037441820672,-0.1569339781999588,-0.043877243995666504,-0.020823046565055847
15.302915334701538,-0.36165237,0.33585146,-3.0186608,0.004839924199819726,nan,nan,nan,nan,5.301612138748169,0.0004119873046875,-1.251183,1.23614,-0.015758537,-0.045686510731699215,-0.010702201357799979,9.55266553136054,-0.17747591,-0.038788274,-0.015463423,-0.3767525,0.37000746,-3.0,0.0,-1.2341394,1.1674521,0.0,-0.059490614,-0.015133685,9.828511,0.0,0.0,0.0,0.0,0.7280785870564552,-0.15027427673339844,-0.03513046354055405,-0.023468615487217903
15.402925491333008,-0.48227343,0.43808118,-3.0225258,0.004704448052522698,nan,nan,nan,nan,5.401607036590576,0.0003635883331298828,-1.2287589,1.1701773,-0.014901381,-0.06250936073304746,-0.01376167798429151,9.550837077731261,-0.16872488,-0.027560152,-0.01833334,-0.49933586,0.48352265,-3.0,0.0,-1.2168413,1.0999745,0.0,-0.07767707,-0.02003152,9.841644,0.0,0.0,0.0,0.0,0.7280079467178425,-0.14780962467193604,-0.03598404303193092,-0.024783680215477943
15.502345085144043,-0.6095224,0.5400959,-3.026727,0.0038723979402567124,nan,nan,nan,nan,5.500723123550415,0.0002224445343017578,-1.200749,1.081863,-0.012253036,-0.07998580484121795,-0.016885620663171563,9.554556913385161,-0.16190737,-0.03298673,-0.021270815,-0.6188983,0.5885202,-3.0,0.0,-1.1949563,1.015969,0.0,-0.09445347,-0.024790246,9.856953,0.0,0.0,0.0,0.0,0.7281516514527125,-0.13519629836082458,-0.047651343047618866,-0.02206147275865078
15.603920936584473,-0.72322804,0.624876,-3.0306342,0.00263576059443784,nan,nan,nan,nan,5.602581977844238,0.00033092498779296875,-1.1708376,0.9856543,-0.008926199,-0.0949022779001088,-0.021051543076481716,9.563353443378576,-0.14485747,-0.044852626,-0.023511292,-0.73926514,0.6869089,-3.0,0.0,-1.1676395,0.9132529,0.0,-0.11012583,-0.02956144,9.874103,0.0,0.0,0.0,0.0,0.7284913678509477,-0.13249771296977997,-0.03811032325029373,-0.01833743415772915
15.703065872192383,-0.814787,0.6876244,-3.0336487,0.001301602709911913,nan,nan,nan,nan,5.701739072799683,0.000354766845703125,-1.1425562,0.8958705,-0.005103414,-0.10636156562112656,-0.02456077561950276,9.574190893480548,-0.13633977,-0.038669687,-0.024212081,-0.8535359,0.7719047,-3.0,0.0,-1.1364539,0.7988922,0.0,-0.123621546,-0.034073554,9.891182,0.0,0.0,0.0,0.0,0.7289096885411854,-0.15416643023490906,-0.017703834921121597,-0.0175916887819767
15.803223133087158,-0.93707323,0.76221126,-3.037109,-0.0010510026807382042,nan,nan,nan,nan,5.801558494567871,0.0003802776336669922,-1.0982141,0.7562887,0.0005183122,-0.12216993664366688,-0.028001063849337315,9.588582347193727,-0.1303291,-0.02509391,-0.021029271,-0.96522313,0.8453757,-3.0,0.0,-1.1006062,0.6712606,0.0,-0.13525116,-0.038469784,9.907746,0.0,0.0,0.0,0.0,0.7294648263893235,-0.11291563510894775,-0.025870855897665024,-0.0077798450365662575
15.906920194625854,-1.0278996,0.8088673,-3.0386643,-0.0031282207267242235,nan,nan,nan,nan,5.905616283416748,0.0003910064697265625,-1.0605681,0.6353311,0.0051125544,-0.1337261736176067,-0.03000288835624021,9.60595173374749,-0.12803738,-0.013934435,-0.019860199,-1.077606,0.90780956,-3.0,0.0,-1.0586311,0.52701175,0.0,-0.14510497,-0.042884074,9.923315,0.0,0.0,0.0,0.0,0.7301342808806797,-0.11969846487045288,-0.01854943484067917,-0.004505608230829239
16.005090475082397,-1.1362658,0.8518558,-3.0390832,-0.0057337396739061686,nan,nan,nan,nan,6.003430604934692,0.00021958351135253906,-1.0098633,0.46843278,0.011949386,-0.14702787100812353,-0.03214443134660372,9.625159764597187,-0.091596685,-0.018578716,-0.01573643,-1.1790553,0.95237976,-3.0,0.0,-1.0150464,0.3831666,0.0,-0.15212221,-0.04686647,9.935522,0.0,0.0,0.0,0.0,0.7308738964212446,-0.042775366455316544,-0.028849169611930847,0.007866524159908295
16.105474948883057,-1.2158045,0.87285,-3.0385437,-0.00745075890022992,nan,nan,nan,nan,6.103897571563721,0.0003631114959716797,-0.96820575,0.33054903,0.017239057,-0.15415470285043395,-0.03412403939307507,9.647624559262761,-0.06329975,-0.018663863,-0.012310464,-1.278618,0.9831932,-3.0,0.0,-0.966291,0.2294217,0.0,-0.1569648,-0.0507792,9.9449215,0.0,0.0,0.0,0.0,0.7317379797347949,-0.039990074932575226,-0.0248614102602005,0.010900178924202919
16.201765537261963,-1.2903831,0.8823641,-3.037357,-0.008659884362587494,nan,nan,nan,nan,6.200237035751343,0.0002129077911376953,-0.92435503,0.18936746,0.021371232,-0.15801022510619508,-0.03618243861038817,9.668632708052167,-0.0253366,-0.018834857,-0.007739863,-1.3693117,0.99804544,-3.0,0.0,-0.9159207,0.07853073,0.0,-0.15929629,-0.054353993,9.950491,0.0,0.0,0.0,0.0,0.7325451249570387,-0.03848670795559883,-0.02273242175579071,0.012837203219532967
16.301596641540527,-1.3726609,0.87837285,-3.0357244,-0.009432809293364985,nan,nan,nan,nan,6.300000190734863,0.0002605915069580078,-0.8703252,0.021884816,0.024704887,-0.15923750930796826,-0.03841955933099639,9.686305230865248,0.0040681367,-0.018349685,4.152608e-05,-1.4579375,0.9980267,-3.0,0.0,-0.8602271,-0.07890536,0.0,-0.15929335,-0.057864357,9.952449,0.0,0.0,0.0,0.0,0.7332234346555845,-0.009440449997782707,-0.024594098329544067,0.015809781849384308
16.40126085281372,-1.443044,0.8600196,-3.0343766,-0.009512039745737527,nan,nan,nan,nan,6.399578094482422,0.0001938343048095703,-0.8187389,-0.13053778,0.025805376,-0.15831495593292141,-0.040326247606998544,9.700810534143814,0.015746862,-0.017968783,0.004099715,-1.5406888,0.9823864,-3.0,0.0,-0.8012671,-0.23481627,0.0,-0.15683809,-0.061164595,9.950511,0.0,0.0,0.0,0.0,0.7337797173687105,-0.002560032531619072,-0.028053775429725647,0.015226151794195175
16.501718282699585,-1.5131412,0.8244103,-3.0334437,-0.008895157683376356,nan,nan,nan,nan,6.500187635421753,0.00021076202392578125,-0.76099026,-0.29231048,0.025669286,-0.15617187546256905,-0.0424894098127353,9.711714765811331,0.029291261,-0.023038145,0.007398164,-1.6181728,0.9509836,-3.0,0.0,-0.73851275,-0.38860428,0.0,-0.15190263,-0.064281635,9.9448185,0.0,0.0,0.0,0.0,0.7341976241241891,0.03182191401720047,-0.031394168734550476,0.013962339609861374
16.606439352035522,-1.5720284,0.7779553,-3.0332375,-0.007673807734899729,nan,nan,nan,nan,6.598955154418945,0.0004494190216064453,-0.7050444,-0.43687776,0.023392325,-0.15340238600611728,-0.044863005688666746,9.714987904382864,0.051319037,-0.02505787,0.010497877,-1.6879522,0.9053852,-3.0,0.0,-0.674036,-0.533557,0.0,-0.14472286,-0.06711723,9.936009,0.0,0.0,0.0,0.0,0.7343230219968656,0.055776260793209076,-0.03274165838956833,0.009947959333658218
16.70139193534851,-1.6295036,0.7144108,-3.0335937,-0.0057043493655007105,nan,nan,nan,nan,6.699773788452148,0.0002894401550292969,-0.6418665,-0.5853081,0.019651314,-0.14691876076721194,-0.04759281834272322,9.71265831237658,0.08492498,-0.024746744,0.0124926455,-1.7524767,0.84447986,-3.0,0.0,-0.6055457,-0.6730389,0.0,-0.13510954,-0.06976883,9.92437,0.0,0.0,0.0,0.0,0.7342337746946385,0.08971536159515381,-0.030775010585784912,0.004051852971315384
16.801198720932007,-1.6771319,0.64438194,-3.0346534,-0.0037193205831311665,nan,nan,nan,nan,6.799589157104492,0.00026798248291015625,-0.5814572,-0.7118846,0.014822775,-0.13764970355371103,-0.050097158612525616,9.704982874020928,0.09810534,-0.028838461,0.010447145,-1.8094342,0.77084225,-3.0,0.0,-0.5353435,-0.80051064,0.0,-0.12345311,-0.07213754,9.91101,0.0,0.0,0.0,0.0,0.7339396508171148,0.09376753866672516,-0.03307358920574188,-0.002283245325088501
16.901204824447632,-1.7216282,0.55773413,-3.0366907,-0.001357461103067767,nan,nan,nan,nan,6.899564266204834,0.00021982192993164062,-0.5126033,-0.83527404,0.009113517,-0.12715700411623726,-0.05320381702897481,9.693996502906082,0.10746948,-0.031106096,0.009352641,-1.8593513,0.68494624,-3.0,0.0,-0.4629189,-0.9155777,0.0,-0.109813705,-0.07423854,9.8967085,0.0,0.0,0.0,0.0,0.7335184490699512,0.1249559074640274,-0.0250839963555336,-0.009310007095336914
17.003069400787354,-1.7546129,0.46893072,-3.0391603,0.000922297607854991,nan,nan,nan,nan,7.00160551071167,0.00023698806762695312,-0.4446223,-0.93566895,0.0034433298,-0.11545879684844124,-0.05577891315693018,9.677725856900208,0.14016697,-0.017128287,0.004048489,-1.9027356,0.58615166,-3.0,0.0,-0.38711628,-1.0181291,0.0,-0.09407557,-0.07608611,9.882162,0.0,0.0,0.0,0.0,0.7328942170547145,0.12979085743427277,-0.019180431962013245,-0.017571307718753815
17.102018117904663,-1.779743,0.37274092,-3.0417933,0.003094886548842969,nan,nan,nan,nan,7.1005518436431885,0.0002849102020263672,-0.3736822,-1.0213714,-0.002459577,-0.10187643183873529,-0.0578373539243322,9.658668596893545,0.14299645,-0.018888498,-1.9299689e-05,-1.9373386,0.48114616,-3.0,0.0,-0.31209108,-1.1016188,0.0,-0.077296816,-0.077575594,9.8690605,0.0,0.0,0.0,0.0,0.7321624074829108,0.13781067728996277,-0.01024562120437622,-0.025633834302425385
17.203850269317627,-1.7965591,0.27105865,-3.044299,0.005105650114255567,nan,nan,nan,nan,7.203181266784668,0.0005490779876708984,-0.3001158,-1.0912141,-0.007326647,-0.08760892991898617,-0.0593244133869677,9.643423021584745,0.151372,-0.008176147,-0.006612985,-1.9653196,0.36440468,-3.0,0.0,-0.23300251,-1.1702316,0.0,-0.058591858,-0.07879126,9.857446,0.0,0.0,0.0,0.0,0.7315764488094353,0.14561054110527039,-0.0025292783975601196,-0.03318823501467705
17.3134708404541,-1.8051193,0.1747497,-3.0465224,0.006641157084136026,nan,nan,nan,nan,7.3122265338897705,0.00031375885009765625,-0.23167495,-1.1401734,-0.011904656,-0.07414920181456276,-0.06030935527250447,9.623532899618144,0.16016805,0.001995,-0.012961404,-1.9860965,0.23377925,-3.0,0.0,-0.14791611,-1.2218152,0.0,-0.037614197,-0.079700835,9.8482065,0.0,0.0,0.0,0.0,0.7308112817342978,0.1373298168182373,-0.013106487691402435,-0.038592807948589325
17.41834568977356,-1.8080987,0.05804322,-3.0496078,0.007792072727754049,nan,nan,nan,nan,7.417870998382568,0.0008294582366943359,-0.15147635,-1.1801288,-0.01616851,-0.05703747853419952,-0.060902718198949435,9.604570746123786,0.16126245,-0.005897571,-0.02152844,-1.9973377,0.10302254,-3.0,0.0,-0.06481725,-1.2499505,0.0,-0.016582238,-0.08019552,9.842984,0.0,0.0,0.0,0.0,0.7300810767293073,0.16145159304141998,-0.006574913859367371,-0.04121723026037216
17.502601146697998,-1.805504,-0.032702275,-3.0522146,0.008031880634467001,nan,nan,nan,nan,7.502489805221558,0.000614166259765625,-0.09106012,-1.1974946,-0.01868009,-0.04379163211422894,-0.06204034118401269,9.591556261777875,0.16327815,-0.013163494,-0.02679712,-1.9999975,-0.0031290243,-3.0,0.0,0.0019660264,-1.2566309,0.0,0.0005036857,-0.08031284,9.841725,0.0,0.0,0.0,0.0,0.7295794906151941,0.18301424384117126,-0.004054546356201172,-0.0386628583073616
17.613823413848877,-1.7964178,-0.1408914,-3.0555465,0.007744899233033453,nan,nan,nan,nan,7.613008737564087,0.0006389617919921875,-0.01869469,-1.202198,-0.021558505,-0.026043751069036315,-0.06297040750259408,9.576026407927271,0.19590794,-0.0059852987,-0.0306511,-1.9949603,-0.14153387,-3.0,0.0,0.089153,-1.2439871,0.0,0.022779068,-0.08009073,9.844102,0.0,0.0,0.0,0.0,0.7289805151219764,0.1980263590812683,-0.016636580228805542,-0.03410162776708603
17.717706203460693,-1.7825516,-0.2375783,-3.0588183,0.0072144521742456185,nan,nan,nan,nan,7.717158079147339,0.0008442401885986328,0.047123913,-1.1889492,-0.022872578,-0.007440148887582637,-0.06364182110461392,9.566593604981895,0.2119855,-0.009128472,-0.034278557,-1.9814117,-0.2695148,-3.0,0.0,0.1709298,-1.2101368,0.0,0.043357186,-0.079495214,9.850336,0.0,0.0,0.0,0.0,0.728616461456662,0.2037288397550583,-0.035403743386268616,-0.02910471335053444
17.807474374771118,-1.762856,-0.33000842,-3.0622466,0.006629452623253107,nan,nan,nan,nan,7.806833267211914,0.0008227825164794922,0.11258259,-1.1573243,-0.023261687,0.012243316487325216,-0.06501097548190216,9.56137855879962,0.22347061,-0.035000518,-0.03582968,-1.9629474,-0.37609494,-3.0,0.0,0.24076797,-1.1643763,0.0,0.060467005,-0.07868779,9.858466,0.0,0.0,0.0,0.0,0.7284151126689042,0.1974848508834839,-0.027899987995624542,-0.024785198271274567
17.91061019897461,-1.735984,-0.4242074,-3.0653737,0.006237727989907694,nan,nan,nan,nan,7.909541845321655,0.0003371238708496094,0.18440226,-1.1015024,-0.022733204,0.03407322524327176,-0.06710272125266714,9.557639644071456,0.2183065,-0.018655121,-0.034924004,-1.9341495,-0.4922264,-3.0,0.0,0.31980458,-1.0938615,0.0,0.07906954,-0.0774377,9.870326,0.0,0.0,0.0,0.0,0.7282707223447881,0.17842267453670502,-0.022216998040676117,-0.02108851633965969
18.011215686798096,-1.703671,-0.5097374,-3.0679138,0.006151320565369607,nan,nan,nan,nan,8.009785413742065,0.00028014183044433594,0.25653479,-1.0244429,-0.020937793,0.055319132981068726,-0.0696747354888203,9.553617623448368,0.20378184,-0.016273506,-0.03182175,-1.8982772,-0.59768903,-3.0,0.0,0.39566308,-1.0074812,0.0,0.095916055,-0.07589525,9.883752,0.0,0.0,0.0,0.0,0.7281153674331945,0.1480993926525116,-0.007897347211837769,-0.018501274287700653
18.10359811782837,-1.6628469,-0.590609,-3.07015,0.006528833751432352,nan,nan,nan,nan,8.102063655853271,0.0003833770751953125,0.33307183,-0.9188925,-0.016224982,0.07509203938188938,-0.07016306466751043,9.55300758774508,0.1549471,0.014264709,-0.029473472,-1.8585963,-0.686436,-3.0,0.0,0.4641142,-0.91381425,0.0,0.110050626,-0.07420657,9.896944,0.0,0.0,0.0,0.0,0.7280918012861475,0.09081598371267319,0.020998947322368622,-0.020262490957975388
18.201075792312622,-1.6205904,-0.6528803,-3.0712652,0.007429868174959109,nan,nan,nan,nan,8.199445247650146,0.00019311904907226562,0.3994696,-0.8058364,-0.010050414,0.08799331021791572,-0.06794636549720035,9.560742760478742,0.10234547,0.025814151,-0.025540175,-1.8099502,-0.77006954,-3.0,0.0,0.53465444,-0.80168414,0.0,0.12333061,-0.07215913,9.910875,0.0,0.0,0.0,0.0,0.7283905612461747,0.06443624198436737,0.005014592781662941,-0.02746475115418434
18.30136489868164,-1.5744165,-0.70234865,-3.0715988,0.00847330299370324,nan,nan,nan,nan,8.299632549285889,0.00020384788513183594,0.46053213,-0.68306845,-0.003532629,0.09633847167555656,-0.06574355208864913,9.571183216824423,0.06478903,0.011927473,-0.023340246,-1.7528355,-0.84408075,-3.0,0.0,0.6051356,-0.673829,0.0,0.13504648,-0.06978367,9.924295,0.0,0.0,0.0,0.0,0.7287936173236803,0.0585043765604496,-0.023075046017766,-0.03626415506005287
18.40104842185974,-1.5199318,-0.7415638,-3.0707638,0.00932412488129155,nan,nan,nan,nan,8.399367809295654,0.00017952919006347656,0.522585,-0.5437895,0.0032548595,0.10252433086675902,-0.06558231116104385,9.58575055378605,0.04105077,-0.010960539,-0.024714798,-1.6890811,-0.90448874,-3.0,0.0,0.6729186,-0.5359526,0.0,0.14458156,-0.067163356,9.935836,0.0,0.0,0.0,0.0,0.729355625353469,0.04670877754688263,-0.02758275903761387,-0.04111052677035332
18.50145125389099,-1.460911,-0.765253,-3.0689106,0.009669118653686345,nan,nan,nan,nan,8.499937295913696,0.000232696533203125,0.58287376,-0.40039417,0.009906467,0.10688786285598155,-0.06691970646136158,9.601618339597472,0.026185863,-0.013426143,-0.028850177,-1.6180803,-0.9510322,-3.0,0.0,0.7385928,-0.3884162,0.0,0.15191028,-0.06427789,9.944828,0.0,0.0,0.0,0.0,0.7299673190090967,0.039000142365694046,-0.024468351155519485,-0.042039915919303894
18.602109909057617,-1.4076132,-0.77299446,-3.0662937,0.009481451309279895,nan,nan,nan,nan,8.600634574890137,0.00020766258239746094,0.63307995,-0.2770903,0.014426109,0.1099917294243693,-0.0687519517734998,9.620429462670574,0.03489868,-0.03473976,-0.0324672,-1.5405178,-0.9824364,-3.0,0.0,0.80139685,-0.23448537,0.0,0.15684594,-0.061157756,9.950519,0.0,0.0,0.0,0.0,0.7306918221496791,0.06654822081327438,-0.04641350731253624,-0.04125359281897545
18.701231002807617,-1.3403991,-0.7675607,-3.062366,0.00881346971685313,nan,nan,nan,nan,8.699600219726562,0.000171661376953125,0.69310755,-0.1283639,0.019096982,0.11456818000132163,-0.07193136268556599,9.63705393317271,0.039704915,-0.038496543,-0.036541563,-1.4582808,-0.9979951,-3.0,0.0,0.8599974,-0.079534404,0.0,0.15928839,-0.05787799,9.952449,0.0,0.0,0.0,0.0,0.7313315178301276,0.036242444068193436,-0.02214885503053665,-0.035545654594898224
18.801873445510864,-1.273792,-0.7482486,-3.0578163,0.007950994548228243,nan,nan,nan,nan,8.800500631332397,0.000286102294921875,0.7496472,0.011907055,0.023140064,0.11852278401238221,-0.07428650393339509,9.653564260631093,0.027293174,-0.025321076,-0.036769968,-1.3686348,-0.997987,-3.0,0.0,0.91632,0.07969514,0.0,0.15928712,-0.05432725,9.950462,0.0,0.0,0.0,0.0,0.7319662755275066,0.017556147649884224,-0.015344366431236267,-0.03147405385971069
18.911457300186157,-1.196069,-0.71265686,-3.0522761,0.006981311307406403,nan,nan,nan,nan,8.910014152526855,0.00022101402282714844,0.8120802,0.16540752,0.026239699,0.12157460057155428,-0.07626100647973555,9.66828682537306,-0.00011857068,-0.0072791204,-0.037499174,-1.2651263,-0.9798514,-3.0,0.0,0.97327644,0.25098526,0.0,0.15643995,-0.05024845,9.9438305,0.0,0.0,0.0,0.0,0.7325318430483169,-0.010925812646746635,-0.0027730315923690796,-0.027288425713777542
19.00160241127014,-1.1191705,-0.6668749,-3.0469623,0.006480121884562415,nan,nan,nan,nan,9.000142097473145,0.000194549560546875,0.8689235,0.30526346,0.027811881,0.11936160808731104,-0.07485119735297507,9.676580929934271,-0.04656519,0.015225707,-0.036238205,-1.1754255,-0.95100117,-3.0,0.0,1.016707,0.3885363,0.0,0.15190539,-0.046723947,9.935126,0.0,0.0,0.0,0.0,0.7328502715662571,-0.05228821188211441,0.015931740403175354,-0.02575843408703804
19.107478857040405,-1.0305191,-0.60426366,-3.041195,0.006096479322414514,nan,nan,nan,nan,9.106253385543823,0.0006134510040283203,0.9271131,0.44920474,0.027907295,0.11291134127860224,-0.07197612038549117,9.682175387843737,-0.08257745,0.026960284,-0.03201324,-1.0650097,-0.9014529,-3.0,0.0,1.0636516,0.5439696,0.0,0.14410299,-0.04238959,9.921658,0.0,0.0,0.0,0.0,0.7330649777786965,-0.0611313059926033,0.014066353440284729,-0.02500813826918602
19.20125389099121,-0.95109606,-0.541895,-3.036839,0.005866947755244156,nan,nan,nan,nan,9.199568271636963,0.0002880096435546875,0.97334814,0.5620316,0.026311805,0.10559564204398629,-0.06933424551232248,9.684618409053645,-0.086591475,0.018070836,-0.029868092,-0.9639829,-0.8446186,-3.0,0.0,1.1010352,0.67276394,0.0,0.1351315,-0.038421027,9.907566,0.0,0.0,0.0,0.0,0.7331587175082246,-0.05326484143733978,0.00686606764793396,-0.02305363118648529
19.30155920982361,-0.8602566,-0.46500403,-3.0326593,0.005462101073538117,nan,nan,nan,nan,9.299856424331665,0.00020122528076171875,1.0213084,0.67519295,0.023067437,0.0978962471586787,-0.0675902439258329,9.680159846917949,-0.082479544,0.0140688475,-0.028309153,-0.8517217,-0.77062815,-3.0,0.0,1.136991,0.8008361,0.0,0.12341918,-0.03400204,9.890909,0.0,0.0,0.0,0.0,0.7329876317400044,-0.05555892735719681,0.013190388679504395,-0.018285024911165237
19.40122890472412,-0.75738966,-0.3724245,-3.0297139,0.005067509330315051,nan,nan,nan,nan,9.399538516998291,0.00017333030700683594,1.0703869,0.78634036,0.018371223,0.0892954559157245,-0.0651652374944105,9.671075768360161,-0.09164637,0.027300674,-0.02575274,-0.73678815,-0.68496966,-3.0,0.0,1.1682575,0.9155501,0.0,0.109817445,-0.02946345,9.873738,0.0,0.0,0.0,0.0,0.7326389318062487,-0.08635682612657547,0.03785243630409241,-0.013544414192438126
19.501054048538208,-0.65868527,-0.2797774,-3.028634,0.004900254654915226,nan,nan,nan,nan,9.499342441558838,0.0001709461212158203,1.1118217,0.8771183,0.013159631,0.07966604465672061,-0.061386693303925544,9.657581711822417,-0.113358304,0.043360133,-0.023014426,-0.6188202,-0.5884539,-3.0,0.0,1.1949723,1.0160297,0.0,0.09444289,-0.024787148,9.856941,0.0,0.0,0.0,0.0,0.7321206487287371,-0.098136767745018,0.03977806866168976,-0.01156618818640709
19.601678133010864,-0.54782337,-0.17293537,-3.0282893,0.004888481131061162,nan,nan,nan,nan,9.599968194961548,0.00016307830810546875,1.1514611,0.9610346,0.007371823,0.06713453626120905,-0.05613314600669517,9.64079849999514,-0.13189174,0.051531885,-0.020283585,-0.49741843,-0.48178864,-3.0,0.0,1.2171513,1.1011753,0.0,0.07739962,-0.019955048,9.841417,0.0,0.0,0.0,0.0,0.7314755294658891,-0.1222279816865921,0.04964166879653931,-0.010479610413312912
19.70117735862732,-0.4419401,-0.06948209,-3.0283797,0.004966713730018519,nan,nan,nan,nan,9.699479341506958,0.0001823902130126953,1.1829628,1.0239338,0.002146086,0.05381409840390465,-0.05092253925687329,9.625235838257938,-0.14294933,0.051063165,-0.016453812,-0.37540504,-0.36873257,-3.0,0.0,1.2343014,1.1680888,0.0,0.05928611,-0.015079754,9.828383,0.0,0.0,0.0,0.0,0.7308768242104694,-0.13095130026340485,0.047449514269828796,-0.00948784127831459
19.802215576171875,-0.32399336,0.045936424,-3.0293026,0.005019732421950342,nan,nan,nan,nan,9.800748586654663,0.00024366378784179688,1.2116746,1.0746888,-0.00364595,0.03824507838683078,-0.045475480922058775,9.603263830804496,-0.16289768,0.0587163,-0.015085769,-0.24973235,-0.24777783,-3.0,0.0,1.2468022,1.2174512,0.0,0.0398642,-0.010041665,9.8182955,0.0,0.0,0.0,0.0,0.7300307227766136,-0.1480497419834137,0.059647008776664734,-0.007487032562494278
19.903308868408203,-0.24052574,0.12705098,-3.0305173,0.005046514119563056,nan,nan,nan,nan,9.901951313018799,0.0002875328063964844,1.2278752,1.0985333,-0.0068397527,0.026227189066812893,-0.040990141220099474,9.584496965074212,-0.17132616,0.06365752,-0.01269638,-0.12313359,-0.1229,-3.0,0.0,1.2542533,1.2471106,0.0,0.019780897,-0.0049542594,9.81204,0.0,0.0,0.0,0.0,0.7293072786869671,-0.12610463798046112,0.016143187880516052,-0.005590666085481644
20.01162028312683,-0.12741508,0.23544551,-3.03238,0.004960611847428647,nan,nan,nan,nan,10.010286569595337,0.0004401206970214844,1.244903,1.115048,-0.010214883,0.010133948686164657,-0.035982304509678764,9.5657505888876,-0.15831026,0.029279497,-0.00884164,0.0129263615,0.012926091,-3.0,0.0,1.2566109,1.2565321,0.0,-0.0020807376,0.0005201948,9.810023,0.0,0.0,0.0,0.0,0.7285839169947416,-0.13561461865901947,0.011149302124977112,0.0002737008035182953
20.105051040649414,-0.032480936,0.3248212,-3.0342612,0.004820795224271609,nan,nan,nan,nan,10.1036696434021,0.00034356117248535156,1.2563795,1.1162522,-0.01272476,-0.002334424056178116,-0.03430651170421495,9.550417548381953,-0.15543514,0.023566091,-0.008767604,0.13018396,0.12990789,-3.0,0.0,1.253972,1.2459885,0.0,-0.020908505,0.0052378047,9.81228,0.0,0.0,0.0,0.0,0.727991737699132,-0.15153633058071136,0.02145993709564209,0.0029523875564336777
20.203710317611694,0.06291145,0.41225225,-3.0364711,0.004690163490942088,nan,nan,nan,nan,10.20235562324524,0.0003230571746826172,1.2657565,1.1065898,-0.0136972265,-0.015219679467771785,-0.03246215154050147,9.538733175211812,-0.16362628,0.015432032,-0.006302185,0.25360352,0.25155643,-3.0,0.0,1.2464937,1.2162269,0.0,-0.040471468,0.010197066,9.81855,0.0,0.0,0.0,0.0,0.7275401548309035,-0.17567378282546997,0.029406189918518066,0.006994405761361122
20.313084840774536,0.21823896,0.5472434,-3.0396261,0.004551746575907279,nan,nan,nan,nan,10.31181287765503,0.00035643577575683594,1.2791095,1.0676191,-0.013645763,-0.03763806355287341,-0.028226247513692515,9.530519943350223,-0.1982632,0.08001112,-0.0030029742,0.38933462,0.3818864,-3.0,0.0,1.2325969,1.1613957,0.0,-0.061395817,0.015637212,9.8297205,0.0,0.0,0.0,0.0,0.7272225606228535,-0.19959966838359833,0.10998545587062836,0.008580965921282768
20.407456159591675,0.3120548,0.62408704,-3.0417306,0.0043826682430787856,nan,nan,nan,nan,10.406043291091919,0.00025963783264160156,1.2809738,1.0264899,-0.025967501,-0.054522725541819035,-0.020627706527293732,9.527435526569603,-0.21531983,0.10633093,-0.000285824,0.50473225,0.48839498,-3.0,0.0,1.215962,1.09657,0.0,-0.07845662,0.020246709,9.842288,0.0,0.0,0.0,0.0,0.7271032551883501,-0.20411185920238495,0.08993136882781982,0.008540898561477661
20.50942373275757,0.41993278,0.7049213,-3.0492156,0.004125528048779463,nan,nan,nan,nan,10.50810694694519,0.00030493736267089844,1.274031,0.9576816,-0.069427386,-0.07564607622418279,-0.010435997905990702,9.5202280140866,-0.21620245,0.09356323,0.003018203,0.62771505,0.5959967,-3.0,0.0,1.1931393,1.0090631,0.0,-0.095646136,0.025140403,9.858159,0.0,0.0,0.0,0.0,0.7268243928418,-0.1886586993932724,0.0583408921957016,0.009224995970726013
20.604841232299805,0.51096296,0.76633686,-3.0590744,0.004017528914018839,nan,nan,nan,nan,10.603383779525757,0.00023698806762695312,1.2621651,0.88474715,-0.090248235,-0.09314200857175793,-0.004135448244205531,9.504963142072075,-0.21197596,0.06556458,0.00461121,0.7402019,0.68764126,-3.0,0.0,1.1674052,0.9123821,0.0,-0.11024231,0.029598497,9.874241,0.0,0.0,0.0,0.0,0.7262334383883573,-0.18325015902519226,0.041573718190193176,0.013476381078362465
20.705488681793213,0.6210335,0.8314331,-3.0721471,0.003978493882385949,nan,nan,nan,nan,10.704230308532715,0.00028395652770996094,1.2433904,0.7799863,-0.101647675,-0.1123897638847973,0.0016795017612933894,9.491523562317006,-0.187401,0.049447957,0.008838247,0.8563661,0.7738912,-3.0,0.0,1.1356128,0.79585165,0.0,-0.123936445,0.034185104,9.891607,0.0,0.0,0.0,0.0,0.7257127541946533,-0.15481184422969818,0.04887625575065613,0.014627514407038689
20.804710388183594,0.712465,0.87689763,-3.0822835,0.003937040799754141,nan,nan,nan,nan,10.8035147190094,0.00039076805114746094,1.2248658,0.6800099,-0.10302624,-0.1271600165969592,0.005741551944458356,9.476666303147786,-0.17439944,0.04956025,0.009235621,0.9673758,0.84668654,-3.0,0.0,1.0998597,0.6686465,0.0,-0.13545832,0.038554408,9.908058,0.0,0.0,0.0,0.0,0.7251367162256193,-0.15401829779148102,0.05425769090652466,0.017000891268253326
20.910305976867676,0.82095575,0.92001456,-3.0924692,0.003808743769682363,nan,nan,nan,nan,10.908727407455444,0.0002219676971435547,1.1988602,0.54633904,-0.097311765,-0.14301138187706175,0.01126639078128977,9.469595787917488,-0.15261127,0.059541192,0.011855167,1.080898,0.9094425,-3.0,0.0,1.0573052,0.522547,0.0,-0.14536233,0.043013312,9.923743,0.0,0.0,0.0,0.0,0.7248624232907809,-0.12075665593147278,0.06958514451980591,0.015347152948379517
21.003802061080933,0.9095988,0.94502693,-3.0985098,0.0034906100400522028,nan,nan,nan,nan,11.002637386322021,0.0004096031188964844,1.1732335,0.42513883,-0.08745167,-0.1539201781606992,0.016941786065977293,9.469949878781328,-0.12368965,0.070322074,0.012742528,1.1782507,0.95207566,-3.0,0.0,1.0154152,0.38435838,0.0,-0.1520744,0.046834875,9.935434,0.0,0.0,0.0,0.0,0.7248761622952584,-0.10506363958120346,0.0746995359659195,0.014859776943922043
21.10730218887329,1.0124693,0.961071,-3.1028612,0.0030085993681680384,nan,nan,nan,nan,11.106103658676147,0.0004127025604248047,1.1359888,0.27045128,-0.07185006,-0.16509360685868674,0.02436694022545316,9.476934664651042,-0.08693806,0.08181379,0.013450683,1.2807487,0.9836956,-3.0,0.0,0.9651764,0.22599536,0.0,-0.15704368,0.05086304,9.945088,0.0,0.0,0.0,0.0,0.7251471250018339,-0.053937554359436035,0.07666291296482086,0.011856455355882645
21.20372176170349,1.1185219,0.96063715,-3.1041336,0.0022548267040220643,nan,nan,nan,nan,11.20253872871399,0.00038814544677734375,1.0869131,0.09547519,-0.051602453,-0.1697536047069949,0.03350489657602207,9.488851443632727,-0.009516083,0.0826031,0.014021976,1.3714179,0.99822193,-3.0,0.0,0.9146758,0.074903674,0.0,-0.15932399,0.054437187,9.950581,0.0,0.0,0.0,0.0,0.7256091854594785,0.020601600408554077,0.06679575145244598,0.007320590317249298
21.303109884262085,1.2114855,0.9430467,-3.1020865,0.0014976772420766532,nan,nan,nan,nan,11.301884651184082,0.00042366981506347656,1.0340431,-0.06601903,-0.03209416,-0.16825759577411242,0.041169254575962544,9.507632616116888,0.0371008,0.07034149,0.012119277,1.4595579,0.99787515,-3.0,0.0,0.8591416,-0.08187576,0.0,-0.15926959,0.057928737,9.952448,0.0,0.0,0.0,0.0,0.7263368169102871,0.05053208768367767,0.05248454958200455,0.005981851369142532
21.409200429916382,1.3057685,0.90625846,-3.0963006,0.0007708489206272318,nan,nan,nan,nan,11.407653570175171,0.0003192424774169922,0.9696015,-0.2358319,-0.011477198,-0.1614211988648557,0.04782498022608861,9.532904250576385,0.09433939,0.051697522,0.010762933,1.5471399,0.9804394,-3.0,0.0,0.79634464,-0.24733256,0.0,-0.1565323,0.06142302,9.950188,0.0,0.0,0.0,0.0,0.7273147725465012,0.0715458020567894,0.038512520492076874,0.005272071808576584
21.509803771972656,1.3864487,0.85740054,-3.0880482,0.00017221888310706146,nan,nan,nan,nan,11.508547067642212,0.0004215240478515625,0.9051667,-0.3825558,0.0050367964,-0.15219041609721926,0.05249347447537067,9.549045124604588,0.103083424,0.037359495,0.0089102695,1.6243237,0.94768274,-3.0,0.0,0.7331625,-0.40113583,0.0,-0.1513834,0.06453041,9.944189,0.0,0.0,0.0,0.0,0.7279387099758546,0.07091797143220901,0.029742151498794556,0.005826660431921482
21.601930618286133,1.4667754,0.78963614,-3.0766296,-0.0005146033539722705,nan,nan,nan,nan,11.600371599197388,0.00019049644470214844,0.8315341,-0.52951616,0.02039708,-0.140803657251437,0.05610569923094855,9.572232656284456,0.12477768,0.025459299,0.007721577,1.6889063,0.9046279,-3.0,0.0,0.67309177,-0.5355816,0.0,-0.14460349,0.067156225,9.935863,0.0,0.0,0.0,0.0,0.728834118999692,0.11093898862600327,0.02063482254743576,0.004439719021320343
21.712491750717163,1.5401741,0.70864046,-3.0634875,-0.0010911551891179608,nan,nan,nan,nan,11.711188793182373,0.0008990764617919922,0.7561849,-0.661002,0.03257633,-0.12604315833730576,0.05849312096314674,9.599596158518676,0.15810396,0.016065229,0.005991983,1.7593441,0.83671033,-3.0,0.0,0.5976325,-0.68819195,0.0,-0.13388138,0.07005295,9.922918,0.0,0.0,0.0,0.0,0.7298893932546748,0.084627166390419,0.025079846382141113,0.006192449480295181
21.814613342285156,1.601633,0.6242097,-3.0505056,-0.0016488543942941858,nan,nan,nan,nan,11.812961101531982,0.0002086162567138672,0.6859089,-0.76584166,0.040329892,-0.11165715327569523,0.06034116094976816,9.621364808931235,0.14259306,0.017984899,0.0062913005,1.8165292,0.7600291,-3.0,0.0,0.52577233,-0.81667477,0.0,-0.12173853,0.07243467,9.909129,0.0,0.0,0.0,0.0,0.7307278281559706,0.05160406604409218,0.03404945880174637,0.009420374408364296
21.90202832221985,1.6612351,0.52468896,-3.0363932,-0.0022828192543082396,nan,nan,nan,nan,11.900646448135376,0.0002605915069580078,0.60889316,-0.8624102,0.044926796,-0.09873613215241012,0.06278618296550897,9.63903910051215,0.114766136,0.024903197,0.0056294673,1.8598521,0.6839543,-3.0,0.0,0.46212405,-0.916748,0.0,-0.10965595,0.07425974,9.896552,0.0,0.0,0.0,0.0,0.7314078685150236,0.07835214585065842,0.028675518929958344,0.009384168311953545
22.01300573348999,1.7093737,0.42725617,-3.023105,-0.0028471239696507347,nan,nan,nan,nan,12.011510610580444,0.00047397613525390625,0.5361143,-0.9378357,0.046845607,-0.0880450187189091,0.06528524791119716,9.65577018435228,0.10943278,0.024430292,0.0069497465,1.9065334,0.57602113,-3.0,0.0,0.3796679,-1.0272188,0.0,-0.092458986,0.07624887,9.880791,0.0,0.0,0.0,0.0,0.7320510435713473,0.04806957766413689,0.04050019383430481,0.012611772865056992
22.10736584663391,1.744247,0.34254324,-3.0117376,-0.0032766530192985394,nan,nan,nan,nan,12.106140375137329,0.00038361549377441406,0.4739763,-0.99112177,0.046614114,-0.07988257956071171,0.06765884281806134,9.665982208653572,0.09546568,0.02995646,0.00751491,1.9390709,0.47497725,-3.0,0.0,0.30781442,-1.1058383,0.0,-0.076309636,0.077650554,9.868369,0.0,0.0,0.0,0.0,0.7324433396081269,0.0329408198595047,0.05120788514614105,0.01494000293314457
22.206435441970825,1.7745296,0.25504854,-3.0005317,-0.003583382297229258,nan,nan,nan,nan,12.20526123046875,0.00041556358337402344,0.41060835,-1.0376824,0.045331683,-0.07386972042986564,0.0710588908569747,9.670262562661652,0.05914912,0.04794155,0.010483523,1.9658028,0.36196855,-3.0,0.0,0.23138796,-1.1714249,0.0,-0.058201052,0.07881232,9.857237,0.0,0.0,0.0,0.0,0.7326077082422109,0.03712935000658035,0.06074436753988266,0.01451928447932005
22.315429210662842,1.7997735,0.16453174,-2.9892054,-0.0037634732992491426,nan,nan,nan,nan,12.314220666885376,0.0003819465637207031,0.34479222,-1.0795647,0.043790564,-0.06895630258034914,0.07486903876208051,9.675044700383427,0.06533088,0.04608133,0.01126294,1.9863899,0.23134202,-3.0,0.0,0.14635241,-1.2225477,0.0,-0.03722242,0.079713725,9.848072,0.0,0.0,0.0,0.0,0.7327913027091812,0.059548795223236084,0.07712390273809433,0.011788775213062763
22.405070304870605,1.8127731,0.10936628,-2.9827483,-0.0038285106408891025,nan,nan,nan,nan,12.405723571777344,0.0003147125244140625,0.30462274,-1.1022964,0.0425218,-0.06567806801236786,0.07745777760318329,9.677354641958361,0.06917041,0.06100046,0.012371363,1.9964923,0.11819354,-3.0,0.0,0.07439367,-1.2478287,0.0,-0.019023573,0.080158256,9.843382,0.0,0.0,0.0,0.0,0.7328799690752708,0.06071787327528,0.1172163188457489,0.010100606828927994
22.508914947509766,1.8368889,-0.031310514,-2.9674966,-0.0037855937472344066,nan,nan,nan,nan,12.50766921043396,0.0003535747528076172,0.19932,-1.1497035,0.03891946,-0.05528115629195057,0.08573240314351493,9.682055872149055,0.10155136,0.07718529,0.012907218,1.9999768,-0.009638359,-3.0,0.0,-0.00605603,-1.2565788,0.0,0.0015515059,0.08031192,9.841735,0.0,0.0,0.0,0.0,0.7330603916088785,0.19838272035121918,0.05024333670735359,-0.006195804104208946
22.603411197662354,1.8469889,-0.14615297,-2.9564943,-0.003609258186739038,nan,nan,nan,nan,12.601792335510254,0.00027179718017578125,0.108679116,-1.176336,0.03488501,-0.041738711019585845,0.09234645390083251,9.68733080404926,0.19325387,0.042208266,0.011973466,1.9959108,-0.1275675,-3.0,0.0,-0.080317244,-1.2463702,0.0,0.020531928,0.08013262,9.843656,0.0,0.0,0.0,0.0,0.7332627793712029,0.2803097665309906,-0.0031420737504959106,-0.01950163021683693
22.705883502960205,1.8473586,-0.27953637,-2.9448073,-0.0035893073422931347,nan,nan,nan,nan,12.704613208770752,0.0003676414489746094,-0.0004918792,-1.1822078,0.02996748,-0.013036329980627079,0.09270468855125347,9.691484134263584,0.3022132,-0.030485999,0.004529109,1.9834945,-0.25430074,-3.0,0.0,-0.1611115,-1.2153254,0.0,0.04091249,0.07958658,9.849393,0.0,0.0,0.0,0.0,0.7334220949252798,0.2979140281677246,-0.03981541842222214,-0.024333983659744263
22.802138328552246,1.8396851,-0.3720476,-2.9367192,-0.004260422753553744,nan,nan,nan,nan,12.800626277923584,0.0002505779266357422,-0.07652807,-1.1627095,0.026163014,0.012254180654877173,0.09010613588412686,9.695945586069712,0.32419926,-0.041853372,-0.00093548046,1.9644266,-0.36885762,-3.0,0.0,-0.23595698,-1.1680264,0.0,0.05930617,0.078752294,9.857831,0.0,0.0,0.0,0.0,0.7335931915383703,0.26549872756004333,-0.015846572816371918,-0.01875927858054638
22.903522491455078,1.8221884,-0.47779837,-2.9268646,-0.005998757591165475,nan,nan,nan,nan,12.901985883712769,0.0003161430358886719,-0.16454306,-1.1113913,0.022179745,0.042795565020016926,0.0875238107191274,9.705011439538785,0.30086562,-0.023830626,-0.008547279,1.9365442,-0.48393917,-3.0,0.0,-0.31403154,-1.0996852,0.0,0.077743724,0.07754123,9.869377,0.0,0.0,0.0,0.0,0.733940745667359,0.2024490088224411,-0.008583765476942062,-0.00442144088447094
23.0017671585083,1.7933549,-0.58237594,-2.9161506,-0.008668028533761186,nan,nan,nan,nan,13.000498533248901,0.0004062652587890625,-0.25638348,-1.0237886,0.018541483,0.07008550602234723,0.08501978967690293,9.71658801420707,0.2266243,-0.01876417,-0.012289052,1.9019194,-0.588292,-3.0,0.0,-0.38869658,-1.0161778,0.0,0.09441706,0.07605115,9.882455,0.0,0.0,0.0,0.0,0.734384316439777,0.12463074922561646,-0.02163691446185112,0.01392589695751667
23.104852437973022,1.7584141,-0.66681147,-2.9062018,-0.011299463956056771,nan,nan,nan,nan,13.103549003601074,0.0003712177276611328,-0.33769608,-0.9199856,0.01605783,0.08809091470637036,0.08305495104874305,9.729031765005772,0.15285517,-0.019045295,-0.010544117,1.8579063,-0.68779176,-3.0,0.0,-0.46520355,-0.91220295,0.0,0.11026623,0.074177355,9.897159,0.0,0.0,0.0,0.0,0.7348608195664005,0.0801294669508934,-0.01698455587029457,0.030142012983560562
23.202572345733643,1.717074,-0.7383288,-2.8967512,-0.013432937168618146,nan,nan,nan,nan,13.20124888420105,0.0005543231964111328,-0.41500577,-0.80125684,0.013927541,0.10001927557253268,0.08128189911399875,9.744601119003478,0.097568445,-0.021393826,-0.0025729649,1.8089848,-0.7715135,-3.0,0.0,-0.5359429,-0.7994887,0.0,0.12355953,0.072118744,9.911127,0.0,0.0,0.0,0.0,0.7354565811026823,0.053028617054224014,-0.018767599016427994,0.042015448212623596
23.301532745361328,1.6689637,-0.7955116,-2.8875237,-0.014711542087892472,nan,nan,nan,nan,13.2999587059021,0.00023293495178222656,-0.48893473,-0.672701,0.011609936,0.10760645707965949,0.0790276406279109,9.759033539287033,0.061968885,-0.021589246,0.006333839,1.7526376,-0.8443009,-3.0,0.0,-0.6053618,-0.6733933,0.0,0.13508128,0.06977549,9.924336,0.0,0.0,0.0,0.0,0.7360084129267473,0.04360118508338928,-0.015833403915166855,0.049736205488443375
