time,x,y,z,yaw,platform,trajectory,controller,feedforward,traj_time,comp_time,vx,vy,vz,roll,pitch,f,p,q,r,x_ref,y_ref,z_ref,yaw_ref,vx_ref,vy_ref,vz_ref,roll_ref,pitch_ref,f_ref,u_ff_df,u_ff_dphi,u_ff_dpsi,u_ff_dth,throttle,p_cmd,q_cmd,r_cmd
10.001535892486572,0.019344062,0.012514857,-2.6254425,0.0019098126240559,SIM,fig8_heading,contraction,1.0,2.6226043701171875e-06,0.0021152496337890625,-0.013796897,0.009120605,-0.204211,-0.0027651000138144933,0.00012066353503925598,9.808853022381664,0.0021607715,0.0012068549,-0.0005250612,1.6478311e-06,1.6478311e-06,-3.0,0.7853982,0.62831855,0.62831855,0.0,-1.1789108e-07,2.947277e-08,9.81,5.52366e-08,-0.0449519,-6.902419e-07,0.011237975,0.7379101607598756,0.8497359156608582,-0.9091241955757141,0.7732032537460327
10.10255479812622,0.02005873,0.013099572,-2.6418192,0.0024360011937372967,nan,nan,nan,nan,0.10121846199035645,0.0017511844635009766,-0.0145797795,0.0067537446,-0.21048476,0.0015439946352147926,-0.005430414218840829,9.810072344030488,0.16806719,-0.21047996,0.031627003,0.06357838,0.06352125,-3.0,0.7840479,0.6277539,0.62606096,0.0,-0.0045444807,0.0011371376,9.810108,0.0021220585,-0.044789463,-0.026719593,0.0112275155,0.7379566450281968,1.0008113384246826,-1.0764871835708618,3.098104953765869
10.200354814529419,0.021359313,0.014878703,-2.6635735,0.01548454164199311,nan,nan,nan,nan,0.1985323429107666,0.0007467269897460938,0.0056003937,0.023654934,-0.25329664,0.044280674381379406,-0.05050343186288475,9.798491610001074,0.83185893,-0.8593529,0.2889629,0.12459783,0.12416723,-3.0,0.7801813,0.62614715,0.619648,0.0,-0.008883084,0.0022284396,9.810411,0.0041079535,-0.044328082,-0.052858092,0.0111977635,0.737515035399609,0.8065059185028076,-0.818371593952179,3.0453813076019287
10.300363063812256,0.026719796,0.021249114,-2.686541,0.06058759690366459,nan,nan,nan,nan,0.29854512214660645,0.0009765625,0.0835144,0.102973066,-0.20945075,0.13201602381467434,-0.1363839965850484,9.80101099145715,0.9364227,-0.6482812,0.7840951,0.18709292,0.18563189,-3.0,0.77351475,0.62341195,0.60876876,0.0,-0.013279915,0.0033459978,9.810921,0.0060397396,-0.043545563,-0.08065435,0.011147173,0.7376111295002222,0.30307134985923767,-0.11760243773460388,2.8914716243743896
10.400639295578003,0.044790566,0.04146498,-2.7021124,0.16704920822757424,nan,nan,nan,nan,0.39884209632873535,0.001041412353515625,0.21084668,0.26566398,-0.07748644,0.18392340404862229,-0.1751848548312236,9.860456541302845,0.36074635,0.2392031,1.2929777,0.24943578,0.24596283,-3.0,0.76396865,0.6195704,0.59356934,0.0,-0.017595146,0.004460637,9.811617,0.007814421,-0.04245269,-0.10999302,0.011076239,0.7398749250482414,-0.26685887575149536,0.4876793920993805,2.438948154449463
10.501443147659302,0.07281886,0.07541824,-2.70471,0.3129499899068212,nan,nan,nan,nan,0.49985766410827637,0.0017888545989990234,0.30866617,0.44184256,-0.015822288,0.16791236482287566,-0.15870007300466837,9.934150790098357,-0.19249251,0.6094263,1.6629837,0.3117801,0.3049708,-3.0,0.75128114,0.61459607,0.574028,0.0,-0.02181512,0.0055750497,9.812488,0.009389125,-0.041048247,-0.14160216,0.010984588,0.7426718848532476,-0.6699500679969788,0.5527815222740173,1.685875415802002
10.601540088653564,0.11788164,0.13886143,-2.707716,0.5467340370781679,nan,nan,nan,nan,0.5999875068664551,0.001795053482055664,0.37925863,0.6458829,-0.08093771,0.08853354274991354,-0.12087043342161707,9.9591521178477,-0.78720874,0.48203254,1.8685623,0.37302727,0.36130843,-3.0,0.73542464,0.6085796,0.5506029,0.0,-0.025843395,0.0066695623,9.813496,0.01069762,-0.03936558,-0.17562039,0.010874023,0.743618416270096,-0.7584608197212219,0.2911226749420166,0.5407270789146423
10.701048135757446,0.16476497,0.21455319,-2.7172613,0.8049816615098417,nan,nan,nan,nan,0.6993205547332764,0.0014569759368896484,0.40518698,0.7585161,-0.14243507,-0.01366374579181423,-0.08470403156763706,9.940561498730679,-1.0136285,0.22537956,1.7105638,0.4331391,0.41468805,-3.0,0.7161674,0.60155326,0.52353764,0.0,-0.029659402,0.007743474,9.814611,0.011713397,-0.03742261,-0.21273492,0.010745284,0.7429147028886872,-0.5967689156532288,0.09326016902923584,-0.6130006313323975
10.801849842071533,0.21536057,0.29697,-2.7354932,1.032228250510123,nan,nan,nan,nan,0.8003075122833252,0.0017120838165283203,0.4594745,0.78845364,-0.2147006,-0.11200959074122707,-0.046193072852267036,9.901430891483326,-0.91106254,0.1946599,1.253398,0.49348247,0.46601227,-3.0,0.6926024,0.59334254,0.49230856,0.0,-0.03332765,0.008821196,9.815833,0.01243117,-0.035182208,-0.254759,0.0105953375,0.7414313329233728,-0.23224397003650665,0.14057214558124542,-1.6129255294799805
10.901192665100098,0.2818409,0.38199276,-2.7557983,1.1742257418883613,nan,nan,nan,nan,0.899500846862793,0.001336812973022461,0.58771676,0.7489005,-0.13579226,-0.19017074442134574,0.00013504311331469232,9.878154855101602,-0.49049807,0.41431054,0.66462284,0.55189526,0.5131817,-3.0,0.6650747,0.5842442,0.4582043,0.0,-0.036698163,0.009864119,9.817087,0.012809538,-0.032737263,-0.30121446,0.010429763,0.7405475902451574,0.3770327866077423,0.30370453000068665,-2.3611161708831787
11.001233577728271,0.36959636,0.4531529,-2.7644749,1.1903587699196638,nan,nan,nan,nan,0.9997687339782715,0.001947641372680664,0.77899486,0.64714277,-0.024338251,-0.21795014736082863,0.04867442905183239,9.888666300299809,0.08520227,0.54982823,0.08716563,0.60997224,0.5572614,-3.0,0.63225913,0.5740223,0.4205176,0.0,-0.039847147,0.010900743,9.8183775,0.012854373,-0.03003742,-0.354504,0.010244422,0.740946816736005,1.031937837600708,0.26441848278045654,-2.70548152923584
11.101400375366211,0.4646583,0.495124,-2.7612758,1.1206304387063384,nan,nan,nan,nan,1.099731683731079,0.0014216899871826172,0.94308364,0.5094047,0.068146445,-0.1967531932739679,0.08112292666838528,9.912235395136522,0.62246907,0.4308517,-0.39709616,0.6668018,0.5972955,-3.0,0.59385616,0.5628237,0.37999326,0.0,-0.042706434,0.011914842,9.81965,0.0125618735,-0.02713637,-0.4152101,0.010042127,0.7418412044381684,1.3917243480682373,0.019558195024728775,-2.708266019821167
11.200978755950928,0.59558076,0.5179459,-2.7461035,0.9660894361213306,nan,nan,nan,nan,1.1993739604949951,0.0013637542724609375,1.0701646,0.3101808,0.16479638,-0.12361293949008534,0.09283964628426555,9.961538613560842,1.0552106,0.014166499,-0.96082836,0.72228587,0.6330351,-3.0,0.5491071,0.5506791,0.33694804,0.0,-0.045258418,0.01290471,9.820874,0.011945151,-0.024056988,-0.4845664,0.00982355,0.7437087050501072,1.4022290706634521,-0.27592408657073975,-2.3409979343414307
11.301403760910034,0.7215319,0.5140932,-2.7236714,0.7774803999672648,nan,nan,nan,nan,1.3004374504089355,0.001699686050415039,1.0879681,0.14995502,0.20522541,-0.02337196290428517,0.07419472509305525,10.011394090774703,1.2437294,-0.31289083,-1.4114258,0.7772757,0.66478,-3.0,0.49615175,0.5373816,0.29089338,0.0,-0.04752466,0.013885601,9.822037,0.011007269,-0.020764463,-0.56522274,0.009585081,0.7455924305575498,0.9668866395950317,-0.31556427478790283,-1.849998950958252
11.401705741882324,0.8481572,0.49263108,-2.7026956,0.5427719655192427,nan,nan,nan,nan,1.4002492427825928,0.001672506332397461,1.0052854,0.07849747,0.11805476,0.08645160351673986,0.05320074827964216,10.076000416699099,0.88137174,-0.29689115,-1.6962941,0.83021784,0.69145805,-3.0,0.4352986,0.52330357,0.2433622,0.0,-0.049428813,0.014829881,9.823076,0.009799735,-0.0173684,-0.65602833,0.009333473,0.7480265345186092,0.17243552207946777,-0.13109822571277618,-1.1698873043060303
11.501365184783936,0.9468954,0.47392476,-2.6928089,0.3308130317421334,nan,nan,nan,nan,1.4998090267181396,0.0017998218536376953,0.8904992,0.12356349,0.058009885,0.13425965153429226,0.059375684268522466,10.116845581057715,0.20990473,-0.008111853,-1.6911432,0.8815808,0.71325535,-3.0,0.3650084,0.5083499,0.19425662,0.0,-0.050984327,0.015745983,9.823982,0.008351569,-0.013861639,-0.7578017,0.00906704,0.7495613897739803,-0.4794720411300659,0.050902318209409714,-0.6384753584861755
11.601221084594727,1.0329789,0.4690899,-2.690571,0.1377665662048048,nan,nan,nan,nan,1.5996358394622803,0.001813650131225586,0.76466674,0.22359733,-0.008620559,0.11310544336539505,0.08356609416459482,10.12787051549298,-0.3654662,0.12163155,-1.4509131,0.93154246,0.7301319,-3.0,0.28384453,0.49246863,0.14366363,0.0,-0.052188523,0.016637156,9.824735,0.0066965064,-0.010250183,-0.8697086,0.008784859,0.7499751469205672,-0.7603075504302979,0.048495739698410034,-0.2753700613975525
11.701078653335571,1.091181,0.48093483,-2.6957574,0.01246076554929678,nan,nan,nan,nan,1.6994609832763672,0.0015215873718261719,0.662884,0.29750186,-0.08118236,0.06226745603231986,0.09506922831691966,10.106278536227768,-0.57375443,0.049764603,-1.1518995,0.9798746,0.74190474,-3.0,0.19116645,0.47572666,0.092067234,0.0,-0.053028457,0.017499411,9.8253145,0.0048849904,-0.0065682777,-0.9875993,0.008488086,0.7491646052149821,-0.7508559823036194,-0.04382390156388283,-0.2651856541633606
11.801249504089355,1.1425183,0.50609136,-2.7095203,-0.08654974518577367,nan,nan,nan,nan,1.799741506576538,0.001733541488647461,0.5592857,0.3362629,-0.16054766,-0.00022374324981415394,0.09028579779956813,10.054270903972213,-0.56728005,-0.10435649,-0.8359312,1.0267024,0.7485099,-3.0,0.08620933,0.45807102,0.039588112,0.0,-0.053499673,0.018335057,9.825707,0.0029590619,-0.0028241605,-1.1045997,0.008175719,0.7472087280174408,-0.5610474348068237,-0.13326413929462433,-0.4204099774360657
11.90278935432434,1.1858336,0.5397455,-2.7335281,-0.15972999363036613,nan,nan,nan,nan,1.9017834663391113,0.002834796905517578,0.45978525,0.32270774,-0.23167087,-0.05483808873499819,0.06892237233796306,9.991667171624725,-0.42526668,-0.20630558,-0.5940255,1.0724928,0.74981123,-3.0,-0.032080803,0.43927592,-0.0140971625,0.0,-0.053592507,0.019152502,9.825908,0.000946203,0.0010056618,-1.210487,0.007843674,0.7448476361500639,-0.3183789551258087,-0.14734476804733276,-0.7080652713775635
12.013680696487427,1.214055,0.56736815,-2.7595232,-0.20528543721429612,nan,nan,nan,nan,2.01273512840271,0.0037965774536132812,0.38802782,0.27441287,-0.27498993,-0.08712368534652562,0.047441504911382104,9.928913156298226,-0.3014847,-0.20946515,-0.506593,1.1200557,0.7450126,-3.0,-0.17139335,0.4179303,-0.07234021,0.0,-0.05325018,0.02000202,9.825891,-0.0012351064,0.005160787,-1.293746,0.0074669346,0.742473441144063,-0.14867334067821503,-0.1293455958366394,-1.15790593624115
12.113436460494995,1.2357591,0.59021235,-2.7892125,-0.2466336951641066,nan,nan,nan,nan,2.1121666431427,0.0023522377014160156,0.32584757,0.20057994,-0.31080627,-0.10828356407892122,0.027493293064222435,9.877455849555554,-0.17952462,-0.16661182,-0.5315196,1.1606277,0.73524475,-3.0,-0.30204836,0.39803278,-0.12401986,0.0,-0.052553304,0.020727117,9.825674,-0.0031238014,0.008848291,-1.3270156,0.007115893,0.7405210343641568,-0.00469999760389328,-0.08191264420747757,-1.5373934507369995
12.209578514099121,1.2537158,0.60722816,-2.8282266,-0.3020636700743602,nan,nan,nan,nan,2.20829439163208,0.002855539321899414,0.26151314,0.089944646,-0.35563302,-0.12050615326898699,0.007758661373699738,9.803406727818075,-0.04456068,-0.09991934,-0.68453544,1.1979387,0.720953,-3.0,-0.42944416,0.37813967,-0.17316848,0.0,-0.051533595,0.021394374,9.82529,-0.0048396275,0.01235615,-1.3165579,0.006764889,0.7377024960811751,0.13846401870250702,-0.0226190984249115,-1.8020052909851074
12.304729700088501,1.2643766,0.6102165,-2.8688118,-0.3692907295254907,nan,nan,nan,nan,2.303487777709961,0.0025565624237060547,0.20989749,-0.024274042,-0.40444392,-0.11864678569474424,-0.006934415141758077,9.7253219943319,0.079539075,-0.043603353,-0.9084753,1.2329732,0.7021946,-3.0,-0.55272377,0.3578357,-0.22073421,0.0,-0.05019503,0.022021368,9.824754,-0.006388538,0.015752269,-1.2677728,0.0064064357,0.7347187948327986,0.21154968440532684,0.016315752640366554,-1.9636632204055786
12.404051065444946,1.2711412,0.59901345,-2.9181426,-0.4657913592948123,nan,nan,nan,nan,2.402951240539551,0.0025293827056884766,0.16443701,-0.1457804,-0.45830163,-0.1044082416011195,-0.020852633126264397,9.631128227022712,0.16850147,-0.0007763228,-1.1848993,1.2674847,0.6778286,-3.0,-0.67495686,0.33601373,-0.26893,0.0,-0.048456047,0.022639493,9.824046,-0.0078052976,0.019194964,-1.1858783,0.006020809,0.7311035649588673,0.24583613872528076,0.05633055791258812,-1.9714469909667969
12.508870840072632,1.2746058,0.5766229,-2.9682417,-0.5782786477726993,nan,nan,nan,nan,2.5075724124908447,0.004971027374267578,0.13445915,-0.24457721,-0.4999414,-0.08274255711288234,-0.031261013743914434,9.54400257995469,0.2250471,0.02833611,-1.4174731,1.3014106,0.647127,-3.0,-0.7936092,0.31243166,-0.31760505,0.0,-0.04626448,0.023247667,9.823163,-0.009031931,0.022673873,-1.0802917,0.0056034885,0.7277438433571471,0.23535434901714325,0.08236083388328552,-1.8799638748168945
12.60990023612976,1.2771233,0.54212165,-3.0258167,-0.722699477707629,nan,nan,nan,nan,2.6086785793304443,0.0027289390563964844,0.11666786,-0.329457,-0.53093076,-0.0526485783399826,-0.0374736360427963,9.495738932398384,0.24965583,0.06467293,-1.6001942,1.331823,0.6127335,-3.0,-0.89739317,0.28907132,-0.36233175,0.0,-0.04380885,0.023793366,9.822202,-0.009927111,0.025872644,-0.9727053,0.005189361,0.7258761082258333,0.19220250844955444,0.10481944680213928,-1.6057617664337158
12.705226421356201,1.2795309,0.5037317,-3.0807943,-0.8703054775111333,nan,nan,nan,nan,2.7039101123809814,0.0025832653045654297,0.11441886,-0.3837042,-0.54469466,-0.021784699877332114,-0.036551696385112686,9.401236360577169,0.27627528,0.10149703,-1.6805032,1.3582848,0.57631576,-3.0,-0.98532194,0.2665935,-0.40208912,0.0,-0.04120812,0.02426861,9.821228,-0.010487197,0.028717909,-0.8750223,0.004790107,0.7222051946521418,0.1332312971353531,0.11353857070207596,-1.2735346555709839
12.809345006942749,1.2833275,0.45837817,-3.140865,-1.0353347911191877,nan,nan,nan,nan,2.8080146312713623,0.002529144287109375,0.12708907,-0.4137064,-0.5447294,0.012025976339891886,-0.0260539210503703,9.298149466422618,0.25701818,0.11764397,-1.6353871,1.3847384,0.532319,-3.0,-1.0712572,0.24153727,-0.44261578,0.0,-0.0380654,0.024744153,9.820118,-0.010769794,0.03162028,-0.77789605,0.0043440987,0.7181797231556121,0.013321958482265472,0.08198907226324081,-0.8753269910812378
12.906681060791016,1.289415,0.4165387,-3.1952212,-1.1814055642248773,nan,nan,nan,nan,2.9053945541381836,0.002891063690185547,0.15218763,-0.41665736,-0.53759736,0.035687145138348364,-0.011957050502933608,9.22891121378285,0.18562716,0.10739371,-1.4872757,1.4071009,0.48749447,-3.0,-1.1430509,0.21768291,-0.4774847,0.0,-0.03486277,0.025146525,9.819069,-0.010716695,0.03411927,-0.6985484,0.0039185164,0.715463478296613,-0.08721452206373215,0.04056732729077339,-0.5173917412757874
13.010245561599731,1.2982769,0.38043058,-3.243846,-1.3027806322219577,nan,nan,nan,nan,3.009448766708374,0.0035457611083984375,0.18415377,-0.40351245,-0.53226554,0.04849139247429779,0.0008396194391779854,9.168031883147778,0.09451203,0.06336193,-1.2837862,1.4284083,0.43602198,-3.0,-1.2118818,0.19179441,-0.51122797,0.0,-0.031184288,0.025530247,9.817972,-0.010324392,0.036539316,-0.6266216,0.0034555802,0.7130667271006955,-0.18073275685310364,-0.02940322458744049,-0.2518835961818695
13.112571954727173,1.3127865,0.34478614,-3.2963102,-1.4158935623425202,nan,nan,nan,nan,3.111039161682129,0.0019521713256835938,0.2246865,-0.37972182,-0.5287027,0.05162729835609314,0.009058520375805124,9.11877706399304,-0.013126196,-0.016452478,-1.0186297,1.4465938,0.38257056,-3.0,-1.2724979,0.16616704,-0.54042846,0.0,-0.02736348,0.025858022,9.8169565,-0.009620204,0.038635027,-0.56866366,0.0029962617,0.7111217903577113,-0.25770050287246704,-0.10415744036436081,0.004699587821960449
13.20913815498352,1.3273268,0.3206153,-3.3352618,-1.4855178170545185,nan,nan,nan,nan,3.2079384326934814,0.0022318363189697266,0.25501904,-0.3613655,-0.5266404,0.04706835776203133,0.008886360540061311,9.084063225296559,-0.09031055,-0.08620418,-0.8091463,1.4614993,0.32900125,-3.0,-1.3253466,0.14144213,-0.56463784,0.0,-0.023533447,0.02612689,9.816068,-0.008673572,0.040373616,-0.52373326,0.0025521952,0.7097478794190414,-0.27859359979629517,-0.1697332113981247,0.11425918340682983
13.314341306686401,1.3589715,0.2822917,-3.4033024,-1.5754878261058582,nan,nan,nan,nan,3.31309175491333,0.002313852310180664,0.29588687,-0.3407332,-0.5184906,0.02892546584060074,-0.004444734529099437,9.017480708864754,-0.17766981,-0.17478052,-0.44451386,1.4749501,0.26842868,-3.0,-1.3783071,0.11434877,-0.58669746,0.0,-0.01920188,0.026369676,9.815222,-0.007374455,0.041958727,-0.48525485,0.0020646586,0.7071052975428684,-0.2701539695262909,-0.22426415979862213,0.3134160339832306
13.406137943267822,1.3814046,0.2598326,-3.4445758,-1.6088151622035065,nan,nan,nan,nan,3.398813486099243,0.0017724037170410156,0.30833426,-0.34067667,-0.5090623,0.014156338768409382,-0.01931718106105329,8.97222808709485,-0.19190517,-0.22034647,-0.23176624,1.4837995,0.2174873,-3.0,-1.4188218,0.09209554,-0.6013208,0.0,-0.0155584775,0.026529495,9.814641,-0.0061349305,0.043009985,-0.4610218,0.0016635895,0.7053037018099341,-0.2301638275384903,-0.19481337070465088,0.32277873158454895
13.508551836013794,1.4089308,0.2318999,-3.4921153,-1.6270314879191874,nan,nan,nan,nan,3.5072715282440186,0.002811908721923828,0.30707574,-0.3581575,-0.48852256,-0.003873195216342773,-0.040823132275457974,8.943248049524849,-0.19530629,-0.23299035,-0.014925133,1.4922535,0.15146163,-3.0,-1.4675311,0.06377345,-0.6153727,0.0,-0.010835622,0.026682239,9.81407,-0.0043795346,0.04402055,-0.43867314,0.0011524817,0.7041475623324726,-0.17647089064121246,-0.1782941222190857,0.2452763319015503
13.611142635345459,1.4386196,0.19454113,-3.543909,-1.6235410980029594,nan,nan,nan,nan,3.60986590385437,0.0029599666595458984,0.28234625,-0.40364084,-0.45027313,-0.02522194290069424,-0.0657925029508486,8.921504412499495,-0.17831409,-0.20525894,0.15671702,1.4974166,0.08784652,-3.0,-1.5117929,0.036860548,-0.6239937,0.0,-0.0062847366,0.026775554,9.813712,-0.0025781991,0.044640724,-0.42540804,0.00066630315,0.7032788837967449,-0.09012369811534882,-0.07183058559894562,0.09434983134269714
13.703532934188843,1.45671,0.16269723,-3.5775535,-1.6099729074434896,nan,nan,nan,nan,3.7023677825927734,0.0022780895233154297,0.2507451,-0.45038655,-0.41379026,-0.03931871583016966,-0.07841840096703412,8.905432557520696,-0.145978,-0.12080082,0.22171287,1.4997015,0.02992008,-3.0,-1.5508324,0.0125353895,-0.62781835,0.0,-0.0021405744,0.026816858,9.813552,-0.00088387984,0.04491591,-0.4196299,0.00022662076,0.7026361176330926,-0.052914101630449295,-0.027803834527730942,-0.09698829054832458
13.808481216430664,1.4723505,0.12124537,-3.6104724,-1.5901768661193425,nan,nan,nan,nan,3.807201862335205,0.0026955604553222656,0.20552744,-0.51000977,-0.36843693,-0.05253196716912878,-0.08383098814097245,8.900390936603076,-0.11506059,-0.02948042,0.22987664,1.4995694,-0.035927553,-3.0,-1.5947778,-0.015053621,-0.6275972,0.0,0.0025703653,0.026814472,9.8135605,0.0010609489,0.0449,-0.4199622,-0.00027214468,0.7024343671970129,0.0023261085152626038,0.04970134422183037,-0.3458045721054077
13.907617330551147,1.4849007,0.058543056,-3.645727,-1.5673014018616276,nan,nan,nan,nan,3.9065444469451904,0.002864837646484375,0.13606864,-0.5886651,-0.30956817,-0.0652101035908248,-0.07924499423671905,8.90662342304481,-0.070388794,0.09007336,0.15064637,1.4967762,-0.09807835,-3.0,-1.6367943,-0.04117145,-0.6229229,0.0,0.0070167216,0.02676398,9.813756,0.002873208,0.04456369,-0.4270374,-0.0007442037,0.7026837641347594,0.09000672399997711,0.16875506937503815,-0.61578369140625
14.003623008728027,1.4881855,-0.0030574044,-3.6708252,-1.557687804708869,nan,nan,nan,nan,4.0026140213012695,0.0016930103302001953,0.06955387,-0.6486832,-0.26442987,-0.06997843357306399,-0.06452533931336268,8.91778119886411,-0.01590383,0.19439514,0.017229073,1.4916103,-0.15754014,-3.0,-1.6784066,-0.066361435,-0.61430067,0.0,0.011270446,0.026670612,9.814114,0.0045467988,0.04394344,-0.4403462,-0.0011992109,0.7031300318388285,0.14375701546669006,0.22738692164421082,-0.8475308418273926
14.108886957168579,1.4832082,-0.07600344,-3.6936624,-1.5644525662339168,nan,nan,nan,nan,4.108055353164673,0.0038537979125976562,-0.004399457,-0.6952507,-0.22422853,-0.06767801830512876,-0.03989086868577796,8.931788119022974,0.056652218,0.28145674,-0.17500484,1.4831606,-0.22161421,-3.0,-1.7259434,-0.0938835,-0.60026234,0.0,0.015853656,0.026517956,9.814684,0.0062395423,0.04293388,-0.4627422,-0.0016958326,0.7036898592222214,0.20171615481376648,0.2365199476480484,-1.0538562536239624
14.215866565704346,1.4699003,-0.15192775,-3.7127302,-1.5930291922605078,nan,nan,nan,nan,4.214514493942261,0.0019068717956542969,-0.07344151,-0.7138017,-0.1911391,-0.05885219978256484,-0.012713348593193396,8.950894903783926,0.11622676,0.29147992,-0.39395437,1.4716947,-0.2845524,-3.0,-1.7768065,-0.12148549,-0.5813401,0.0,0.020354971,0.026310902,9.815431,0.0077407467,0.041573685,-0.4943857,-0.0021931683,0.7044528102387501,0.24808095395565033,0.2109001725912094,-1.198102593421936
14.303750276565552,1.4511286,-0.22106612,-3.7272305,-1.6399869755535244,nan,nan,nan,nan,4.302819728851318,0.0019605159759521484,-0.12663147,-0.704789,-0.16403824,-0.04470383506027975,0.010394852788603526,8.971069351529009,0.18477762,0.25746337,-0.59732527,1.4599626,-0.33506268,-3.0,-1.821905,-0.14419964,-0.5621307,0.0,0.023966858,0.026099168,9.816161,0.008791134,0.040193517,-0.5282545,-0.0026017632,0.7052575106858269,0.269302636384964,0.17089466750621796,-1.246716022491455
14.407982349395752,1.4260849,-0.2912524,-3.740169,-1.7123607882427678,nan,nan,nan,nan,4.406635522842407,0.0022754669189453125,-0.16419198,-0.6698113,-0.13550267,-0.02453534547970193,0.031275704018987494,8.995671255682833,0.23467872,0.19661596,-0.7987176,1.443617,-0.39208055,-3.0,-1.8792273,-0.17064878,-0.53562355,0.0,0.028043332,0.025804354,9.817127,0.009764646,0.03829008,-0.577919,-0.0030766607,0.7062375861053473,0.23828554153442383,0.09124727547168732,-1.255225658416748
14.509289026260376,1.3994534,-0.35454252,-3.7501097,-1.8037369953769584,nan,nan,nan,nan,4.509981393814087,0.0026221275329589844,-0.17516026,-0.6173373,-0.103691965,-0.004613739917548321,0.044491214355474096,9.00866890290869,0.22664909,0.111569315,-0.9582988,1.4246343,-0.4458973,-3.0,-1.9420067,-0.19665788,-0.5052144,0.0,0.031890094,0.025462255,9.818173,0.0104234805,0.036107894,-0.6390604,-0.0035426316,0.7067548372864306,0.1781623512506485,0.018435150384902954,-1.2128466367721558
14.610306978225708,1.3799635,-0.3974244,-3.7553658,-1.8844284048819548,nan,nan,nan,nan,4.609700918197632,0.004433870315551758,-0.16560528,-0.5719763,-0.075515606,0.009332611917758027,0.05127407585432375,9.03205186018837,0.20907658,0.04357453,-1.049332,1.4037865,-0.4946636,-3.0,-2.0091739,-0.22140566,-0.47228158,0.0,0.03537504,0.025086865,9.819231,0.010745002,0.033746257,-0.7100846,-0.003984996,0.7076844411225136,0.10703573375940323,-0.04909399896860123,-1.2332289218902588
14.704123258590698,1.3601676,-0.44188353,-3.7588184,-1.9900575548623602,nan,nan,nan,nan,4.703174352645874,0.0028209686279296875,-0.1362043,-0.51831263,-0.039239675,0.020017707786630923,0.051884721835675496,9.057992660199528,0.1271604,-0.05954243,-1.1204761,1.3820205,-0.5372484,-3.0,-2.079095,-0.24425332,-0.43841588,0.0,0.038417544,0.024695272,9.820239,0.01075621,0.031319395,-0.78775144,-0.0043924954,0.7087143267119563,0.012508736923336983,-0.1106041744351387,-1.164327621459961
14.801351070404053,1.3453864,-0.4798918,-3.758848,-2.1017227137777867,nan,nan,nan,nan,4.799912452697754,0.001664876937866211,-0.09771409,-0.47239682,-0.0018159704,0.02253266872704507,0.04496363878021237,9.102767706309683,0.041187443,-0.13741778,-1.1547183,1.3572638,-0.57785016,-3.0,-2.1596236,-0.26750433,-0.40054053,0.0,0.04131771,0.024250267,9.821268,0.010470195,0.02860705,-0.87880516,-0.004806302,0.71048849445897,-0.060111887753009796,-0.1527378112077713,-1.1212712526321411
14.903522491455078,1.3358334,-0.51576877,-3.7549002,-2.225691594196225,nan,nan,nan,nan,4.902312517166138,0.002698183059692383,-0.057556856,-0.43569648,0.036275707,0.016875564450877567,0.030083396517981198,9.147503357921964,-0.04877904,-0.1989924,-1.1596644,1.3286316,-0.61669004,-3.0,-2.2549548,-0.29163674,-0.3575897,0.0,0.04409137,0.023736078,9.82231,0.009844448,0.025533399,-0.9843355,-0.005234879,0.7122567488946462,-0.11062436550855637,-0.16855007410049438,-1.096927523612976
15.012542009353638,1.332001,-0.5459761,-3.7478032,-2.3400940820949367,nan,nan,nan,nan,5.011427640914917,0.002535581588745117,-0.032536708,-0.41358972,0.069164164,0.007060076719046293,0.011396072966131543,9.180865022634391,-0.09784037,-0.24186912,-1.1512591,1.2954329,-0.6530795,-3.0,-2.3687003,-0.31676048,-0.30893534,0.0,0.046689425,0.023140466,9.823333,0.008830939,0.022054069,-1.1002705,-0.0056801457,0.7135726138255089,-0.1374783217906952,-0.17462009191513062,-1.1937769651412964
15.102932453155518,1.3313731,-0.5582887,-3.7439127,-2.3875573304629985,nan,nan,nan,nan,5.102027654647827,0.002772092819213867,-0.02724541,-0.4075069,0.08180912,0.002645109251830924,0.002098050596474277,9.22771211752785,-0.110557824,-0.23048279,-1.1524432,1.2658086,-0.67916197,-3.0,-2.472553,-0.33712053,-0.26655856,0.0,0.04855122,0.022609456,9.824085,0.007739866,0.019025529,-1.190527,-0.0060403785,0.715416347666693,-0.16826677322387695,-0.23051001131534576,-1.5040867328643799
15.207403659820557,1.3308173,-0.5780434,-3.7366376,-2.463638855681115,nan,nan,nan,nan,5.206125020980835,0.0022509098052978516,-0.026362734,-0.40048155,0.098597236,-0.005563465091225739,-0.012472463522563926,9.26364835122717,-0.17239386,-0.2642915,-1.163895,1.2295232,-0.70429385,-3.0,-2.601088,-0.35991257,-0.21598928,0.0,0.05034484,0.021959603,9.824815,0.006240051,0.015413426,-1.2742082,-0.006443115,0.7168274992051189,-0.2055266797542572,-0.20165124535560608,-1.7853455543518066
15.308678150177002,1.3291157,-0.60842216,-3.7243922,-2.5826773075360427,nan,nan,nan,nan,5.30733585357666,0.002300739288330078,-0.04818929,-0.39256436,0.10587065,-0.02360246927033982,-0.038813200203736686,9.296209000443344,-0.25744545,-0.24097878,-1.2722336,1.1920023,-0.7235979,-3.0,-2.7327645,-0.38141704,-0.16524464,0.0,0.051722318,0.021288177,9.825363,0.004569899,0.011790526,-1.3210824,-0.0068227253,0.718103735900628,-0.16594268381595612,-0.08629050105810165,-1.862473726272583
15.407868146896362,1.322159,-0.6421568,-3.7102158,-2.725301601940088,nan,nan,nan,nan,5.406712532043457,0.002326488494873047,-0.10408896,-0.37690562,0.10958842,-0.04140999941804968,-0.06030259490196532,9.331695198511007,-0.21543567,-0.11983541,-1.4322003,1.1530768,-0.7374941,-3.0,-2.864573,-0.40186504,-0.114262395,0.0,0.052713793,0.020592134,9.825729,0.002772592,0.008152,-1.3240997,-0.0071835024,0.7194920987799739,-0.09509561210870743,-0.004325072281062603,-1.8089580535888672
15.50461483001709,1.3076729,-0.6726399,-3.6963568,-2.8702002321785107,nan,nan,nan,nan,5.5033488273620605,0.0025451183319091797,-0.1745989,-0.3496478,0.11422697,-0.04915978862605663,-0.07396202919211414,9.362641352211357,-0.13953976,-0.05389103,-1.5651592,1.1133081,-0.7461085,-3.0,-2.9909348,-0.4210818,-0.06392361,0.0,0.053328354,0.019881472,9.825908,0.0009221166,0.0045603043,-1.2844012,-0.0075225416,0.7207006835593328,-0.043268006294965744,0.03829238936305046,-1.685316562652588
15.607196807861328,1.2819651,-0.70292187,-3.6808896,-3.0376291481696835,nan,nan,nan,nan,5.605951547622681,0.00260162353515625,-0.25932875,-0.30909857,0.12148221,-0.04487475895148396,-0.08366024335484079,9.39179004112375,-0.033922948,-0.007469077,-1.6522869,1.0690893,-0.7499045,-3.0,-3.1188476,-0.44072926,-0.010026169,0.0,0.053599164,0.019091731,9.825899,-0.0010993627,0.00071524514,-1.203244,-0.007869336,0.7218372439786684,-0.028947193175554276,0.08700892329216003,-1.4412648677825928
15.703252792358398,1.2542675,-0.72327226,-3.66824,-3.1694863447970034,nan,nan,nan,nan,5.702014207839966,0.002458810806274414,-0.32580733,-0.27519733,0.12934141,-0.034373879882650504,-0.08732645283259788,9.419303689693336,0.022472732,0.022450367,-1.6659789,1.0258976,-0.7484395,-3.0,3.0534453,-0.45838726,0.04051063,0.0,0.05349465,0.018320696,9.825703,-0.0029933983,-0.002889973,-1.1026224,-0.008181308,0.7229084342019361,-0.04574001207947731,0.06840749830007553,-1.2569384574890137
15.808176040649414,1.2013667,-0.74859655,-3.6484222,-3.362664480296699,nan,nan,nan,nan,5.806985855102539,0.0025970935821533203,-0.42280266,-0.22819935,0.14038837,-0.01260271447651573,-0.08680732930332824,9.44758580366266,0.044153493,0.05941538,-1.5850024,0.9768038,-0.7413003,-3.0,2.9440832,-0.4768335,0.09542314,0.0,0.052985337,0.01744462,9.825282,-0.0050057457,-0.0068077263,-0.97992766,-0.008507687,0.7240079137599691,-0.13569574058055878,0.11757133901119232,-0.8144162893295288
15.905674457550049,1.1592737,-0.76214784,-3.6348732,-3.4822896551719866,nan,nan,nan,nan,5.904443264007568,0.002759218215942383,-0.48382378,-0.20066684,0.14250104,-0.0006938083539222983,-0.08175470337346447,9.469247214888457,0.02708742,0.04761797,-1.464494,0.9295317,-0.7295415,-3.0,2.8542092,-0.4931348,0.14575358,0.0,0.052146394,0.016601289,9.824707,-0.0067675533,-0.010399343,-0.8649804,-0.008796681,0.7248488981317445,-0.17460426688194275,0.03904826566576958,-0.590733528137207
16.003530025482178,1.1019607,-0.77559,-3.6188076,-3.610365883482392,nan,nan,nan,nan,6.002241611480713,0.0029764175415039062,-0.553547,-0.17084663,0.13798164,0.009224113202689344,-0.07740934693495305,9.486660642122155,-0.03375861,0.03006256,-1.2656597,0.88053775,-0.7128558,-3.0,2.775032,-0.50866705,0.19528323,0.0,0.05095582,0.015727378,9.823965,-0.008383601,-0.013934937,-0.7555975,-0.009072682,0.7255242612325737,-0.2645498514175415,0.026048043742775917,-0.3000424802303314
16.10554337501526,1.0321571,-0.78703636,-3.602703,-3.7248497224405535,nan,nan,nan,nan,6.1042985916137695,0.002500772476196289,-0.62445486,-0.13691592,0.12290313,0.00933344197960162,-0.07380786291212371,9.49843162777019,-0.11680917,1.9467072e-05,-1.002392,0.8278359,-0.69034606,-3.0,2.7033198,-0.52396524,0.24556793,0.0,0.049349446,0.014787398,9.823032,-0.009860374,-0.017525958,-0.65164226,-0.009345279,0.7259804365857776,-0.3163239657878876,0.005331113003194332,-0.03582125902175903
16.211458683013916,0.94896084,-0.79483926,-3.5874522,-3.8165783300498726,nan,nan,nan,nan,6.210429668426514,0.0029342174530029297,-0.69128627,-0.08940413,0.10058872,-0.001988066224611895,-0.07519824521704765,9.505064809286269,-0.19596566,-0.03436485,-0.6956909,0.77142745,-0.6615911,-3.0,2.6393483,-0.5388581,0.29595184,0.0,0.047297027,0.01378129,9.821916,-0.011122441,-0.021126006,-0.5560169,-0.009611521,0.7262373758366886,-0.3208083510398865,0.01357283815741539,0.17041373252868652
16.303098440170288,0.8791358,-0.79606116,-3.5774727,-3.8651468931686193,nan,nan,nan,nan,6.301796197891235,0.0024530887603759766,-0.73448056,-0.03752673,0.081730284,-0.017351891826031585,-0.07863637977077809,9.506971197976963,-0.2263952,-0.051737007,-0.46298027,0.72164106,-0.63264036,-3.0,2.591919,-0.5508274,0.33746803,0.0,0.04523023,0.012893209,9.82086,-0.011954218,-0.024094177,-0.48369518,-0.009826214,0.7263112040675317,-0.28530845046043396,0.0054856231436133385,0.2530836760997772
16.410304307937622,0.80054176,-0.79078364,-3.5683703,-3.89643587108604,nan,nan,nan,nan,6.4090025424957275,0.0028591156005859375,-0.7693033,0.03630646,0.06451381,-0.036802298227642805,-0.08339493222106853,9.505963977101489,-0.22898524,-0.038698718,-0.23452283,0.6618814,-0.5939605,-3.0,2.5441344,-0.5638418,0.38364464,0.0,0.042468276,0.011827049,9.81954,-0.012600667,-0.027397681,-0.4095706,-0.010060488,0.7262721986027934,-0.23208211362361908,0.027658462524414062,0.2696743309497833
16.508357048034668,0.7343759,-0.7797273,-3.5618281,-3.9076027999929055,nan,nan,nan,nan,6.498541355133057,0.00266265869140625,-0.7875207,0.11070858,0.055015963,-0.053393517417263725,-0.08495700044383536,9.50462338678655,-0.2107032,-0.0014354386,-0.07644335,0.61094177,-0.55797124,-3.0,2.5099332,-0.5738414,0.41985652,0.0,0.039897848,0.010918049,9.818398,-0.012852211,-0.029990075,-0.3554633,-0.010241148,0.7262202799240013,-0.17207852005958557,0.04068583622574806,0.23920056223869324
16.603883504867554,0.64177364,-0.7525989,-3.5533876,-3.905721175178634,nan,nan,nan,nan,6.6034181118011475,0.004088401794433594,-0.79560083,0.22924577,0.049941808,-0.07444693523561852,-0.08259831422831176,9.502978557442544,-0.15944959,0.047313664,0.08483646,0.5501889,-0.51184225,-3.0,2.4756405,-0.5845265,0.45925456,0.0,0.036602467,0.009833658,9.81705,-0.012803129,-0.03281253,-0.2997638,-0.010434893,0.7261565736062406,-0.053066499531269073,0.10944467782974243,0.155721515417099
16.705074071884155,0.5705001,-0.72108704,-3.546818,-3.8950544335876467,nan,nan,nan,nan,6.704308986663818,0.0029342174530029297,-0.78841454,0.32860202,0.05199092,-0.08582427696586747,-0.0744746021708127,9.503165590373099,-0.09018119,0.10369407,0.15819311,0.4907418,-0.46373558,-3.0,2.4478185,-0.59374124,0.4938151,0.0,0.033164952,0.008772254,9.815776,-0.01240557,-0.035290256,-0.25272954,-0.010602606,0.7261638179056472,0.016158156096935272,0.11001963913440704,0.05042213201522827
16.811108589172363,0.5016174,-0.68038386,-3.5400114,-3.8806433905991082,nan,nan,nan,nan,6.811861515045166,0.006260871887207031,-0.77016497,0.42668507,0.057330236,-0.09179220549253353,-0.06270262164572604,9.504413461704972,-0.022791803,0.12831597,0.1865794,0.4264073,-0.40881538,-3.0,2.423071,-0.60239655,0.52676934,0.0,0.029239614,0.007623226,9.814481,-0.011613974,-0.03765454,-0.2083641,-0.010760713,0.7262121495673621,0.08285294473171234,0.08697642385959625,-0.062061578035354614
16.904825687408447,0.42475328,-0.621541,-3.5312386,-3.863412641656386,nan,nan,nan,nan,6.904054641723633,0.0037965774536132812,-0.73678064,0.5345455,0.06440413,-0.09166513086662698,-0.04760759802667813,9.506414466147543,0.049275402,0.1280949,0.17005537,0.37056625,-0.35908028,-3.0,2.4054608,-0.6088433,0.55162495,0.0,0.025684094,0.006625589,9.813453,-0.010650117,-0.039438967,-0.17418608,-0.010878863,0.7262896444205797,0.1694970279932022,0.09212362766265869,-0.17517158389091492
17.01112699508667,0.3495447,-0.54591274,-3.5209224,-3.8502809390462676,nan,nan,nan,nan,7.010293960571289,0.003977298736572266,-0.6907629,0.63535017,0.07009838,-0.0813552879479893,-0.032363652797496645,9.508890448698077,0.14093937,0.11868402,0.103853084,0.30553782,-0.29913223,-3.0,2.3888907,-0.61514586,0.5761802,0.0,0.021397602,0.0054634814,9.812393,-0.009241779,-0.041202888,-0.13831387,-0.010994708,0.7263855229260451,0.2284628301858902,0.06649620085954666,-0.26715564727783203
17.10762858390808,0.30080557,-0.48555872,-3.5135698,-3.8467706281166087,nan,nan,nan,nan,7.106718301773071,0.004988908767700195,-0.65592307,0.6938181,0.07289834,-0.0687075497754821,-0.024432010805686577,9.510885244832608,0.18435794,0.07973539,0.03734723,0.2459899,-0.24265957,-3.0,2.377017,-0.619812,0.59452283,0.0,0.017358892,0.0043990333,9.811574,-0.0077211224,-0.042521235,-0.10831865,-0.011080698,0.7264627591699235,0.2450721263885498,0.019743576645851135,-0.30247917771339417
17.208382606506348,0.24700569,-0.40826133,-3.5053163,-3.8499742314986776,nan,nan,nan,nan,7.207494497299194,0.0036399364471435547,-0.61797154,0.74682087,0.07484937,-0.04916963224359816,-0.01885959938602899,9.512975061574252,0.22050944,0.03755659,-0.04700704,0.18332642,-0.18195207,-3.0,2.367596,-0.62360823,0.609548,0.0,0.013016694,0.0032786492,9.810884,-0.005927153,-0.043601613,-0.07893949,-0.0111508025,0.7265436658168184,0.23735173046588898,-0.019423406571149826,-0.3026459515094757
17.3126003742218,0.1854695,-0.30773428,-3.495448,-3.864494564546577,nan,nan,nan,nan,7.311909198760986,0.003976345062255859,-0.5844889,0.7867729,0.075556524,-0.021825214427556583,-0.018000778936975603,9.515429952108535,0.22840303,-0.010969793,-0.13466622,0.11805828,-0.117692046,-3.0,2.3608742,-0.6263695,0.62053424,0.0,0.008419863,0.002111488,9.81037,-0.0038989815,-0.04439184,-0.050018676,-0.011201878,0.7266386948390852,0.19468581676483154,-0.015244920738041401,-0.24844256043434143
17.407554388046265,0.14612433,-0.24050082,-3.4893548,-3.8790369541382583,nan,nan,nan,nan,7.406841516494751,0.0039098262786865234,-0.5746035,0.7986064,0.07577658,-0.0038985534537385735,-0.019628270506382606,9.519317647070853,0.21330667,-0.027324578,-0.17354895,0.058517966,-0.05847342,-3.0,2.357338,-0.6278402,0.626406,0.0,0.00418335,0.0010466306,9.810092,-0.001954442,-0.04481429,-0.024580492,-0.011229114,0.7267891627685719,0.14906075596809387,-0.03518811613321304,-0.18107503652572632
17.505172729492188,0.098665655,-0.16127415,-3.4827566,-3.8989838132627193,nan,nan,nan,nan,7.5036301612854,0.0017406940460205078,-0.5773816,0.79938823,0.07567626,0.014875829195240442,-0.0217065823473912,9.52452630303916,0.16531804,-0.020556327,-0.19403407,-0.0022814386,0.0022814358,-3.0,2.3561964,-0.62831783,0.6283156,0.0,-0.00016322116,-4.080534e-05,9.81,7.64752e-05,-0.044951692,0.0009556509,-0.011237963,0.7269907085406948,0.06770985573530197,-0.025603383779525757,-0.08283745497465134
17.613293170928955,0.04089351,-0.07197892,-3.4754505,-3.9216935680605847,nan,nan,nan,nan,7.611968755722046,0.0022089481353759766,-0.59685135,0.7867336,0.0755046,0.02994377686639349,-0.024121924603165867,9.529300698043075,0.09587378,-0.027672533,-0.17734052,-0.070326895,0.07024956,-3.0,2.3578475,-0.6276276,0.62555623,0.0,-0.005025834,-0.0012578359,9.810132,0.0023450453,-0.04475315,0.029577546,-0.011225175,0.7271754024456334,-0.02444666624069214,0.0062706358730793,0.04073254391551018
17.707890033721924,-0.007826142,-0.004407541,-3.4698815,-3.9363556071653742,nan,nan,nan,nan,7.706537961959839,0.002827167510986328,-0.62134576,0.7715184,0.07497331,0.035853048043362534,-0.02536320684170401,9.535258554668395,0.022643007,0.0017352481,-0.13908547,-0.12961037,0.12912562,-3.0,2.3618433,-0.6259686,0.6189363,0.0,-0.009237794,-0.0023180817,9.810445,0.0042673685,-0.04427689,0.055042084,-0.011194459,0.7274058127992341,-0.08370135724544525,0.02937466651201248,0.13935895264148712
17.80174684524536,-0.06497565,0.06693749,-3.4636931,-3.946802970515586,nan,nan,nan,nan,7.800257682800293,0.001714468002319336,-0.65070647,0.75341964,0.07307211,0.03479999587633298,-0.02318908130153141,9.541275286861925,-0.047093645,0.030681113,-0.074215,-0.18816078,0.18667454,-3.0,2.3682165,-0.62335557,0.60854495,0.0,-0.013354495,-0.003365092,9.810931,0.0060715587,-0.04352947,0.08114159,-0.011146132,0.7276384270272453,-0.1255582720041275,0.05225127562880516,0.22956496477127075
17.9068500995636,-0.13118735,0.14201282,-3.4577043,-3.9496139212185097,nan,nan,nan,nan,7.90596604347229,0.003797769546508789,-0.67745245,0.7347403,0.06998556,0.026654641885013985,-0.018048096451128037,9.546587808356854,-0.105462395,0.06319763,0.013582485,-0.25384885,0.25018737,-3.0,2.3784153,-0.6192558,0.59232885,0.0,-0.017897287,-0.0045395303,9.811672,0.007933011,-0.042363513,0.11214745,-0.011070438,0.7278437546461156,-0.13635653257369995,0.06152043491601944,0.30765774846076965
18.010526418685913,-0.18469676,0.1982869,-3.4536479,-3.945136980348752,nan,nan,nan,nan,8.009591102600098,0.0037343502044677734,-0.6906462,0.7223288,0.066639595,0.017735388697819543,-0.012998867082131715,9.549770966657668,-0.11780693,0.06347016,0.085673355,-0.31776017,0.31054842,-3.0,2.3917055,-0.61405843,0.5719254,0.0,-0.022213966,-0.0056819296,9.81258,0.009527975,-0.040897172,0.14478089,-0.010974696,0.7279667555428811,-0.12708339095115662,0.04379884898662567,0.3698829114437103
18.111071586608887,-0.26179433,0.2746951,-3.4490128,-3.929280400388154,nan,nan,nan,nan,8.109848022460938,0.0031702518463134766,-0.6960218,0.70834213,0.061631735,0.004411978382073967,-0.006070882217792617,9.551833961663066,-0.11357638,0.06545468,0.18397439,-0.37902555,0.36672577,-3.0,2.4079173,-0.607929,0.5480834,0.0,-0.026230706,-0.006776737,9.8136015,0.0108115245,-0.03918466,0.17914237,-0.010862085,0.728046461094172,-0.08542350679636002,0.05705973133444786,0.39941635727882385
18.21321678161621,-0.3230467,0.33349627,-3.4465287,-3.9095347204755133,nan,nan,nan,nan,8.212350606918335,0.0030548572540283203,-0.68982095,0.7004324,0.057228114,-0.0045599256247341735,-0.0011208310304950952,9.553317942648427,-0.087612346,0.054426476,0.25488105,-0.44097155,0.4214856,-3.0,2.428231,-0.60055393,0.5197139,0.0,-0.030145282,-0.00788338,9.814764,0.011824329,-0.037148196,0.21789502,-0.010727006,0.7281037906280947,-0.04467879608273506,0.05119473859667778,0.434514582157135
18.31873059272766,-0.40047786,0.40757602,-3.4445558,-3.876478929775921,nan,nan,nan,nan,8.318198919296265,0.004826545715332031,-0.6714921,0.69292575,0.052281097,-0.011417778740677509,0.005413857644921194,9.553947642167332,-0.0369381,0.05857034,0.32911852,-0.5040848,0.47476816,-3.0,2.4536195,-0.59177667,0.4864015,0.0,-0.033953365,-0.009010518,9.816056,0.01252372,-0.034758605,0.26272902,-0.010566798,0.7281281159957808,0.010618925094604492,0.05689466372132301,0.44022417068481445
18.40535616874695,-0.45499203,0.4601289,-3.4435332,-3.848392201331812,nan,nan,nan,nan,8.40423059463501,0.0028994083404541016,-0.6534876,0.6873052,0.04950199,-0.012553768916333308,0.010410319505003818,9.553961136388827,0.0013871613,0.055840697,0.37332338,-0.5546575,0.51534486,-3.0,2.4779482,-0.583785,0.45649716,0.0,-0.036852717,-0.00991343,9.817148,0.0128193125,-0.032614917,0.30357596,-0.010421424,0.7281286372703965,0.045096345245838165,0.04942093789577484,0.4582495093345642
18.513270616531372,-0.52929,0.53285235,-3.4418342,-3.8042332053725874,nan,nan,nan,nan,8.512366771697998,0.003699779510498047,-0.6244696,0.67547345,0.046297405,-0.008890939340292503,0.01690325966108852,9.55385569767212,0.049933217,0.0483306,0.41930038,-0.61719596,0.56252843,-3.0,2.5138452,-0.57266587,0.41556665,0.0,-0.040223364,-0.0110296635,9.818539,0.012835933,-0.02968288,0.36171153,-0.010219879,0.7281245642189208,0.07834958285093307,0.04468671232461929,0.4741705656051636
18.603165864944458,-0.58487904,0.5889319,-3.4404788,-3.766501777097253,nan,nan,nan,nan,8.601593971252441,0.001806497573852539,-0.6002153,0.660434,0.04476027,-0.002126150409375027,0.02126598634050203,9.554180564080601,0.082455866,0.043374576,0.4486762,-0.66785014,0.5980027,-3.0,2.548511,-0.56260556,0.37921187,0.0,-0.042756937,-0.011933547,9.819674,0.012553275,-0.027080452,0.41642165,-0.010038194,0.7281371135940297,0.097835473716259,0.031041566282510757,0.5094640254974365
18.70873188972473,-0.64664847,0.65323716,-3.4382153,-3.7192369861819805,nan,nan,nan,nan,8.707468509674072,0.002371072769165039,-0.5720871,0.6340615,0.044176485,0.009233495221451893,0.024791515897322425,9.555448819753952,0.11047988,0.02393441,0.4753465,-0.72673935,0.6357481,-3.0,2.5964327,-0.5496501,0.3333439,0.0,-0.045452107,-0.012984156,9.820971,0.011881301,-0.023799244,0.49062815,-0.009805064,0.7281861034320884,0.10149233043193817,0.016197819262742996,0.580826461315155
18.802856922149658,-0.69598645,0.7051763,-3.435537,-3.676949880008695,nan,nan,nan,nan,8.801514387130737,0.0021910667419433594,-0.550789,0.6030652,0.04372946,0.0206028681239121,0.025777862511408456,9.55768749008072,0.12214336,0.007703231,0.5017148,-0.7778548,0.6650933,-3.0,2.6460507,-0.5372345,0.2903903,0.0,-0.047547024,-0.0138959335,9.822048,0.010995665,-0.020728512,0.56614304,-0.009582448,0.7282725702520606,0.10066176950931549,0.0004117162898182869,0.6831650137901306
18.91253662109375,-0.75586545,0.76636773,-3.4313254,-3.6190552959503934,nan,nan,nan,nan,8.911643981933594,0.0035533905029296875,-0.5300586,0.55125386,0.04163765,0.03646386697563497,0.02379736556764933,9.561929367874988,0.13085073,-0.016213696,0.55281866,-0.8361717,0.6941998,-3.0,2.7138329,-0.5216376,0.23782106,0.0,-0.04962448,-0.014936073,9.823188,0.009645591,-0.016972607,0.66711926,-0.00930375,0.7284363815625832,0.06499859690666199,0.004932045005261898,0.8255395889282227
19.004310607910156,-0.8017365,0.8097131,-3.4282851,-3.5687761690586237,nan,nan,nan,nan,9.003564834594727,0.005372524261474609,-0.5200448,0.5014552,0.038526632,0.047901566940514284,0.0209868702646272,9.564475049172765,0.10486125,-0.007314136,0.61180836,-0.8834894,0.7139815,-3.0,2.7794385,-0.5077682,0.19237524,0.0,-0.051036146,-0.01578002,9.824014,0.008292695,-0.0137273185,0.76184916,-0.009056691,0.7285346723213662,0.04447861388325691,0.0006653927266597748,0.9856981039047241
19.10485053062439,-0.85112286,0.8513044,-3.4253852,-3.507307211383224,nan,nan,nan,nan,9.103538990020752,0.0025968551635742188,-0.51402557,0.43946522,0.032627657,0.05873870428664141,0.01625753568871735,9.567204286364145,0.09680164,-0.01859643,0.6960858,-0.93346363,0.7306888,-3.0,2.8611522,-0.49182993,0.14166248,0.0,-0.052228257,-0.016671428,9.82476,0.006628287,-0.010107363,0.874242,-0.008773525,0.7286400357895005,0.01062016747891903,0.01643846556544304,1.1855077743530273
19.20260715484619,-0.9000921,0.8861761,-3.4234192,-3.436485450506737,nan,nan,nan,nan,9.201395034790039,0.0023849010467529297,-0.5121133,0.37024343,0.02287023,0.06741409972799883,0.010774598876340136,9.569309315491704,0.06573258,-0.0068380525,0.8091147,-0.9807946,0.7420819,-3.0,2.952339,-0.47539392,0.09105979,0.0,-0.053041093,-0.017515829,9.825323,0.004848672,-0.0064963955,0.9899002,-0.0084821945,0.7287212911503057,-0.021236682310700417,0.03303714841604233,1.3904833793640137
19.3023042678833,-0.9448396,0.9116673,-3.4227126,-3.360838042437578,nan,nan,nan,nan,9.300949096679688,0.002202749252319336,-0.5124233,0.30187508,0.009939976,0.07231578406089878,0.0061380485461144385,9.567806124199418,0.044871256,0.007396799,0.93880355,-1.0272555,0.74855727,-3.0,3.0567186,-0.45785335,0.038953483,0.0,-0.05350305,-0.018344931,9.825711,0.0029354326,-0.002778886,1.1059577,-0.008171872,0.7286632679958995,-0.030228016898036003,0.03969842195510864,1.6274653673171997
19.415547132492065,-1.0067075,0.9362782,-3.423932,-3.2373458107541024,nan,nan,nan,nan,9.414976358413696,0.004126310348510742,-0.5131864,0.20408446,-0.01460775,0.07674136987920255,-0.001411775710349339,9.561330976892501,0.02731069,0.014903572,1.150183,-1.0782719,0.7495794,-3.0,-3.093462,-0.43678656,-0.02103908,0.0,-0.053575974,-0.019255698,9.825918,0.00068505487,0.0015008862,1.2224689,-0.007799721,0.7284132753165391,-0.0641888678073883,0.07549824565649033,1.791896104812622
19.50442862510681,-1.0486665,0.9457341,-3.4263928,-3.140197534037883,nan,nan,nan,nan,9.503257513046265,0.0024750232696533203,-0.5133302,0.13692032,-0.03398644,0.07777921182761438,-0.006405624126286202,9.549583628807454,0.01528445,0.035662185,1.306017,-1.1160862,0.7456746,-3.0,-2.9824343,-0.4197894,-0.06738291,0.0,-0.053297408,-0.019931104,9.825902,-0.0010508932,0.004807106,1.2883645,-0.0074997363,0.7279595171607247,-0.0526057705283165,0.05412331596016884,1.9162967205047607
19.609124660491943,-1.1039026,0.95019466,-3.4313073,-2.9953261676874523,nan,nan,nan,nan,9.607815504074097,0.002849578857421875,-0.51129484,0.049799033,-0.059108,0.07754398771415572,-0.015165935036318468,9.53477000195184,0.011345406,0.0160003,1.5076424,-1.1588942,0.7357794,-3.0,-2.8453162,-0.39891803,-0.12177417,0.0,-0.052591454,-0.020696128,9.825686,-0.0030432355,0.008688035,1.3264891,-0.0071315127,0.727386921532378,-0.05283154547214508,0.0858847126364708,1.9332282543182373
19.7088680267334,-1.1515352,0.9475174,-3.4369636,-2.8570899145468536,nan,nan,nan,nan,9.698982000350952,0.0026519298553466797,-0.50841236,-0.0225323,-0.07790604,0.07517439064026044,-0.02293187164262056,9.515833802107956,-0.0093370145,0.045430914,1.6609282,-1.1944087,0.72254336,-3.0,-2.7244205,-0.3800939,-0.16845194,0.0,-0.05164708,-0.021331226,9.825334,-0.004679432,0.0120194685,1.3193805,-0.006799377,0.7266543267328379,-0.029097752645611763,0.07563505321741104,1.862241268157959
19.815719604492188,-1.2131957,0.93534005,-3.4455044,-2.6642687634983107,nan,nan,nan,nan,9.816050052642822,0.0027763843536376953,-0.502429,-0.11098067,-0.0935121,0.0691757816996792,-0.03337277826583818,9.488682916049147,-0.009537882,0.026285818,1.8043727,-1.2374516,0.69938266,-3.0,-2.5729973,-0.35511297,-0.22691314,0.0,-0.049994364,-0.02210155,9.824673,-0.0065796706,0.016193543,1.2589139,-0.0063583455,0.7256026530045403,0.014756890013813972,0.10009277611970901,1.647290825843811
19.91363549232483,-1.2662368,0.91711825,-3.4531395,-2.4898787145324297,nan,nan,nan,nan,9.91250467300415,0.00255584716796875,-0.49535614,-0.1827163,-0.09780121,0.06172013047154823,-0.04034281564381215,9.470397055629874,-0.017281974,0.056523968,1.8536162,-1.2706847,0.6752376,-3.0,-2.4553492,-0.33388636,-0.2734664,0.0,-0.048271112,-0.022696836,9.823971,-0.007929109,0.019519102,1.1768339,-0.0059831883,0.7248935127422629,0.06027228385210037,0.06409308314323425,1.3427261114120483
20.004286766052246,-1.3100406,0.8969467,-3.459307,-2.3436236484114294,nan,nan,nan,nan,10.003075122833252,0.002889394760131836,-0.487966,-0.23867251,-0.096927166,0.054628233891365285,-0.046442185564935734,9.453710132126,-0.0027344178,0.04379254,1.8330806,-1.3000034,0.6485505,-3.0,-2.3528519,-0.31345788,-0.3155605,0.0,-0.046366107,-0.02322243,9.823203,-0.008985272,0.0225277,1.0850385,-0.0056216633,0.7242457828503245,0.11094624549150467,0.025581613183021545,1.0799634456634521
20.10674023628235,-1.3658282,0.8646007,-3.4670627,-2.160392069044443,nan,nan,nan,nan,10.10525631904602,0.002099752426147461,-0.4772832,-0.30860868,-0.0944806,0.04562131905959643,-0.05539016211700698,9.436550317142393,0.008494918,-0.0233584,1.7142395,-1.3308325,0.6139709,-3.0,-2.2475343,-0.28987068,-0.36085865,0.0,-0.043897208,-0.023775583,9.822236,-0.009901768,0.025767257,0.976321,-0.005203545,0.7235791004430231,0.16624584794044495,0.04243461787700653,0.671326756477356
20.204825162887573,-1.416058,0.8292245,-3.4743686,-2.0062975768564315,nan,nan,nan,nan,10.203785419464111,0.002794027328491211,-0.46706858,-0.37332606,-0.09625554,0.03934927727242865,-0.06476879105178335,9.415258188728476,0.038399216,-0.049114674,1.52304,-1.3582517,0.5763658,-3.0,-2.1563797,-0.26662314,-0.40203872,0.0,-0.041211694,-0.024268016,9.821229,-0.010486651,0.028714301,0.8751453,-0.004790635,0.722751028713079,0.20485353469848633,0.03601555526256561,0.3298647999763489
20.301878213882446,-1.4707137,0.78247386,-3.4844275,-1.859021001180793,nan,nan,nan,nan,10.300382852554321,0.0018498897552490234,-0.4524385,-0.45031834,-0.11129364,0.0353791028839201,-0.07198598401726741,9.397565065209056,0.060492877,-0.017538484,1.2280248,-1.3828882,0.53568566,-3.0,-2.0762968,-0.24339004,-0.43975586,0.0,-0.038305905,-0.024710879,9.8202,-0.01076097,0.031415388,0.7846008,-0.0043771146,0.7220622132438651,0.22582872211933136,0.05922683700919151,-0.018043994903564453
20.40437960624695,-1.5188826,0.73306805,-3.4956002,-1.7575477649128324,nan,nan,nan,nan,10.40384292602539,0.002718210220336914,-0.43466198,-0.5218035,-0.13274686,0.03512476717059465,-0.07581347243032344,9.378731600377943,0.07553924,-0.009035249,0.9216579,-1.4067631,0.4882344,-3.0,-1.9996257,-0.21806568,-0.4769538,0.0,-0.03491564,-0.025140442,9.819086,-0.010719939,0.03408121,0.6997202,-0.003925353,0.7213282900160743,0.24585644900798798,0.05015988647937775,-0.19586282968521118
20.507201194763184,-1.5661398,0.6753202,-3.508892,-1.6861688699695083,nan,nan,nan,nan,10.505966186523438,0.0020520687103271484,-0.41108012,-0.59503514,-0.15555903,0.03917908855472019,-0.07682223181533376,9.354913497600938,0.117715396,0.02427559,0.6128299,-1.4277389,0.43780026,-3.0,-1.9318966,-0.1926669,-0.5101602,0.0,-0.03131138,-0.025518186,9.818007,-0.010343008,0.03646271,0.62881774,-0.0034712001,0.7203990638501596,0.25696486234664917,0.06398820132017136,-0.2779272198677063
20.617263078689575,-1.6198401,0.5935519,-3.5279982,-1.6362285054208114,nan,nan,nan,nan,10.616457223892212,0.0034728050231933594,-0.36540127,-0.6828424,-0.17437369,0.052767816130776635,-0.07423634704602056,9.33151063207188,0.17101116,0.049112283,0.27773467,-1.4474903,0.3796385,-3.0,-1.866021,-0.16479136,-0.54187775,0.0,-0.027153866,-0.025874194,9.816904,-0.009574129,0.038739074,0.56589407,-0.0029715772,0.7194848846338874,0.21421422064304352,0.11913454532623291,-0.2797432541847229
20.707873106002808,-1.6519189,0.5336155,-3.542096,-1.6229049865541698,nan,nan,nan,nan,10.70730209350586,0.005112648010253906,-0.32269123,-0.7363109,-0.17771222,0.06578462455353229,-0.06868954408631578,9.311862317059424,0.18349835,0.098723695,0.10319758,-1.4614093,0.3293602,-3.0,-1.8165792,-0.14160518,-0.564491,0.0,-0.023559114,-0.026125263,9.816073,-0.008680603,0.040363062,0.5239973,-0.0025551263,0.7187164826968855,0.18538643419742584,0.11610303074121475,-0.1843305230140686
20.814262866973877,-1.6870582,0.4499925,-3.560731,-1.6229121285148134,nan,nan,nan,nan,10.813202619552612,0.0025267601013183594,-0.2506339,-0.7958745,-0.1696065,0.08534841574074314,-0.05787406838819131,9.286955192420868,0.18548828,0.12204293,-0.05278163,-1.474963,0.26836312,-3.0,-1.7632314,-0.11431984,-0.58671856,0.0,-0.01919719,-0.026369907,9.815221,-0.0073729376,0.04196024,0.48521918,-0.0020641375,0.7177412542816479,0.08656904846429825,0.14212191104888916,-0.024151861667633057
20.908084869384766,-1.7111148,0.36786237,-3.576731,-1.63185749921502,nan,nan,nan,nan,10.90682578086853,0.0029649734497070312,-0.16763298,-0.83961844,-0.15208587,0.10080841063646517,-0.043811480145299564,9.26586075041094,0.12418763,0.1635794,-0.110796586,-1.4845291,0.21266362,-3.0,-1.7190841,-0.090008676,-0.6025305,0.0,-0.015213457,-0.026542673,9.814593,-0.0060118022,0.043096967,0.4590621,-0.0016259524,0.7169142866406154,-0.01543726772069931,0.15981590747833252,0.14720451831817627
21.012774229049683,-1.7258407,0.2756976,-3.5916579,-1.6424772670769339,nan,nan,nan,nan,11.011963367462158,0.0035185813903808594,-0.06468203,-0.8708016,-0.1270716,0.11004494609844195,-0.02557316180713265,9.257490594420815,0.059805438,0.1679315,-0.09371329,-1.4925499,0.1485728,-3.0,-1.6720048,-0.06254467,-0.6158668,0.0,-0.010628969,-0.026687594,9.81405,-0.0042996965,0.044056088,0.43790382,-0.0011302929,0.7165858896998514,-0.134353369474411,0.15288637578487396,0.33848699927330017
21.106319665908813,-1.7286007,0.21064028,-3.6002269,-1.646717868752152,nan,nan,nan,nan,11.105659008026123,0.0029289722442626953,0.011352101,-0.882099,-0.10926203,0.11172658934780366,-0.012735471579946367,9.252059344385053,-0.021790992,0.16665044,-0.045425218,-1.4972593,0.090469986,-3.0,-1.6315895,-0.03796535,-0.62373054,0.0,-0.0064724195,-0.02677271,9.813723,-0.002653997,0.044621795,0.42580795,-0.0006862683,0.7163727191556657,-0.19914866983890533,0.134556844830513,0.493227481842041
21.21440052986145,-1.7178392,0.09453244,-3.6123915,-1.6417327839175837,nan,nan,nan,nan,11.21286916732788,0.002122640609741211,0.14378709,-0.88079065,-0.08080163,0.09878993152674886,0.007616241275195446,9.249909966398263,-0.17576626,0.14577669,0.101119466,-1.4998186,0.023325,-3.0,-1.5863545,-0.009771536,-0.6280146,0.0,-0.0016687432,-0.026818976,9.813543,-0.00068928266,0.044930033,0.41933513,-0.0001766556,0.7162883411723435,-0.30486199259757996,0.09166012704372406,0.6300488710403442
21.304672241210938,-1.7036673,0.029854804,-3.6178133,-1.6299861006339151,nan,nan,nan,nan,11.30371618270874,0.003722667694091797,0.20910764,-0.86897755,-0.066994846,0.08407913381783161,0.015589413674743868,9.250999921491601,-0.24165756,0.11480271,0.19920367,-1.4996203,-0.03374083,-3.0,-1.5482777,0.014136905,-0.6276824,0.0,0.0024139215,-0.02681539,9.813557,0.0009965192,0.044906132,0.41983414,0.00025557264,0.7163311306892646,-0.31827640533447266,0.07186189293861389,0.729844331741333
21.404101848602295,-1.6753929,-0.061087478,-3.6243474,-1.6002927619131153,nan,nan,nan,nan,11.40282154083252,0.0015530586242675781,0.28217086,-0.8404206,-0.048920203,0.05695499986625285,0.023500289208141067,9.255118693342665,-0.28436872,0.07626781,0.34771544,-1.4969276,-0.09575957,-3.0,-1.5063869,0.040194,-0.6231761,0.0,0.006850837,-0.026766714,9.8137455,0.0028064991,0.0445819,0.4266517,0.00072654116,0.7164928029048404,-0.28470608592033386,0.03295968845486641,0.7765718698501587
21.51294469833374,-1.6355015,-0.15998547,-3.6301742,-1.5479945021444648,nan,nan,nan,nan,11.511510133743286,0.002267122268676758,0.3294071,-0.7962318,-0.029208586,0.024998333902022885,0.026951791124442348,9.266432762151815,-0.26456612,0.024720142,0.5005747,-1.4910095,-0.16300087,-3.0,-1.4592615,0.06868935,-0.61329997,0.0,0.01166107,-0.026659757,9.814155,0.004696195,0.043871462,0.44191274,0.00124124,0.7169367236867107,-0.24021294713020325,0.01936120167374611,0.7613105773925781
21.612422227859497,-1.6015657,-0.23397443,-3.6335096,-1.494288729390306,nan,nan,nan,nan,11.610862970352173,0.0015728473663330078,0.33989024,-0.757955,-0.013443171,0.004103741267255767,0.02744586760260659,9.279284681981663,-0.21026689,0.0019007681,0.59680676,-1.482896,-0.22329947,-3.0,-1.4143485,0.09461433,-0.59982383,0.0,0.015974192,-0.02651317,9.814702,0.006282065,0.042902354,0.46345648,0.0017090108,0.7174406552217522,-0.13268232345581055,0.003547247964888811,0.7417793273925781
21.702049732208252,-1.5711169,-0.29824522,-3.635375,-1.4381983499804292,nan,nan,nan,nan,11.700702905654907,0.003768444061279297,0.33275747,-0.72395223,0.0020139539,-0.00873485003147656,0.02710053601532314,9.293230100130899,-0.122760326,-0.011121107,0.6594167,-1.4733479,-0.2765045,-3.0,-1.3715819,0.11791708,-0.58405936,0.0,0.019779429,-0.02634075,9.815325,0.007559632,0.041769113,0.48973408,0.0021289198,0.7179870688684047,-0.017187941819429398,-0.009397337213158607,0.7127319574356079
21.807658195495605,-1.5409861,-0.36473152,-3.6356745,-1.3722041750167775,nan,nan,nan,nan,11.806643724441528,0.0025327205657958984,0.31317124,-0.6899156,0.019897653,-0.013675406429439763,0.02663740325122621,9.3097931391059,-0.020318966,-0.0125271,0.69817996,-1.4594094,-0.33721066,-3.0,-1.3176643,0.1451791,-0.56122845,0.0,0.024120443,-0.02608918,9.8161955,0.008832193,0.040128708,0.529889,0.0026193669,0.7186355145831831,0.0796290934085846,-0.014071900397539139,0.6999446153640747
21.903032541275024,-1.5143704,-0.42755848,-3.6342075,-1.3037159981604436,nan,nan,nan,nan,11.902033805847168,0.0035474300384521484,0.29060206,-0.65762556,0.03830164,-0.008948066687276879,0.026003392156640714,9.328200840806824,0.07780243,-0.015063965,0.71580046,-1.4443995,-0.38961333,-3.0,-1.2650186,0.16948308,-0.53688556,0.0,0.02786696,-0.025818463,9.817082,0.009727918,0.03838068,0.57547724,0.0030557518,0.7193555027509929,0.1451059877872467,-0.013221681118011475,0.6798501014709473
22.00764226913452,-1.4896748,-0.49204928,-3.6298678,-1.2287075357804662,nan,nan,nan,nan,12.006747961044312,0.003759622573852539,0.27216178,-0.6225824,0.058126483,0.005496787265894976,0.02445756490259221,9.343635787820679,0.16208817,-0.016081994,0.71882784,-1.4252685,-0.44426286,-3.0,-1.2016479,0.19584984,-0.5062239,0.0,0.03177328,-0.025473678,9.81814,0.01040781,0.036180317,0.6369603,0.0035281708,0.7199586689314937,0.177109494805336,-0.011684484779834747,0.6951701045036316
22.106659412384033,-1.4690044,-0.5479405,-3.6234696,-1.159407983097181,nan,nan,nan,nan,12.105796337127686,0.003795623779296875,0.26814228,-0.58751315,0.07580682,0.024674033388223826,0.021785987698828002,9.364199922239646,0.20273894,-0.016760606,0.7191348,-1.404649,-0.49281722,-3.0,-1.1351848,0.22044383,-0.47363433,0.0,0.035243113,-0.02510239,9.819189,0.010738385,0.033843234,0.7070744,0.003967823,0.7207614997729959,0.1752198189496994,-0.008886275812983513,0.7578741908073425
22.206985235214233,-1.4466416,-0.6037721,-3.6145782,-1.0839896972600678,nan,nan,nan,nan,12.205472707748413,0.0019080638885498047,0.28175077,-0.54310566,0.0929836,0.04770802325355661,0.017522692561596998,9.389842308616503,0.21041703,-0.014888491,0.72609264,-1.3814583,-0.53825533,-3.0,-1.0606843,0.24481075,-0.43754813,0.0,0.03848948,-0.024685163,9.820263,0.010752915,0.03125723,0.78979474,0.0044024265,0.7217613533819349,0.1235605925321579,0.0020116246305406094,0.8445890545845032
22.314619779586792,-1.4272913,-0.6427058,-3.6065023,-1.0248368398077687,nan,nan,nan,nan,12.313450336456299,0.002450227737426758,0.3059474,-0.5029207,0.10426126,0.06381124975170394,0.0136141816412374,9.418737102901801,0.17662255,-0.0068535977,0.7452116,-1.3536205,-0.5832355,-3.0,-0.96998054,0.2707241,-0.39502436,0.0,0.041702326,-0.024184812,9.821409,0.010406266,0.028212175,0.8923074,0.0048635346,0.7228863910394753,0.140412375330925,-0.006912137847393751,1.0813192129135132
