time,x,y,z,yaw,platform,trajectory,controller,feedforward,traj_time,comp_time,vx,vy,vz,roll,pitch,f,p,q,r,x_ref,y_ref,z_ref,yaw_ref,vx_ref,vy_ref,vz_ref,roll_ref,pitch_ref,f_ref,u_ff_df,u_ff_dphi,u_ff_dpsi,u_ff_dth,throttle,p_cmd,q_cmd,r_cmd
10.027287006378174,-0.0060185157,0.025072696,-2.6252332,-0.00013626757266904828,SIM,trefoil,contraction,1.0,0.02522444725036621,0.00048613548278808594,-0.01669567,-0.0093119,-0.19907528,-0.009576435103238017,-0.002525700439309553,9.81982725918293,0.0012913296,-0.0034368816,-0.0013772547,0.05282662,-0.99960923,-3.012677,0.0,2.0939977,0.030978557,-0.50240237,0.12477397,0.003193984,9.866737,-0.78619623,0.0075861155,0.0,0.12685947,0.7383284282550577,-0.23507440090179443,-2.9709646701812744,-0.0091552734375
10.102670192718506,-0.007527978,0.024085913,-2.6432831,0.0001821412875985572,nan,nan,nan,nan,0.10137152671813965,0.001191854476928711,-0.013272675,-0.008757235,-0.22663295,-0.011488780571481297,-0.0345906182580058,9.846880305409432,-0.065834336,-1.067329,-0.002217282,0.2120952,-0.99369353,-3.0508173,0.0,2.087979,0.12434066,-0.49858195,0.1250732,0.012900304,9.807172,-0.7771047,0.0002391582,0.0,0.12799439,0.7393585196739887,-0.06676218658685684,-2.866771936416626,0.024871826171875
10.201271533966064,-0.004926806,0.022943072,-2.6678858,0.0013138457744733623,nan,nan,nan,nan,0.1994786262512207,0.0007364749908447266,0.07217474,-0.013779553,-0.32580763,-0.01590357161692656,-0.13574868530621131,9.84079690515995,0.0007876443,-1.0291071,-0.0035161607,0.41613635,-0.97562647,-3.0992222,0.0,2.0695918,0.24374238,-0.48694482,0.12462122,0.025499133,9.731928,-0.7548524,-0.009499722,0.0,0.12869522,0.7391270071560858,0.20830422639846802,-2.2321903705596924,0.122711181640625
10.302430391311646,0.013327951,0.021118267,-2.701472,0.0042617627499670525,nan,nan,nan,nan,0.30065011978149414,0.0006732940673828125,0.28724945,-0.01741759,-0.3681442,-0.006679906222138597,-0.3275983636590427,9.79929706096649,0.20998462,-2.0577545,0.01492787,0.6240383,-0.9448146,-3.1475537,0.0,2.0382113,0.3649552,-0.46720535,0.12314097,0.03851531,9.657228,-0.7198294,-0.019799126,0.0,0.1284416,0.7375457582066639,0.4707251787185669,-0.8287575244903564,0.30181884765625
10.400943517684937,0.07163822,0.019880889,-2.7379055,0.007966329667000558,nan,nan,nan,nan,0.3990018367767334,0.0006597042083740234,0.7050093,0.0029872826,-0.31707442,0.028469902352109708,-0.46226940558080987,9.74872847497463,0.47149932,-0.47101393,0.06847882,0.8225102,-0.9032363,-3.1922617,0.0,1.9958202,0.4800148,-0.44078317,0.12069417,0.051093746,9.58857,-0.67457736,-0.029975686,0.0,0.1271691,0.7356144346109663,0.5212480425834656,0.5863213539123535,0.429718017578125
10.500807285308838,0.1747975,0.022670332,-2.764274,0.02139324199606743,nan,nan,nan,nan,0.4988689422607422,0.0006496906280517578,1.1389068,0.06588916,-0.24255806,0.07401174688067937,-0.4430324361384119,9.707754337191577,0.5500696,0.75368464,0.15110098,1.01919,-0.84961486,-3.234654,0.0,1.9410719,0.59314746,-0.40707585,0.11718159,0.06368377,9.523937,-0.6180622,-0.04037083,0.0,0.124777116,0.7340458670873263,0.3642007112503052,1.159414529800415,0.410064697265625
10.604919672012329,0.3242472,0.03472543,-2.7829335,0.052521871565691894,nan,nan,nan,nan,0.6039559841156006,0.0012371540069580078,1.5103465,0.17613693,-0.18715681,0.10824039476731194,-0.3410027678194365,9.677460461854931,0.39952296,1.2870256,0.23791796,1.2196052,-0.78124076,-3.275265,0.0,1.8711287,0.70720464,-0.3647045,0.112366594,0.0766097,9.462575,-0.5480998,-0.05124365,0.0,0.121010065,0.7328840306845382,0.1518355756998062,1.2074205875396729,0.29901123046875
10.702121257781982,0.5417735,0.06631687,-2.7991505,0.10219120990407032,nan,nan,nan,nan,0.7001769542694092,0.0006468296051025391,1.7996354,0.33983642,-0.15838304,0.12288938691864368,-0.19869360624201482,9.652175124287602,0.105565354,1.2705292,0.2935318,1.3961328,-0.70838034,-3.308262,0.0,1.7964275,0.80632424,-0.32031807,0.10696413,0.08804095,9.413261,-0.47564915,-0.061007228,0.0,0.11640971,0.7319128895773712,-0.09343215823173523,0.9833988547325134,0.133941650390625
10.801234006881714,0.729666,0.10634527,-2.8105888,0.14160108457948117,nan,nan,nan,nan,0.7993326187133789,0.0005207061767578125,1.9134803,0.46941963,-0.15375261,0.11687956295490792,-0.10041934371476735,9.626082122325895,-0.087451704,1.0730139,0.29195198,1.5700219,-0.6236129,-3.3375514,0.0,1.7092906,0.90236413,-0.26969177,0.10042931,0.09930103,9.370102,-0.3937734,-0.07073318,0.0,0.11051538,0.7309093937226329,-0.1594630479812622,0.7586019039154053,0.017425537109375
10.900959968566895,0.93805885,0.16391014,-2.8236082,0.17878575689489898,nan,nan,nan,nan,0.898998498916626,0.0007264614105224609,1.9430289,0.5904658,-0.15510157,0.09945437687966105,-0.015304028550402471,9.597470747232437,-0.21294446,0.79919547,0.24957381,1.7356052,-0.52915454,-3.3617163,0.0,1.611889,0.99190843,-0.2145922,0.09291232,0.10997228,9.335216,-0.30539015,-0.08001539,0.0,0.10343585,0.7298074806254947,-0.1656477153301239,0.5302547216415405,-0.08489990234375
11.001073598861694,1.1562717,0.23844184,-2.838582,0.20848957222925452,nan,nan,nan,nan,0.9991376399993896,0.0005886554718017578,1.8923602,0.68606085,-0.1567448,0.07577641965039676,0.05106435542584298,9.566487512588504,-0.2373536,0.5374503,0.17001209,1.8917291,-0.4256422,-3.3802884,0.0,1.5047648,1.0741056,-0.15584682,0.084459305,0.11992748,9.309283,-0.21185723,-0.08868777,0.0,0.09521203,0.7286123658606387,-0.11340700834989548,0.32673364877700806,-0.1634521484375
11.101331949234009,1.3433948,0.31382513,-2.8528013,0.22512110666528212,nan,nan,nan,nan,1.0995826721191406,0.0006208419799804688,1.793829,0.7403061,-0.15474829,0.056313852053964,0.09146951801483172,9.534575614035134,-0.18244931,0.3388808,0.082488604,2.0371156,-0.3139655,-3.3928757,0.0,1.3887094,1.1480618,-0.094446994,0.07514747,0.12903313,9.292859,-0.11477594,-0.096576266,0.0,0.08593107,0.727379404841465,-0.0185885950922966,0.19643521308898926,-0.207061767578125
11.20123839378357,1.525475,0.3977714,-2.8681884,0.23191578893875267,nan,nan,nan,nan,1.1994075775146484,0.001001596450805664,1.652316,0.770365,-0.14742948,0.04342116499832169,0.11815273653563163,9.503726565241816,-0.07410252,0.18765366,-0.008256907,2.16966,-0.19606525,-3.3991919,0.0,1.2656049,1.2125338,-0.03193535,0.06515417,0.13711242,9.286294,-0.01659012,-0.10347294,0.0,0.07579789,0.726185545576439,0.06403804570436478,0.09752640873193741,-0.229583740234375
11.30451512336731,1.6615444,0.4683706,-2.880235,0.22968645825114908,nan,nan,nan,nan,1.3026652336120605,0.000640869140625,1.5156319,0.7827763,-0.13685612,0.04065730785737531,0.13089226457634995,9.475945679545404,0.019199947,0.09980501,-0.07507496,2.2934535,-0.067846715,-3.3991244,0.0,1.1309942,1.2691875,0.033242036,0.054148883,0.14436273,9.289838,0.085114084,-0.10948983,0.0,0.06451067,0.7251087651021412,0.1320720613002777,0.06238970160484314,-0.23211669921875
11.400611877441406,1.810959,0.5569705,-2.8932698,0.21854178093332516,nan,nan,nan,nan,1.398526906967163,0.0005645751953125,1.3288516,0.79516834,-0.11844776,0.04592513304730034,0.13876051265990075,9.455041281133893,0.09833059,0.032217845,-0.14217395,2.395646,0.05595678,-3.393053,0.0,1.0002303,1.3122053,0.09327405,0.043429576,0.1500206,9.302474,0.1781932,-0.11396744,0.0,0.05345108,0.724297474521017,0.11940047889947891,0.004180449992418289,-0.222564697265625
11.501760721206665,1.9183465,0.63226616,-2.9023664,0.2037499127249418,nan,nan,nan,nan,1.499981164932251,0.0007483959197998047,1.1625085,0.8112686,-0.099093504,0.054490410601951075,0.14152121477094792,9.438109067678452,0.1205644,0.00059866783,-0.18003133,2.4898822,0.19095773,-3.3804255,0.0,0.8566702,1.3472941,0.1553177,0.031678215,0.15483066,9.325433,0.27377656,-0.117476106,0.0,0.041312013,0.723639685061418,0.09390389919281006,-0.01571008190512657,-0.2061767578125
11.602748394012451,1.9936672,0.69557244,-2.9084368,0.1890531031445541,nan,nan,nan,nan,1.6011788845062256,0.0009915828704833984,1.0227706,0.8315105,-0.081188485,0.061164550825020925,0.14136372372153927,9.42838209837675,0.09920213,-0.029122887,-0.19842285,2.5691428,0.3286084,-3.3616781,0.0,0.70913833,1.3712765,0.21469365,0.019667437,0.1583869,9.3577795,0.36462724,-0.11967895,0.0,0.028944008,0.7232615409747174,0.07184936851263046,0.0015697404742240906,-0.188385009765625
11.701477527618408,2.0824246,0.7932481,-2.9152083,0.16513222542804387,nan,nan,nan,nan,1.6994714736938477,0.0010442733764648438,0.8146096,0.8714459,-0.05303079,0.06661868978021104,0.13906879801180194,9.426649162471294,0.05404683,-0.039836586,-0.20928498,2.631668,0.4640978,-3.3378735,0.0,0.5626481,1.3837993,0.26905414,0.007849891,0.16063792,9.39773,0.4472083,-0.12057467,0.0,0.016861213,0.7231941511705614,-0.022185996174812317,-0.046416983008384705,-0.160552978515625
11.805054187774658,2.1382742,0.882943,-2.9188359,0.144115352918507,nan,nan,nan,nan,1.8032381534576416,0.0005986690521240234,0.6399172,0.91275615,-0.028808326,0.06513205425735419,0.1356893216364179,9.432899204492571,-0.016839651,-0.05603098,-0.20555462,2.681922,0.60787404,-3.3071651,0.0,0.4056299,1.3853328,0.32197773,-0.0046546715,0.16172971,9.448344,0.5269605,-0.1202197,0.0,0.004215298,0.7234371715088481,-0.08269833773374557,-0.0521354079246521,-0.1356201171875
11.917224884033203,2.1718361,0.9630932,-2.920206,0.12701964115452943,nan,nan,nan,nan,1.9178452491760254,0.0012407302856445312,0.49864635,0.9475241,-0.009233876,0.05874883366890744,0.13208086551139142,9.448756107091905,-0.06833725,-0.057895362,-0.19425453,2.7183943,0.76607585,-3.2672117,0.0,0.2307008,1.3729768,0.37404314,-0.01833991,0.16142762,9.5133,0.6046208,-0.118350886,0.0,-0.0094094025,0.7240533743356076,-0.10884466022253036,0.000279928557574749,-0.11529541015625
12.001001596450806,2.1968741,1.062352,-2.91954,0.10819890320940032,nan,nan,nan,nan,1.9990766048431396,0.0006871223449707031,0.34055483,0.9825348,0.012063136,0.04612853304513215,0.12798775922313976,9.46853044688702,-0.11913315,-0.044408478,-0.17742026,2.732091,0.8769365,-3.2354894,0.0,0.10655477,1.355293,0.40631327,-0.027869107,0.16028233,9.564391,0.6522047,-0.116151944,0.0,-0.018736366,0.7248210856704238,-0.15295614302158356,-0.02917337790131569,-0.093658447265625
12.100829124450684,2.2068956,1.1574243,-2.9171693,0.09257887298500608,nan,nan,nan,nan,2.0988638401031494,0.000827789306640625,0.20223823,1.0051229,0.028202642,0.030807708379096035,0.12481501774493253,9.496822095513348,-0.15124129,-0.037604336,-0.15751266,2.73514,1.0106834,-3.1932015,0.0,-0.04523693,1.3235114,0.44013366,-0.039287582,0.15786022,9.632014,0.70137936,-0.11254619,0.0,-0.029712796,0.7259180771096855,-0.1676761955022812,-0.008747220039367676,-0.07684326171875
12.201186895370483,2.204933,1.262795,-2.9131706,0.07775682540326573,nan,nan,nan,nan,2.1993041038513184,0.0006933212280273438,0.060636245,1.0146983,0.042506598,0.011921590685265548,0.12250438874008074,9.531402502059942,-0.17051525,-0.018103393,-0.1349537,2.722992,1.1415479,-3.147575,0.0,-0.19628766,1.2804809,0.4671947,-0.050371267,0.15434685,9.704488,0.7398354,-0.10801501,0.0,-0.04013499,0.7272566944966359,-0.1719340682029724,-0.0020948275923728943,-0.062591552734375
12.302144050598145,2.1919596,1.3607817,-2.908619,0.06597826942455046,nan,nan,nan,nan,2.300295352935791,0.0007534027099609375,-0.06471514,1.0084102,0.05218979,-0.00621673473392146,0.12138686660972042,9.571128474473957,-0.1739703,-0.009716675,-0.11591494,2.6956112,1.2682202,-3.099332,0.0,-0.34540963,1.2262946,0.48690945,-0.061015964,0.1497939,9.780664,0.76672965,-0.10266697,0.0,-0.049907036,0.7287915045568449,-0.1683560609817505,0.016819648444652557,-0.05322265625
12.404236555099487,2.168612,1.4576377,-2.9036338,0.05589857878627026,nan,nan,nan,nan,2.4026639461517334,0.0009639263153076172,-0.18605264,0.98699874,0.058612563,-0.024070383263874052,0.12093507150091143,9.61549736380577,-0.17030747,0.004450804,-0.09821103,2.6526742,1.3904797,-3.0488045,0.0,-0.49273026,1.1605347,0.49889937,-0.07121865,0.14421089,9.860017,0.7815058,-0.09656069,0.0,-0.059037134,0.7305019328289448,-0.16192933917045593,0.03459079563617706,-0.0467529296875
12.501193046569824,2.1347857,1.5517913,-2.8979495,0.047320361555587616,nan,nan,nan,nan,2.4993653297424316,0.0005905628204345703,-0.305408,0.95057166,0.061597418,-0.04116855710776401,0.12197367413885507,9.66366630256176,-0.16187717,0.014454556,-0.08373373,2.5984745,1.4993095,-3.0003188,0.0,-0.627451,1.0887803,0.50265473,-0.080255695,0.13811493,9.935789,0.783696,-0.090269566,0.0,-0.06691894,0.7323543919968427,-0.1520981788635254,0.026937872171401978,-0.04364013671875
12.60092306137085,2.0906518,1.6412756,-2.8918839,0.04010601143319889,nan,nan,nan,nan,2.598947286605835,0.0006499290466308594,-0.42391744,0.8991823,0.061670054,-0.05714516558878652,0.12268505147951192,9.714201517701149,-0.15168172,0.00610827,-0.06985398,2.5293033,1.6036654,-2.9503915,0.0,-0.7607978,1.0055647,0.49877414,-0.0889043,0.1310784,10.013447,0.77395874,-0.08336468,0.0,-0.07427355,0.7342928965061013,-0.14058513939380646,0.019812144339084625,-0.042694091796875
12.701070070266724,2.0317414,1.7307521,-2.885518,0.03362622447002003,nan,nan,nan,nan,2.6991634368896484,0.0005619525909423828,-0.5500062,0.8272921,0.058039743,-0.0731635927635497,0.12304517558348871,9.766794233918189,-0.13831326,0.0023096406,-0.060653005,2.446597,1.6998644,-2.9009311,0.0,-0.8886268,0.9128046,0.4869941,-0.096896,0.12329643,10.090012,0.7520154,-0.07607523,0.0,-0.080902286,0.7363049788167882,-0.1174875870347023,-0.008987613022327423,-0.0426025390625
12.80098032951355,1.9668874,1.805007,-2.8803034,0.02866217312466071,nan,nan,nan,nan,2.7990288734436035,0.0005662441253662109,-0.66451585,0.7472617,0.050918963,-0.08623289418285476,0.12200374912106593,9.81995671570301,-0.11625005,-0.023915038,-0.052903518,2.3517885,1.7860545,-2.853204,0.0,-1.008844,0.8119805,0.46758205,-0.10411965,0.11491864,10.163527,0.7183581,-0.06855629,0.0,-0.08675712,0.7383333609118327,-0.1001419797539711,-0.020198285579681396,-0.043365478515625
12.90107011795044,1.8851594,1.8747907,-2.8759181,0.024372104800318026,nan,nan,nan,nan,2.899221658706665,0.0005872249603271484,-0.7842216,0.6474288,0.03947432,-0.09746296493252746,0.11768848262466403,9.868549810051915,-0.08939436,-0.04342686,-0.048809025,2.244996,1.8620155,-2.8076413,0.0,-1.1215061,0.703083,0.44071636,-0.110602655,0.10596226,10.233335,0.67327523,-0.060828906,0.0,-0.091907814,0.7401826032204181,-0.07570622861385345,-0.038013771176338196,-0.042388916015625
13.00082802772522,1.7994608,1.9282501,-2.8736033,0.02107919430016556,nan,nan,nan,nan,2.99885892868042,0.0005319118499755859,-0.88913447,0.54620934,0.024875155,-0.10564499012358683,0.11282341710390176,9.921193318963049,-0.066590376,-0.053648733,-0.046988953,2.128025,1.9263812,-2.76535,0.0,-1.224948,0.58782303,0.40707943,-0.11627527,0.096578166,10.297743,0.61788726,-0.053020097,0.0,-0.09634695,0.7421808561427077,-0.06582222133874893,-0.04005727916955948,-0.04229736328125
13.111646175384521,1.6968488,1.9737116,-2.8731332,0.018101014056125332,nan,nan,nan,nan,3.110081195831299,0.0009438991546630859,-0.9950291,0.4289086,0.0041569714,-0.1124541592899683,0.10657410557645175,9.976241205930707,-0.05202885,-0.055534314,-0.04433207,1.9858584,1.9842678,-2.7225091,0.0,-1.3295159,0.45190674,0.3620311,-0.12168313,0.08562161,10.3625,0.5446711,-0.044212073,0.0,-0.100545,0.7442647128323823,-0.06592532992362976,-0.034154005348682404,-0.042236328125
13.200927734375,1.5933251,2.0042284,-2.8750432,0.015577154948467738,nan,nan,nan,nan,3.1989593505859375,0.0005190372467041016,-1.0858166,0.315898,-0.019192044,-0.11729865531123382,0.10011941559084181,10.017165263593194,-0.037230715,-0.07124949,-0.0449776,1.8643105,2.019423,-2.6921282,0.0,-1.4043006,0.33853087,0.3209103,-0.12529826,0.07655679,10.408012,0.47842842,-0.037134085,0.0,-0.10336045,0.7458101837596717,-0.0492343045771122,-0.05755356699228287,-0.041473388671875
13.302026987075806,1.4716355,2.0246494,-2.8799596,0.012938825562764406,nan,nan,nan,nan,3.300102710723877,0.0006520748138427734,-1.1762997,0.19053428,-0.04919217,-0.12112288218229697,0.09186133377525785,10.05853289335966,-0.03321814,-0.07231935,-0.040132128,1.718384,2.0469556,-2.662241,0.0,-1.4794364,0.20520137,0.269281,-0.12864585,0.06596344,10.452284,0.3957976,-0.029058803,0.0,-0.10601805,0.7473692007987741,-0.044012416154146194,-0.0719451755285263,-0.040374755859375
13.401545524597168,1.3616359,2.0316148,-2.8867457,0.010638370467604304,nan,nan,nan,nan,3.399724006652832,0.0006392002105712891,-1.2459998,0.08256892,-0.07819439,-0.12456763448884395,0.08513763411186814,10.094116412401199,-0.037346896,-0.07297302,-0.041726395,1.5677612,2.0607028,-2.6381283,0.0,-1.5426534,0.07026943,0.21417753,-0.13114417,0.055293765,10.487392,0.30810073,-0.021096902,0.0,-0.10810014,0.748707669786705,-0.06490488350391388,-0.06612320989370346,-0.040771484375
13.500912189483643,1.2354486,2.0282655,-2.8972476,0.008102523447388155,nan,nan,nan,nan,3.4990429878234863,0.0005810260772705078,-1.3148018,-0.03784464,-0.1127941,-0.1292194545664782,0.07764833231893364,10.122478035986422,-0.04468102,-0.08511619,-0.041176002,1.4118712,2.0608883,-2.6197262,0.0,-1.5946707,-0.06689398,0.1559035,-0.13284525,0.044475112,10.513442,0.21579616,-0.013157652,0.0,-0.1096759,0.7497727995441531,-0.06308440864086151,-0.08173705637454987,-0.04034423828125
13.60275411605835,1.10362,2.0134437,-2.911421,0.005731909585535003,nan,nan,nan,nan,3.6016006469726562,0.0014433860778808594,-1.3747551,-0.16095243,-0.14934647,-0.13356491123104075,0.06845540707076059,10.142997943758962,-0.0381441,-0.10041046,-0.040760405,1.2460737,2.046685,-2.606935,0.0,-1.6365631,-0.21030174,0.09319442,-0.13377425,0.03316494,10.530528,0.11689094,-0.0049587437,0.0,-0.11080334,0.7505425011238822,-0.06573449820280075,-0.08725903183221817,-0.038818359375
13.70087456703186,0.94415694,1.9815582,-2.9330454,0.003344388635463394,nan,nan,nan,nan,3.6989147663116455,0.0005705356597900391,-1.4312941,-0.30712575,-0.19500838,-0.13687564182687745,0.05549515723102916,10.155113406255836,-0.020036882,-0.11780052,-0.041526757,1.0853385,2.0195653,-2.6008239,0.0,-1.6650193,-0.34709835,0.03224584,-0.13387811,0.02234867,10.537252,0.021141294,0.0028247703,0.0,-0.11141976,0.7509965865084214,-0.020933164283633232,-0.11437996476888657,-0.034576416015625
13.801074028015137,0.80447066,1.9421226,-2.9566278,0.0014423899410630492,nan,nan,nan,nan,3.799081563949585,0.000457763671875,-1.4665906,-0.4321917,-0.2361364,-0.13818248732359198,0.043644493965288245,10.158202071003613,-0.0058439337,-0.117382616,-0.040015634,0.9175744,1.9777516,-2.6007607,0.0,-1.6827112,-0.48766616,-0.030983305,-0.13319357,0.011175173,10.534411,-0.0778141,0.010845509,0.0,-0.11160213,0.7511123057791215,-0.02608076110482216,-0.10749751329421997,-0.03125
13.901067018508911,0.6515278,1.8863475,-2.9872987,-0.0003796569641363601,nan,nan,nan,nan,3.899186134338379,0.0005953311920166016,-1.4898295,-0.56669915,-0.2817857,-0.138452980268494,0.030723626937918525,10.15189468991011,0.0010693196,-0.11895085,-0.03653869,0.7487339,1.9219494,-2.6070087,0.0,-1.6886061,-0.62692636,-0.09368334,-0.13170609,1.3198502e-05,10.521713,-0.17555712,0.01887614,0.0,-0.11132759,0.7508759760250673,-0.01409810408949852,-0.10537666082382202,-0.027191162109375
14.002306461334229,0.5094996,1.8227423,-3.020275,-0.001791085268455797,nan,nan,nan,nan,4.000993013381958,0.0008900165557861328,-1.49882,-0.68905056,-0.32429212,-0.1382323844945313,0.019265907957612072,10.136423036865885,-0.0041363663,-0.107040584,-0.033907495,0.57702756,1.8510065,-2.619732,0.0,-1.6825697,-0.7662889,-0.1559254,-0.12936783,-0.011286407,10.498891,-0.2721791,0.02706291,0.0,-0.110573545,0.750295961255661,-0.025900347158312798,-0.09537579119205475,-0.0250244140625
14.101759433746338,0.36723247,1.7475811,-3.0574448,-0.003051434975150688,nan,nan,nan,nan,4.099780082702637,0.0005967617034912109,-1.4970305,-0.81029356,-0.36620307,-0.138496135601257,0.008853889193952469,10.111424327306445,0.002053823,-0.10219854,-0.03223314,0.41157448,1.7687533,-2.6380222,0.0,-1.6652462,-0.89837337,-0.21389453,-0.12630114,-0.022154137,10.467539,-0.36175272,0.03502678,0.0,-0.10937041,0.7493578516854339,-0.022407300770282745,-0.0959274172782898,-0.023590087890625
14.201016902923584,0.22590654,1.6612836,-3.0985541,-0.004066971208110018,nan,nan,nan,nan,4.199076175689697,0.0005469322204589844,-1.4851433,-0.92928475,-0.40589818,-0.137993982453107,-0.0014267141291604002,10.077527754120526,0.01095166,-0.10469849,-0.029361704,0.24754941,1.6731207,-2.6620204,0.0,-1.6366632,-1.027083,-0.26884326,-0.122425005,-0.032934062,10.427374,-0.4462133,0.04304743,0.0,-0.10767268,0.7480839838226065,-0.019574638456106186,-0.09842585027217865,-0.0223388671875
14.300803184509277,0.086799175,1.5640703,-3.143271,-0.00483087120474518,nan,nan,nan,nan,4.298790454864502,0.0006892681121826172,-1.4628763,-1.0458906,-0.4435388,-0.13693968454009156,-0.011669119378698634,10.035358300618828,0.013115895,-0.1055639,-0.02589122,0.08623898,1.5644655,-2.6914077,0.0,-1.5969782,-1.1513332,-0.3198154,-0.11773069,-0.043564145,10.378935,-0.5240657,0.05110701,0.0,-0.10544843,0.7464962184111841,-0.0140937939286232,-0.10116071254014969,-0.021270751953125
14.407353401184082,-0.06044687,1.446777,-3.1957026,-0.005488715582486023,nan,nan,nan,nan,4.409409761428833,0.0012848377227783203,-1.4275277,-1.1684617,-0.4805372,-0.13524252730810016,-0.02294738972486776,9.985595485381783,0.016502066,-0.10420501,-0.02594656,-0.087412655,1.4297938,-2.729648,0.0,-1.540524,-1.282235,-0.37046275,-0.11158342,-0.055062916,10.31662,-0.6007683,0.060030278,0.0,-0.10233314,0.7446182502820937,-0.010190669447183609,-0.10323341190814972,-0.020263671875
14.502525091171265,-0.19236508,1.3280813,-3.2473752,-0.0059655757785260916,nan,nan,nan,nan,4.500982046127319,0.0012507438659667969,-1.3847595,-1.2775512,-0.51115316,-0.1326230642376618,-0.03345558065533116,9.928400969319046,0.041639388,-0.107800566,-0.02352943,-0.22597307,1.307657,-2.7652857,0.0,-1.4843144,-1.3842838,-0.40702087,-0.10574956,-0.064294554,10.259035,-0.6555327,0.06737508,0.0,-0.09920513,0.7424540325711841,0.022300615906715393,-0.1051102802157402,-0.018463134765625
14.60133981704712,-0.32937363,1.1891024,-3.3061488,-0.0063388103992804215,nan,nan,nan,nan,4.599481582641602,0.0006229877471923828,-1.3270667,-1.3886695,-0.53910047,-0.12717079550828564,-0.04479002209869076,9.864752876572311,0.056608297,-0.10612473,-0.021419961,-0.36882657,1.1661882,-2.8070705,0.0,-1.4147567,-1.4869057,-0.44032207,-0.09872723,-0.07387655,10.191957,-0.704702,0.07519354,0.0,-0.09524969,0.74003827261815,0.04952825605869293,-0.10178045183420181,-0.01629638671875
14.70150899887085,-0.44904894,1.0517633,-3.361995,-0.0065214345995908835,nan,nan,nan,nan,4.699928522109985,0.0013098716735839844,-1.2633852,-1.483694,-0.55961907,-0.12117783938552044,-0.054832666302803146,9.796087383441627,0.0717101,-0.10012974,-0.020626208,-0.5069873,1.0119237,-2.852717,0.0,-1.3346791,-1.5831946,-0.46734005,-0.09077946,-0.08321379,10.119118,-0.74367374,0.08302601,0.0,-0.09054896,0.7374233220099428,0.04991443455219269,-0.09782740473747253,-0.014984130859375
14.801424980163574,-0.57038355,0.8940714,-3.42402,-0.006617786301101838,nan,nan,nan,nan,4.799548625946045,0.0005919933319091797,-1.1842504,-1.5767008,-0.576025,-0.113042931673169,-0.06517172300427565,9.72266345422715,0.08075194,-0.092690624,-0.018716186,-0.63563716,0.84982204,-2.9003046,0.0,-1.2467805,-1.6696504,-0.48679215,-0.08212983,-0.09197312,10.043594,-0.7705626,0.09058585,0.0,-0.085187025,0.7346169987119215,0.0664769634604454,-0.08816248923540115,-0.01324462890625
14.901880979537964,-0.6737102,0.74140424,-3.4822671,-0.006625087902939544,nan,nan,nan,nan,4.899998903274536,0.0006291866302490234,-1.1021552,-1.6525201,-0.5852746,-0.10522332570160715,-0.07402293865494625,9.64671695034951,0.087199494,-0.08275476,-0.017369363,-0.75609404,0.6781322,-2.9498663,0.0,-1.1503054,-1.7470603,-0.49869123,-0.07265943,-0.10022801,9.9653425,-0.7853746,0.09791578,0.0,-0.07904546,0.7317030890821025,0.062011852860450745,-0.08192937076091766,-0.0123291015625
15.000764608383179,-0.7762465,0.5693014,-3.545789,-0.006629457488083586,nan,nan,nan,nan,4.9987733364105225,0.0005133152008056641,-1.0055252,-1.722994,-0.5887017,-0.0958054579885331,-0.08235634784645196,9.568594255857171,0.08748982,-0.073213875,-0.014906311,-0.8647409,0.502223,-2.9993837,0.0,-1.048501,-1.8130457,-0.50265425,-0.06264715,-0.107707016,9.887553,-0.7876603,0.10474232,0.0,-0.072267145,0.7286936904307908,0.07539966702461243,-0.07126006484031677,-0.011444091796875
15.104310512542725,-0.84136856,0.4468015,-3.5896993,-0.006672773063234681,nan,nan,nan,nan,5.102625608444214,0.0009298324584960938,-0.93515897,-1.7646405,-0.5867393,-0.08928395876540735,-0.08759709600612475,9.489719611816112,0.091802776,-0.06781847,-0.01484787,-0.96778566,0.31081903,-3.0514429,0.0,-0.9348979,-1.8710425,-0.49848062,-0.05141867,-0.114807695,9.806196,-0.7768945,0.11139682,0.0,-0.06434197,0.7256428364175002,0.014274626970291138,-0.0990099385380745,-0.01251220703125
15.201322793960571,-0.9443205,0.22281276,-3.666176,-0.0067101635690766034,nan,nan,nan,nan,5.199399471282959,0.0007162094116210938,-0.80336344,-1.8254572,-0.5750478,-0.07794646620541099,-0.09660065524951555,9.411084669642152,0.08185548,-0.0648808,-0.013122401,-1.0529208,0.12757885,-3.0991838,0.0,-0.82380074,-1.9141597,-0.48695716,-0.040362153,-0.120647304,9.731987,-0.754875,0.11700039,0.0,-0.056228507,0.7225886067531235,0.08669643849134445,-0.059509146958589554,-0.009552001953125
15.301138639450073,-1.0056676,0.065178245,-3.7163627,-0.006877605973533221,nan,nan,nan,nan,5.299206733703613,0.0005729198455810547,-0.7085855,-1.8581238,-0.5599968,-0.07027822943936216,-0.10232338564567867,9.334712362699214,0.08735352,-0.062872365,-0.013258403,-1.1292369,-0.065216005,-3.1468792,0.0,-0.7047941,-1.9472286,-0.46754074,-0.028425861,-0.12581214,9.658267,-0.72041273,0.12205312,0.0,-0.04715128,0.7196100205245737,0.0795421302318573,-0.06723184883594513,-0.008697509765625
15.402082920074463,-1.0628836,-0.10922327,-3.7682753,-0.00703133910205694,nan,nan,nan,nan,5.400689363479614,0.0013096332550048828,-0.60153806,-1.8848166,-0.5372949,-0.06134066087488435,-0.10818947880376983,9.262103991918268,0.09728613,-0.05431616,-0.011373623,-1.1944616,-0.2640193,-3.1930053,0.0,-0.5801061,-1.9686939,-0.4402697,-0.015815761,-0.13009949,9.587431,-0.6737082,0.12630525,0.0,-0.037232652,0.7167669113266458,0.08774629235267639,-0.0654308944940567,-0.00726318359375
15.500876188278198,-1.1129141,-0.30057466,-3.8209546,-0.007101878089947035,nan,nan,nan,nan,5.4989354610443115,0.0005290508270263672,-0.48160863,-1.9033206,-0.5057612,-0.05044190889695181,-0.11390411474707007,9.193961059264844,0.10867259,-0.047537453,-0.010319546,-1.2454138,-0.4579702,-3.2346814,0.0,-0.45676997,-1.9775934,-0.40705085,-0.0032439185,-0.13326113,9.523896,-0.6180207,0.1294501,0.0,-0.027038679,0.7140884996710104,0.11306215822696686,-0.04354868829250336,-0.00457763671875
15.616236686706543,-1.1504097,-0.49312058,-3.8698623,-0.007125143944802842,nan,nan,nan,nan,5.614364147186279,0.0009474754333496094,-0.35876286,-1.9096372,-0.46773025,-0.03768389936196288,-0.11777335747164663,9.13088652711362,0.13050367,-0.024875704,-0.0076966514,-1.2896708,-0.6861306,-3.2790375,0.0,-0.3097979,-1.9729583,-0.360149,0.0118474895,-0.13566092,9.456908,-0.54062957,0.1317764,0.0,-0.014443132,0.7116004455818244,0.10914762318134308,-0.050301287323236465,-0.003173828125
15.701098680496216,-1.1703755,-0.64126194,-3.904545,-0.007122328950529994,nan,nan,nan,nan,5.699155807495117,0.0005936622619628906,-0.26372093,-1.9053464,-0.4343799,-0.027008882196225742,-0.12007658129985499,9.079089102558799,0.13025926,-0.03281075,-0.0071327984,-1.311337,-0.8528973,-3.3079348,0.0,-0.2012235,-1.9591341,-0.32081458,0.023056407,-0.1364811,9.413748,-0.47645578,0.13246094,0.0,-0.0048653884,0.7095507977593828,0.10856567323207855,-0.049878817051649094,-0.0020751953125
15.80272364616394,-1.1848508,-0.8325838,-3.9449303,-0.006994745857253827,nan,nan,nan,nan,5.801027059555054,0.000827789306640625,-0.13939866,-1.8874424,-0.3857911,-0.013590743395202602,-0.12332197693724423,9.028698535375302,0.12892829,-0.023694087,-0.005694123,-1.3251977,-1.0511456,-3.3380077,0.0,-0.07101575,-1.9308981,-0.26878747,0.03654167,-0.13638045,9.369435,-0.39231715,0.1320641,0.0,0.0068722134,0.7075512016050676,0.1185905933380127,-0.027093850076198578,0.000823974609375
15.902640342712402,-1.1871272,-1.0068153,-3.977307,-0.006779493518447944,nan,nan,nan,nan,5.9011781215667725,0.0010454654693603516,-0.02489868,-1.8591752,-0.3364176,-0.0009439674756006847,-0.12464010166172357,8.986554435007276,0.13221055,-0.005698937,-0.0041731903,-1.3259451,-1.2426243,-3.3621829,0.0,0.05581504,-1.8908923,-0.21334589,0.049692485,-0.1351097,9.334552,-0.30339867,0.13033116,0.0,0.018505804,0.7058745523347499,0.12096226215362549,-0.019229181110858917,0.002899169921875
16.000795125961304,-1.1780901,-1.1918622,-4.0068064,-0.006471486602950013,nan,nan,nan,nan,5.998788356781006,0.0010564327239990234,0.0973223,-1.8161907,-0.27889547,0.012746404851197558,-0.12470633782494933,8.95399835240096,0.13088037,0.011949904,-0.0009280429,-1.3145435,-1.4248226,-3.380234,0.0,0.17739062,-1.8404179,-0.15605623,0.062278796,-0.1327522,9.309358,-0.21218948,0.12734511,0.0,0.029772837,0.7045766568178135,0.12699416279792786,0.0051146335899829865,0.00469970703125
16.104905605316162,-1.1574773,-1.3720022,-4.0303836,-0.005966980850248296,nan,nan,nan,nan,6.103353023529053,0.0008840560913085938,0.21594438,-1.7609268,-0.21818674,0.026610459194853647,-0.12304108858047691,8.930310131721201,0.13216428,0.01897198,-0.00011951593,-1.2893207,-1.6139055,-3.3932273,0.0,0.30440688,-1.7740802,-0.092106365,0.07536651,-0.12901852,9.292433,-0.11108799,0.12274521,0.0,0.04158055,0.7036308078779859,0.12646836042404175,0.012558333575725555,0.0059814453125
16.214353322982788,-1.1308858,-1.5196711,-4.0451546,-0.005381988662351105,nan,nan,nan,nan,6.212429761886597,0.0005016326904296875,0.313117,-1.7045685,-0.16422,0.038157624463077286,-0.12120238947933748,8.9156180004403,0.12842572,0.021305352,0.0020634267,-1.2490957,-1.8030487,-3.3995543,0.0,0.43226126,-1.6918063,-0.023721939,0.0884261,-0.12383272,9.286161,-0.003736563,0.116467096,0.0,0.053402483,0.7030435341277962,0.12617167830467224,-0.013934552669525146,0.0078125
16.301011562347412,-1.0923322,-1.67461,-4.0554347,-0.004549443668723455,nan,nan,nan,nan,6.29909610748291,0.0005784034729003906,0.41627818,-1.632677,-0.10372412,0.05037818499977864,-0.11895598520731299,8.913105401769283,0.12684499,0.026238717,0.0026847944,-1.207381,-1.9465002,-3.399239,0.0,0.5297258,-1.6172992,0.030992558,0.09826637,-0.118815474,9.28954,0.08161517,0.11047469,0.0,0.062297184,0.7029430521151909,0.12408553063869476,0.016795475035905838,0.00946044921875
16.40116548538208,-1.0398463,-1.8347632,-4.0592875,-0.00338442632148794,nan,nan,nan,nan,6.399402379989624,0.0006077289581298828,0.5235634,-1.5440952,-0.03677938,0.06312650981575574,-0.11537401380858481,8.9202898927778,0.12024536,0.04309269,0.0061385375,-1.1488049,-2.1040025,-3.392971,0.0,0.6372001,-1.521447,0.093817726,0.108958006,-0.112078145,9.30263,0.17903352,0.10253522,0.0,0.071904644,0.7032303314048888,0.12000653147697449,0.03912876546382904,0.011077880859375
16.501157999038696,-0.97657734,-1.9859171,-4.0553527,-0.002015270326160494,nan,nan,nan,nan,6.49920916557312,0.0006396770477294922,0.6255767,-1.4456695,0.030008791,0.07520330794432395,-0.11046887731913557,8.938063520714643,0.115180746,0.049671553,0.008048619,-1.0801361,-2.2506883,-3.3805451,0.0,0.7377063,-1.4163928,0.15485445,0.118757844,-0.10445954,9.325222,0.27306524,0.09369774,0.0,0.08061126,0.7039405315452525,0.11437340080738068,0.06074431538581848,0.012054443359375
16.600829124450684,-0.9093736,-2.11662,-4.0449843,-0.0005125900390422974,nan,nan,nan,nan,6.598877429962158,0.0005657672882080078,0.71368164,-1.3462828,0.09070749,0.08577071515263368,-0.10459226556514922,8.966431080922485,0.108525164,0.06620117,0.010407167,-1.0019026,-2.386253,-3.3621707,0.0,0.8309286,-1.3025,0.21337853,0.12762362,-0.09603107,9.356943,0.36262208,0.08409219,0.0,0.08835404,0.7050725836339784,0.11288552731275558,0.06538956612348557,0.012451171875
16.701048374176025,-0.8278152,-2.2471452,-4.026524,0.0013599915826734768,nan,nan,nan,nan,6.699119806289673,0.0005402565002441406,0.8011443,-1.2294871,0.15498248,0.09645515912737013,-0.09685500562783433,9.005066861733795,0.10187951,0.07822612,0.011777054,-0.91423595,-2.510726,-3.3379679,0.0,0.9167948,-1.179612,0.2688665,0.1355423,-0.086826965,9.397572,0.44692433,0.07380867,0.0,0.09510575,0.7066115287359948,0.10334968566894531,0.07694779336452484,0.01177978515625
16.80109667778015,-0.7450851,-2.3561158,-4.00348,0.003414438363136575,nan,nan,nan,nan,6.79919171333313,0.0006463527679443359,0.87395066,-1.1133726,0.211505,0.10557858369450679,-0.08886970409687067,9.053122603520752,0.09218386,0.087871164,0.012348307,-0.81855464,-2.6223145,-3.308464,0.0,0.99398494,-1.0493659,0.320011,0.14239508,-0.077017374,9.4462185,0.5240099,0.06308649,0.0,0.10076132,0.7085210912879913,0.09897515922784805,0.07410421222448349,0.010955810546875
16.901113033294678,-0.6559403,-2.4527617,-3.9754198,0.005729960390919379,nan,nan,nan,nan,6.89917254447937,0.0005793571472167969,0.9386146,-0.9892718,0.26460034,0.11401446021402581,-0.08088885063919915,9.110021172985437,0.085936055,0.08376268,0.013781909,-0.7156954,-2.7204428,-3.2741215,0.0,1.0620238,-0.91251385,0.366062,0.14815423,-0.06670661,9.50212,0.59277904,0.052081753,0.0,0.105308145,0.7107754950057389,0.09167830646038055,0.07396659255027771,0.010650634765625
17.001726150512695,-0.56936055,-2.5296295,-3.9459274,0.008121409904797365,nan,nan,nan,nan,7.000030994415283,0.00099945068359375,0.9907878,-0.8690675,0.30949497,0.12068812465234108,-0.07325357937145882,9.174829593524342,0.0701745,0.089656875,0.012667043,-0.60552627,-2.8052628,-3.2351012,0.0,1.1209515,-0.7685378,0.4066681,0.15284072,-0.055900984,9.565014,0.65272486,0.040840134,0.0,0.10878111,0.7133347392264594,0.09764860570430756,0.0627605989575386,0.01043701171875
17.102879524230957,-0.46212077,-2.6060019,-3.9069593,0.01109403346697533,nan,nan,nan,nan,7.101506233215332,0.00128936767578125,1.043241,-0.72102654,0.3568601,0.12731278931788428,-0.06434816671302568,9.24640666507185,0.061619256,0.08451751,0.0126689,-0.48920184,-2.8756828,-3.1920373,0.0,1.1699553,-0.61861837,0.4409376,0.15641066,-0.0447318,9.633869,0.7025363,0.02953156,0.0,0.11117347,0.7161507912999462,0.079656682908535,0.07475074380636215,0.009307861328125
17.201662063598633,-0.35030723,-2.6664538,-3.8644054,0.014105259152070046,nan,nan,nan,nan,7.200082540512085,0.0006012916564941406,1.085834,-0.56739646,0.39701536,0.13293491722259942,-0.055497067870238226,9.322813383564359,0.044444095,0.09406967,0.012358298,-0.37194544,-2.9293203,-3.1472108,0.0,1.2073281,-0.4690549,0.46737605,0.15878494,-0.03370014,9.705064,0.74008876,0.018668963,0.0,0.11248326,0.7191448544617904,0.05326063930988312,0.09122776985168457,0.008270263671875
17.301027536392212,-0.24395154,-2.7078927,-3.8221,0.01695759752999256,nan,nan,nan,nan,7.299093008041382,0.0005428791046142578,1.1162595,-0.4225375,0.4284751,0.13631547582441464,-0.04637713388878839,9.403633658513433,0.02664755,0.10224776,0.012437547,-0.25097793,-2.9681995,-3.0999172,0.0,1.2344432,-0.3158866,0.48672032,0.16010208,-0.022537393,9.779743,0.76648074,0.007981843,0.0,0.112849794,0.7222985441887639,0.04684597998857498,0.09388311952352524,0.006805419921875
17.403563499450684,-0.12606443,-2.7371423,-3.773579,0.01996123330834891,nan,nan,nan,nan,7.402215242385864,0.0010688304901123047,1.1391222,-0.26375374,0.4552159,0.13846715267472032,-0.0359614095984806,9.488035497292882,0.0121205775,0.10603616,0.012024102,-0.12270751,-2.992454,-3.049028,0.0,1.2513695,-0.15425636,0.49886474,0.1603649,-0.010920989,9.859667,0.78146905,-0.0028227454,0.0,0.11229222,0.7255775572624447,0.035553108900785446,0.09877293556928635,0.004852294921875
17.500988721847534,-0.015850287,-2.7493398,-3.7269824,0.02266562315838791,nan,nan,nan,nan,7.4990692138671875,0.0005218982696533203,1.1501431,-0.116589785,0.47287247,0.1391103074481473,-0.025956488984355985,9.57455978475512,0.00054240134,0.1066356,0.01017239,-0.0011684655,-2.9999993,-3.0004673,0.0,1.2566366,-0.0014683371,0.5026545,0.15961476,-0.00010317415,9.935557,0.7837068,-0.012603814,0.0,0.1109677,0.7289239234104448,0.03135675936937332,0.09921843558549881,0.002685546875
17.60094666481018,0.10405261,-2.7466197,-3.6757238,0.02549712018704043,nan,nan,nan,nan,7.599012613296509,0.0005495548248291016,1.1509019,0.042026497,0.48356497,0.1388340859776481,-0.014998307192467975,9.662158108577142,-0.007047525,0.106674954,0.0067734737,0.124245,-2.9922636,-2.9503586,0.0,1.2512364,0.15619062,0.49876902,0.15786801,0.010888015,10.013497,0.7739484,-0.022276651,0.0,0.108863406,0.7322964606651434,0.017365682870149612,0.10063891857862473,-0.000274658203125
17.70270848274231,0.21404855,-2.7298903,-3.6284847,0.027906662530938146,nan,nan,nan,nan,7.701489210128784,0.0010404586791992188,1.1415542,0.18659271,0.48598996,0.13814435590438273,-0.005140114954209185,9.749074536189449,-0.009094149,0.104605846,0.0057921177,0.2516993,-2.9680147,-2.8997984,0.0,1.2343142,0.31679744,0.48662803,0.15509717,0.021903377,10.09176,0.7513635,-0.031718154,0.0,0.10600667,0.7356276684366828,0.02783690020442009,0.0981636494398117,-0.001861572265625
17.813907384872437,0.33166444,-2.6972547,-3.5780282,0.030136827212168767,nan,nan,nan,nan,7.812143802642822,0.0006487369537353516,1.1208096,0.34062096,0.4805986,0.13766639766668778,0.005310384649716449,9.842082932218924,-0.0124516245,0.10141302,0.0037426027,0.38668403,-2.92347,-2.8470914,0.0,1.2032498,0.48778614,0.4644783,0.15104912,0.033430103,10.1729145,0.7130881,-0.041348454,0.0,0.102216616,0.7391759547229434,0.03567791357636452,0.09820355474948883,-0.003662109375
17.902437925338745,0.43733263,-2.6535232,-3.5323815,0.031949555481607966,nan,nan,nan,nan,7.900561809539795,0.0007405281066894531,1.0916306,0.48035333,0.46853846,0.13616405504997126,0.015011307510083949,9.91535426639022,-0.013779973,0.1005873,0.0009806135,0.49162203,-2.8743994,-2.8070507,0.0,1.1690614,0.62171996,0.44030848,0.1470691,0.042316232,10.234237,0.6725981,-0.048615996,0.0,0.098721206,0.7419594780364458,0.011640962213277817,0.0978667140007019,-0.005950927734375
18.001742839813232,0.54793996,-2.5920463,-3.4849586,0.03364549609369491,nan,nan,nan,nan,7.999817609786987,0.0005095005035400391,1.0494658,0.62825656,0.448162,0.13433497352806395,0.025237926447921888,9.993055675253288,-0.018110331,0.09914837,-0.00091594877,0.6053583,-2.805378,-2.7649596,0.0,1.1210315,0.76831996,0.40672356,0.1418572,0.051902074,10.298336,0.6173053,-0.05632378,0.0,0.094359025,0.7449000834670843,-0.009219899773597717,0.09493885934352875,-0.008331298828125
18.10102653503418,0.63776106,-2.5290737,-3.4468005,0.034859535412651445,nan,nan,nan,nan,8.099077224731445,0.0006074905395507812,1.005388,0.750251,0.42504993,0.13253732745533922,0.03361546358131284,10.064834408983602,-0.022955272,0.09381933,-0.0022258777,0.71383727,-2.7220364,-2.726519,0.0,1.0631298,0.9100657,0.36681795,0.13590343,0.06103426,10.356463,0.55241406,-0.06356322,0.0,0.089582786,0.7476064037114952,0.010090954601764679,0.09585414826869965,-0.0093994140625
18.200842142105103,0.73889756,-2.4415994,-3.4047892,0.03592760014171365,nan,nan,nan,nan,8.198886156082153,0.0006308555603027344,0.94454736,0.89065224,0.39191538,0.13013654589413184,0.043352531805127104,10.129849293455491,-0.023781504,0.09552012,-0.0033597462,0.81664366,-2.6243281,-2.6921515,0.0,0.99537957,1.0467969,0.32094565,0.12921515,0.069720075,10.407978,0.47848514,-0.07038295,0.0,0.08440691,0.7500493850648874,-0.01568019390106201,0.09252458810806274,-0.011474609375
18.301007509231567,0.82624906,-2.3485408,-3.3694363,0.03668967675416012,nan,nan,nan,nan,8.299074411392212,0.0014929771423339844,0.8792449,1.0161943,0.35587308,0.1275323213937658,0.052244171754654234,10.187352829799067,-0.037256747,0.08984309,-0.006490683,0.9125798,-2.512853,-2.662518,0.0,0.91826445,1.1773272,0.26982895,0.12183947,0.07790207,10.451877,0.39667207,-0.07677999,0.0,0.07887157,0.7522035966642248,-0.022931724786758423,0.09127696603536606,-0.0130615234375
18.400967359542847,0.913512,-2.234852,-3.335756,0.03726786762622213,nan,nan,nan,nan,8.399009943008423,0.0005538463592529297,0.79955757,1.146543,0.31175062,0.12247143597965057,0.06135103067857717,10.23681493602694,-0.05851339,0.08419314,-0.0076577733,1.0001462,-2.3890004,-2.638281,0.0,0.8328211,1.2999954,0.21458523,0.11386564,0.08549524,10.487171,0.30874804,-0.0827288,0.0,0.07303957,0.7540516991947029,-0.046504437923431396,0.08434633165597916,-0.01495361328125
18.50264024734497,0.9860814,-2.118884,-3.3097098,0.03758692911715567,nan,nan,nan,nan,8.501239776611328,0.0006628036499023438,0.71810377,1.2595154,0.2664176,0.11623892032327521,0.06936397851848297,10.277346742674718,-0.06969558,0.0796088,-0.009784287,1.0804683,-2.25005,-2.6193852,0.0,0.7372681,1.4168879,0.1545835,0.105115645,0.09264433,10.513914,0.21370989,-0.0883824,0.0,0.066774696,0.7555628040784899,-0.03763166815042496,0.08558878302574158,-0.016082763671875
18.601717948913574,1.0502789,-1.9927404,-3.289064,0.03763513272928144,nan,nan,nan,nan,8.599769353866577,0.0006530284881591797,0.6297989,1.3646525,0.21716914,0.10911892665573879,0.07685779267582382,10.308407968804248,-0.0757471,0.07438242,-0.012013666,1.1482782,-2.105259,-2.6071067,0.0,0.6380594,1.5206163,0.094330505,0.09615547,0.09891494,10.530311,0.118679166,-0.09342955,0.0,0.060464595,0.7567188115582738,-0.036926254630088806,0.08406993746757507,-0.017303466796875
18.70186448097229,1.1099339,-1.8448337,-3.272545,0.03733004286509102,nan,nan,nan,nan,8.700423002243042,0.0014128684997558594,0.52715033,1.4695691,0.16037093,0.10126952422240894,0.08447998697165904,10.328937249109156,-0.07844233,0.06836492,-0.014072929,1.2071272,-1.9472746,-2.600776,0.0,0.5302531,1.6168658,0.031294674,0.08650872,0.10466531,10.537283,0.019649858,-0.098185495,0.0,0.053751614,0.7574818952740751,-0.05500312149524689,0.0742899477481842,-0.01873779296875
18.80132532119751,1.1521959,-1.7116275,-3.2634256,0.036781349974712135,nan,nan,nan,nan,8.799392223358154,0.0005860328674316406,0.43571547,1.5503262,0.11031436,0.09393817404256069,0.09037470752427268,10.3395853970945,-0.08057604,0.06721962,-0.0148244435,1.2541264,-1.7829881,-2.6007702,0.0,0.41866493,1.7013534,-0.031179557,0.076576136,0.109647706,10.534388,-0.07812064,-0.10246966,0.0,0.046891928,0.7578773936433519,-0.037406183779239655,0.08641219139099121,-0.018829345703125
18.90129327774048,1.1925625,-1.5459702,-3.2586284,0.03578622960062913,nan,nan,nan,nan,8.899384021759033,0.0005755424499511719,0.3231316,1.6363155,0.0500289,0.0859224967214097,0.09771819586315655,10.339807501435294,-0.07395714,0.07070886,-0.018111352,1.2901496,-1.6090462,-2.6070273,0.0,0.30113235,1.7759756,-0.09380611,0.06613032,0.11397918,10.521678,-0.1757481,-0.10639898,0.0,0.039701514,0.757885640975324,-0.06443730741739273,0.07261472195386887,-0.020660400390625
19.000863075256348,1.2194932,-1.3865489,-3.2604246,0.03457719626747566,nan,nan,nan,nan,8.998889446258545,0.0005793571472167969,0.21404982,1.7061999,-0.0064294823,0.07813218510393062,0.10421693626692341,10.329430878162396,-0.0847588,0.061061963,-0.019233301,1.3141286,-1.429091,-2.6194055,0.0,0.1802487,1.8390822,-0.1546626,0.05536526,0.11756293,10.499461,-0.27022314,-0.10990011,0.0,0.032285467,0.7575002343745025,-0.0749422237277031,0.06774689257144928,-0.021881103515625
19.101880311965942,1.2351183,-1.235686,-3.267145,0.033282496252994856,nan,nan,nan,nan,9.1000816822052,0.0007452964782714844,0.11033945,1.7620211,-0.05789997,0.0700914581780118,0.10958139409930445,10.30877038985492,-0.09894856,0.049133446,-0.019748263,1.3260145,-1.2402393,-2.6380868,0.0,0.054229118,1.8914707,-0.21406725,0.044082474,0.1204371,10.46743,-0.3620189,-0.11302307,0.0,0.02447614,0.7567322895170319,-0.047547608613967896,0.09643658995628357,-0.02239990234375
19.201487064361572,1.2419648,-1.052362,-3.2811196,0.03154883956193123,nan,nan,nan,nan,9.199491262435913,0.0005640983581542969,-0.01609957,1.8163682,-0.11698287,0.05979355369012007,0.1156921156691948,10.278467747867117,-0.0957162,0.05662912,-0.021112764,1.3251606,-1.0501413,-2.6621323,0.0,-0.071678266,1.9310744,-0.26906547,0.03271313,0.12247805,10.427187,-0.44655383,-0.1156355,0.0,0.016541535,0.7556045549554006,-0.08931408822536469,0.055726103484630585,-0.02447509765625
19.301043272018433,1.2360184,-0.8648453,-3.3012447,0.029548605514391556,nan,nan,nan,nan,9.299073934555054,0.001310110092163086,-0.14598407,1.8586365,-0.17362979,0.04914924339663348,0.12135347513547567,10.241216768622412,-0.09853418,0.057673883,-0.022482593,1.311691,-0.85636187,-2.6914988,0.0,-0.19895828,1.9587519,-0.31995416,0.021087576,0.12371882,10.378785,-0.52427685,-0.11776632,0.0,0.0083353035,0.7542159527357561,-0.11433309316635132,0.024540137499570847,-0.026336669921875
19.402981519699097,1.2200657,-0.7041894,-3.3231056,0.027707058836733703,nan,nan,nan,nan,9.401748418807983,0.0012977123260498047,-0.25892037,1.8835747,-0.21962205,0.039127777382987394,0.12440634171475229,10.190674670338645,-0.11636944,0.02855661,-0.024033781,1.2845125,-0.65432376,-2.726823,0.0,-0.3303997,1.9745878,-0.36717546,0.008906501,0.12412905,10.321203,-0.5958153,-0.119411,0.0,-0.00038727504,0.7523278542846257,-0.10079527646303177,0.038171686232089996,-0.0264892578125
19.502625942230225,1.1909468,-0.5275811,-3.3516855,0.025584778742231803,nan,nan,nan,nan,9.500865459442139,0.0006296634674072266,-0.38264793,1.8991809,-0.26665878,0.027191318109558302,0.12632749145822664,10.136714783310902,-0.12017291,0.016810846,-0.024462854,1.2455035,-0.45835882,-2.7652385,0.0,-0.45652127,1.9775994,-0.4069779,-0.0029840858,0.12366347,10.259111,-0.65546876,-0.120419115,0.0,-0.009044176,0.7503069025930053,-0.10158976912498474,0.02867555059492588,-0.026336669921875
19.6010525226593,1.145471,-0.3350319,-3.3873026,0.02319434542184716,nan,nan,nan,nan,9.599103212356567,0.0005578994750976562,-0.5158383,1.9026592,-0.31297824,0.013950262404555854,0.1266722586283049,10.069650096893323,-0.120369665,0.0028127618,-0.024133509,1.1945816,-0.26442635,-2.8069038,0.0,-0.5798489,1.968725,-0.44020683,-0.014837798,0.122345015,10.1922245,-0.7045335,-0.12080528,0.0,-0.017830122,0.7477876267473565,-0.1120162159204483,0.0010449998080730438,-0.025299072265625
19.700905561447144,1.0906854,-0.15731795,-3.42402,0.02095907096412905,nan,nan,nan,nan,9.698960542678833,0.0006215572357177734,-0.63660604,1.8938901,-0.3501199,0.001943207537394737,0.12638586678244046,9.996652843952193,-0.12107464,-0.01640259,-0.026256397,1.130526,-0.06878334,-2.852265,0.0,-0.7025735,1.9477254,-0.4671147,-0.026892645,0.120111145,10.119838,-0.74335426,-0.12051689,0.0,-0.026937455,0.7450359407419012,-0.11282645910978317,-0.00757405161857605,-0.024688720703125
19.808475255966187,1.0296282,0.004547098,-3.4602158,0.018945205584717725,nan,nan,nan,nan,9.806866884231567,0.0014431476593017578,-0.74511325,1.8757802,-0.37888336,-0.009285116294802657,0.12414848309452542,9.918237514495866,-0.12402167,-0.032547873,-0.026512347,1.0477345,0.13956857,-2.9038713,0.0,-0.8311331,1.9116933,-0.48792368,-0.03984334,0.11666659,10.037949,-0.772063,-0.11936699,0.0,-0.036925517,0.7420687998061422,-0.10078178346157074,0.02645949274301529,-0.02301025390625
19.90081524848938,0.9373764,0.20772922,-3.5088956,0.01652477466783552,nan,nan,nan,nan,9.898845434188843,0.0005147457122802734,-0.8780136,1.8391628,-0.408914,-0.02332961315161011,0.12096449133484555,9.835222566723841,-0.120496,-0.034011718,-0.025396582,0.9664074,0.31357437,-2.9492917,0.0,-0.9365519,1.8703039,-0.49859944,-0.050748847,0.11287593,9.966248,-0.7852758,-0.11764656,0.0,-0.045504566,0.7389148048803352,-0.11889778077602386,-0.03711223229765892,-0.021881103515625
20.011776208877563,0.838346,0.3920673,-3.5561273,0.014471593438289129,nan,nan,nan,nan,10.010242462158203,0.0008461475372314453,-0.994338,1.7921308,-0.42872307,-0.036425114334554684,0.11551230312926375,9.741888298988359,-0.123003386,-0.064793035,-0.024218535,0.85524297,0.5185468,-3.0051491,0.0,-1.0580602,1.8074522,-0.50261325,-0.06369414,0.107227944,9.878523,-0.7871329,-0.11458757,0.0,-0.055888224,0.7353528092665715,-0.11727311462163925,-0.02874283865094185,-0.0196533203125
20.10130548477173,0.7364817,0.55752695,-3.6007879,0.012739483137961284,nan,nan,nan,nan,10.099414110183716,0.0005669593811035156,-1.0935904,1.7377934,-0.4401525,-0.048532084183047476,0.10901025863683556,9.664509075880067,-0.12057972,-0.068244934,-0.024299378,0.7567678,0.67710865,-3.0498416,0.0,-1.1497211,1.747482,-0.4987374,-0.07377224,0.101876535,9.808692,-0.77742845,-0.11132807,0.0,-0.06411814,0.7323867618456553,-0.11740107089281082,-0.04451059550046921,-0.016815185546875
20.200910091400146,0.6162318,0.7304114,-3.649581,0.011059759140702584,nan,nan,nan,nan,10.198945760726929,0.0005800724029541016,-1.191554,1.6675749,-0.44475687,-0.06108707925150913,0.10199496920754236,9.578669607639332,-0.11760939,-0.069154136,-0.022386167,0.6375119,0.8473091,-3.0989633,0.0,-1.2453917,1.6708838,-0.48702803,-0.08463563,0.09504462,9.732328,-0.7550045,-0.10680379,0.0,-0.07312299,0.7290824957469929,-0.1154402643442154,-0.05667401850223541,-0.014984130859375
20.31355595588684,0.5176731,0.857909,-3.6866784,0.009919203872548885,nan,nan,nan,nan,10.313690662384033,0.0009298324584960938,-1.2595681,1.6059623,-0.44276536,-0.07053679888285634,0.09655249266880173,9.493352611064932,-0.113024,-0.06168817,-0.020332312,0.48873073,1.0334022,-3.1536264,0.0,-1.3460557,1.5706593,-0.4641041,-0.09653565,0.08607556,9.647876,-0.7144504,-0.10039968,0.0,-0.08312569,0.725783637950104,-0.1210295632481575,0.010425947606563568,-0.0157470703125
20.40506935119629,0.39279872,1.003985,-3.7298918,0.008740826058068502,nan,nan,nan,nan,10.403457880020142,0.0013506412506103516,-1.3345262,1.5236533,-0.4343707,-0.08144133601491241,0.09064339123463427,9.418435209989571,-0.10859549,-0.058265135,-0.018242141,0.36466324,1.1705562,-3.1942232,0.0,-1.4169647,1.4839562,-0.43942314,-0.10528911,0.0782772,9.585568,-0.6722759,-0.09449658,0.0,-0.090553984,0.7228746455699151,-0.11990246176719666,-0.01503823697566986,-0.016357421875
20.50135898590088,0.23894794,1.163402,-3.7778285,0.007637574376721648,nan,nan,nan,nan,10.499489545822144,0.0005843639373779297,-1.4127222,1.4170462,-0.41599795,-0.0936367385763474,0.08367375442163683,9.34007363677027,-0.10413722,-0.06301213,-0.018456971,0.22526985,1.3083127,-3.2349072,0.0,-1.4846265,1.3837718,-0.40684515,-0.11402652,0.069219,9.523553,-0.6176785,-0.08732528,0.0,-0.0979994,0.7198195115963999,-0.10778731852769852,-0.06510145217180252,-0.017547607421875
20.60118007659912,0.08868818,1.3002676,-3.8191931,0.006978509179597893,nan,nan,nan,nan,10.599242687225342,0.0006706714630126953,-1.4767164,1.3084142,-0.39030764,-0.10441474437154902,0.07582356345161934,9.268020150661492,-0.09721575,-0.08583426,-0.018289011,0.07405889,1.440848,-3.273542,0.0,-1.5453995,1.2722822,-0.36674604,-0.12232833,0.059084702,9.465164,-0.5514505,-0.07897127,0.0,-0.105062306,0.716998985056198,-0.095847487449646,-0.08971196413040161,-0.01904296875
20.70303988456726,-0.04324747,1.4076056,-3.8511589,0.00666516595733728,nan,nan,nan,nan,10.70143723487854,0.0006909370422363281,-1.5230331,1.2108763,-0.36228096,-0.11268018847706486,0.06742178609731386,9.202686356306103,-0.08817192,-0.10090664,-0.016683279,-0.086604595,1.564729,-3.3086655,0.0,-1.5970815,1.1510543,-0.3197039,-0.12992291,0.048013493,9.4126625,-0.47465143,-0.06951522,0.0,-0.11145646,0.7144320071622868,-0.10165023058652878,-0.07527787238359451,-0.0203857421875
20.803120374679565,-0.20402567,1.5235692,-3.8851426,0.006345347569881046,nan,nan,nan,nan,10.801873207092285,0.0011968612670898438,-1.5673014,1.0897291,-0.3231907,-0.12129730265045173,0.05655976750000913,9.145502117276214,-0.07758915,-0.106157675,-0.017513972,-0.24910647,1.6740972,-3.3382351,0.0,-1.6369892,1.0258722,-0.26833555,-0.13640401,0.036543123,9.369103,-0.39158952,-0.059418406,0.0,-0.11678604,0.7121777388867052,-0.09263679385185242,-0.08878616243600845,-0.0205078125
20.901994466781616,-0.36907142,1.6260949,-3.9145353,0.006112105795208531,nan,nan,nan,nan,10.90065336227417,0.0011174678802490234,-1.6000223,0.96237564,-0.27885726,-0.1291159696061604,0.045278338636732585,9.096801845431349,-0.071068056,-0.10848998,-0.017486284,-0.41229987,1.7691444,-3.3620708,0.0,-1.6653472,0.89779913,-0.2136457,-0.1417546,0.024790157,9.334711,-0.30387768,-0.048812408,0.0,-0.12099673,0.7102523553657281,-0.07751418650150299,-0.10412050783634186,-0.020660400390625
21.001057386398315,-0.5365496,1.714276,-3.9388292,0.006051332633945278,nan,nan,nan,nan,10.999176502227783,0.000537872314453125,-1.6204933,0.82967347,-0.22910021,-0.1355870987488074,0.033081020217513135,9.057782666683217,-0.052667253,-0.11830297,-0.018076453,-0.57731414,1.8511369,-3.3802946,0.0,-1.6825899,0.76605815,-0.15582305,-0.14601953,0.012707565,9.309276,-0.2118195,-0.037684884,0.0,-0.1240897,0.7087059956043317,-0.059123482555150986,-0.11371372640132904,-0.020538330078125
21.101723194122314,-0.6920679,1.7824023,-3.9566095,0.006121862315308257,nan,nan,nan,nan,11.099762916564941,0.0006275177001953125,-1.6282163,0.70358247,-0.17961502,-0.14036368657528117,0.021408304587315685,9.028578513264673,-0.04273206,-0.119557254,-0.019663934,-0.7469623,1.9212908,-3.3928926,0.0,-1.6886055,0.62837595,-0.09433459,-0.14922029,0.000117296375,9.292838,-0.11459882,-0.025897019,0.0,-0.12603778,0.7075464322412673,-0.05391215533018112,-0.10932940244674683,-0.021148681640625
21.201585054397583,-0.8345728,1.8335449,-3.9687202,0.0061903063796277386,nan,nan,nan,nan,11.199836730957031,0.0011327266693115234,-1.6258208,0.58586574,-0.13195507,-0.1436307314405994,0.01071785436700834,9.00917017906906,-0.030824115,-0.11762594,-0.019812683,-0.91575676,1.977224,-3.3992057,0.0,-1.6828376,0.48917714,-0.03166386,-0.15121292,-0.012540397,9.286286,-0.016165078,-0.013893927,0.0,-0.12671839,0.7067747784741178,-0.06218799576163292,-0.09992395341396332,-0.0223388671875
21.301424503326416,-1.0012829,1.879682,-3.9775884,0.006226224871850677,nan,nan,nan,nan,11.299599409103394,0.0009748935699462891,-1.6111808,0.44536507,-0.073761776,-0.14671687667185165,-0.0013391899913639538,8.999804435893912,-0.023355342,-0.111956835,-0.020250656,-1.0828673,2.019049,-3.3992233,0.0,-1.6653676,0.34918505,0.031310335,-0.15199678,-0.025163393,9.289581,0.082109496,-0.0018154843,0.0,-0.12613106,0.706402109628359,-0.04151885211467743,-0.10655403137207031,-0.023101806640625
21.40109658241272,-1.1528742,1.9086648,-3.9806325,0.006205038366994209,nan,nan,nan,nan,11.39917254447937,0.0005919933319091797,-1.5874162,0.31483734,-0.018878762,-0.1488970474471734,-0.012263465568069787,9.00091627828779,-0.018798012,-0.111731835,-0.02110787,-1.2473412,2.0468476,-3.3929925,0.0,-1.6362922,0.20921455,0.093675815,-0.1515788,-0.037641473,9.302589,0.17881419,0.010189456,0.0,-0.124295644,0.7064463606808616,-0.03097875788807869,-0.10868590325117111,-0.024078369140625
21.50113296508789,-1.3141681,1.9264508,-3.978091,0.006069365755586045,nan,nan,nan,nan,11.49918270111084,0.0005624294281005859,-1.5512038,0.17385766,0.040997,-0.15002592644650214,-0.02420385412624748,9.012631183937216,-0.0010097555,-0.11472361,-0.021539252,-1.4090427,2.0607677,-3.3805492,0.0,-1.5954977,0.06936101,0.15483879,-0.14996496,-0.049929127,9.325215,0.27304125,0.022034982,0.0,-0.121234305,0.7069124450260278,-0.006697317585349083,-0.11400163918733597,-0.0242919921875
21.60150671005249,-1.4590169,1.930729,-3.9701521,0.005837558063499976,nan,nan,nan,nan,11.599534034729004,0.0005390644073486328,-1.5076498,0.04604684,0.09593042,-0.14919145914249635,-0.035555623454308405,9.034668272510196,0.019451205,-0.11699189,-0.023987368,-1.5666184,2.0607543,-3.36203,0.0,-1.5430825,-0.06925511,0.21375464,-0.14717214,-0.06189212,9.357182,0.36319554,0.03355199,0.0,-0.11700036,0.7077883833095181,-0.004747569561004639,-0.11344505846500397,-0.02435302734375
21.703389406204224,-1.5992074,1.923672,-3.956649,0.005516755028888626,nan,nan,nan,nan,11.702101945877075,0.001302957534790039,-1.4543515,-0.07833908,0.14949414,-0.1468109889523294,-0.04681542607001021,9.066658527329588,0.029587828,-0.11246547,-0.022692723,-1.7216456,2.0464995,-3.3371634,0.0,-1.477914,-0.20815176,0.27045664,-0.14314918,-0.0736228,9.398909,0.44933054,0.044792015,0.0,-0.11156112,0.7090580449142806,-0.012825172394514084,-0.1129496693611145,-0.0240478515625
21.801044464111328,-1.7445852,1.9035885,-3.936217,0.004976525290726189,nan,nan,nan,nan,11.799124956130981,0.0005345344543457031,-1.3858222,-0.2085975,0.20474197,-0.14382592706151404,-0.05867529005216254,9.108035412207272,0.0323745,-0.10953545,-0.023809062,-1.8616204,2.0200686,-3.3084853,0.0,-1.4058228,-0.33604705,0.31997868,-0.13831215,-0.08415882,9.446183,0.52396154,0.054808144,0.0,-0.10548319,0.710696935050413,0.005033973604440689,-0.10955728590488434,-0.02239990234375
21.901119470596313,-1.8820094,1.8705144,-3.9102747,0.0042756015310428525,nan,nan,nan,nan,11.899133682250977,0.0005383491516113281,-1.3067535,-0.33427933,0.25634456,-0.1401117909447881,-0.07005067554649158,9.153259356394434,0.037350733,-0.10367683,-0.024824446,-1.9980731,1.98005,-3.2741356,0.0,-1.3213072,-0.46343368,0.36604545,-0.1323446,-0.09435969,9.502098,0.59275436,0.06440066,0.0,-0.09838572,0.712483950503517,0.018212303519248962,-0.10416880249977112,-0.0205078125
22.001110315322876,-2.0007966,1.8282729,-3.8820193,0.0035917509458914254,nan,nan,nan,nan,11.999236345291138,0.0012934207916259766,-1.2243251,-0.44630527,0.299785,-0.13662132289157652,-0.08029424661706575,9.212391415610936,0.03571607,-0.10295732,-0.024297545,-2.125692,1.9274976,-3.235424,0.0,-1.2268362,-0.5855587,0.40637308,-0.12545156,-0.10382226,9.564495,0.6522923,0.0731739,0.0,-0.090561196,0.7148138958131658,0.020973585546016693,-0.10022000968456268,-0.019073486328125
22.10108208656311,-2.1195621,1.7703239,-3.8468263,0.002796012393106631,nan,nan,nan,nan,12.09911823272705,0.0005183219909667969,-1.1255076,-0.563539,0.34224343,-0.13222650211259135,-0.09067747454578101,9.278352719321875,0.051141687,-0.09070352,-0.02227598,-2.243134,1.8631804,-3.193089,0.0,-1.1233006,-0.70121855,0.44021177,-0.11774248,-0.1124527,9.632194,0.70149195,0.08103896,0.0,-0.08216571,0.7174041241434234,0.043853290379047394,-0.08935260027647018,-0.016632080078125
22.201262950897217,-2.2120585,1.7115644,-3.813245,0.0020373378338984782,nan,nan,nan,nan,12.199357271194458,0.0009779930114746094,-1.035327,-0.6589184,0.37365207,-0.12746629165936246,-0.09880774947067983,9.349158246293694,0.05485462,-0.090502486,-0.020684369,-2.3501606,1.7873621,-3.1475496,0.0,-1.0107217,-0.8102879,0.46720728,-0.109262384,-0.12024692,9.704528,0.739853,0.08799912,0.0,-0.07327879,0.7201743542952516,0.034440770745277405,-0.09612119942903519,-0.01519775390625
22.30104351043701,-2.311616,1.6321197,-3.7703686,0.00111447225057993,nan,nan,nan,nan,12.299134731292725,0.0006163120269775391,-0.9216173,-0.7653784,0.40481636,-0.1212468835934215,-0.10808266700075553,9.424933457151084,0.06732749,-0.0830629,-0.019276075,-2.4450848,1.7014145,-3.0998962,0.0,-0.8907349,-0.9111568,0.48672715,-0.1001758,-0.12710273,9.779775,0.7664898,0.09397949,0.0,-0.06409712,0.7231274253209101,0.05909790098667145,-0.08620710670948029,-0.012176513671875
22.401190042495728,-2.393493,1.5496525,-3.7282655,0.00019687624461775521,nan,nan,nan,nan,12.39927625656128,0.0014224052429199219,-0.8102016,-0.857297,0.42794004,-0.114193687807469,-0.1160320588366528,9.504415021911292,0.07980678,-0.078860484,-0.017051179,-2.5279517,1.6054478,-3.0504932,0.0,-0.7631185,-1.0039997,0.49863392,-0.09050366,-0.13305044,9.857372,0.7812211,0.09903097,0.0,-0.05466014,0.7262122099941737,0.06457662582397461,-0.0872681736946106,-0.00946044921875
