time,x,y,z,yaw,platform,trajectory,controller,feedforward,traj_time,comp_time,vx,vy,vz,roll,pitch,f,p,q,r,x_ref,y_ref,z_ref,yaw_ref,vx_ref,vy_ref,vz_ref,roll_ref,pitch_ref,f_ref,u_ff_df,u_ff_dphi,u_ff_dpsi,u_ff_dth,throttle,p_cmd,q_cmd,r_cmd
10.003578186035156,-0.004269899,-0.0112702,-2.6435623,-0.0016398819148953315,SIM,figure_eight,contraction,0.0,3.0994415283203125e-06,0.021419048309326172,-0.0032753635,-0.0031518023,-0.18545137,-0.004361277797762163,-0.001340400275591458,9.809119873046875,-0.0008070966,-0.0060708923,0.0011064733,3.8948733e-06,3.8948733e-06,-3.0,0.0,1.2566371,1.2566371,0.0,-6.269661e-07,1.5674152e-07,9.81,1.3219124e-06,-0.20228358,0.0,0.050570894,0.7379203341698592,1.8577423095703125,-1.83184814453125,-0.00738525390625
10.101859331130981,-0.0049209874,-0.012725808,-2.6591935,-0.0014124193980702088,nan,nan,nan,nan,0.09791898727416992,0.0012400150299072266,-0.0039699143,0.00023088921,-0.18366918,-0.001338025748725175,-0.006451180475877782,9.804126205444337,0.27425572,-0.40690196,0.009314403,0.12297102,0.122738354,-3.0,0.0,1.2542595,1.2471358,0.0,-0.019754887,0.004947721,9.812035,0.04135214,-0.20067579,0.0,0.050444517,0.7377299327346835,1.8435516357421875,-1.8942718505859375,-0.00140380859375
10.204046249389648,-0.004091535,-0.012387738,-2.6796122,-0.001653695825776326,nan,nan,nan,nan,0.20056653022766113,0.0013654232025146484,0.03483918,0.034699813,-0.24932796,0.06873399695369198,-0.09200346667824189,9.787847900390629,1.2242947,-1.5254729,0.035613086,0.25137275,0.2493794,-3.0,0.0,1.246672,1.2169347,0.0,-0.040121593,0.010107517,9.818403,0.0820518,-0.19557743,0.0,0.05004502,0.7371089272393483,1.4349212646484375,-1.409271240234375,0.076751708984375
10.30164098739624,0.0047937655,-0.0049631735,-2.7020042,-0.016271217139040395,nan,nan,nan,nan,0.29756975173950195,0.001047372817993164,0.17340243,0.15561527,-0.2631175,0.19999328254993504,-0.22688921704037557,9.761974334716799,1.4283533,-1.3111387,0.040834785,0.37176237,0.36528337,-3.0,0.0,1.2347368,1.169799,0.0,-0.05873282,0.014933939,9.828041,0.115700416,-0.18765624,0.0,0.049428057,0.7361208058636403,0.56427001953125,-0.461029052734375,0.21343994140625
10.402549266815186,0.036164712,0.022794873,-2.725777,-0.03060382588990118,nan,nan,nan,nan,0.39856958389282227,0.0007987022399902344,0.42765078,0.40242317,-0.22029129,0.3032564363014868,-0.3017618653250147,9.743064422607425,0.5885041,-0.30005103,0.06557976,0.49563858,0.48017776,-3.0,0.0,1.2174379,1.1022859,0.0,-0.07714185,0.019884061,9.8412075,0.14367425,-0.17638353,0.0,0.048557356,0.735397800574198,-0.420684814453125,0.321197509765625,0.297515869140625
10.500854253768921,0.10519936,0.08829623,-2.744146,-0.015993619584895036,nan,nan,nan,nan,0.49669361114501953,0.0009341239929199219,0.7312156,0.7253485,-0.1479277,0.30077822386567094,-0.289859603210203,9.742666778564455,-0.48169544,0.4880833,0.12141686,0.6140811,0.5844188,-3.0,0.0,1.195937,1.019701,0.0,-0.093799084,0.02459889,9.856297,0.16238558,-0.16270351,0.0,0.04751122,0.735382589445208,-1.051177978515625,0.7007293701171875,0.277191162109375
10.615412473678589,0.20175625,0.18312554,-2.7536972,0.015224388733488817,nan,nan,nan,nan,0.611825704574585,0.001055002212524414,0.9754007,0.98554444,-0.102866925,0.21171599690554127,-0.2314602024583654,9.760416259765627,-1.1087536,0.7834977,0.17297913,0.7500457,0.69530404,-3.0,0.0,1.1649221,0.90316486,0.0,-0.11146069,0.029987821,9.875695,0.17235641,-0.14358567,0.0,0.04606557,0.736061260607315,-1.2233734130859375,0.742401123046875,0.200897216796875
10.704219579696655,0.33412412,0.31236658,-2.7604322,0.04725754846633132,nan,nan,nan,nan,0.7004818916320801,0.0010483264923095703,1.1709783,1.1558173,-0.093249395,0.07622021336200303,-0.15181690544523363,9.780912551879888,-1.29942,0.79539967,0.20255479,0.8521065,0.7708991,-3.0,0.0,1.1368772,0.80042416,0.0,-0.123462126,0.03401721,9.890966,0.17083205,-0.12689196,0.0,0.044815388,0.736844191874776,-1.0436248779296875,0.6436920166015625,0.10504150390625
10.802268266677856,0.48415634,0.45135307,-2.7675257,0.06829452275152352,nan,nan,nan,nan,0.7981181144714355,0.0007352828979492188,1.2912612,1.1826947,-0.10793931,-0.053877997549638935,-0.0772103629811769,9.802247467041019,-1.1245368,0.65181494,0.1937956,0.96143436,0.8430584,-3.0,0.0,1.1019145,0.675847,0.0,-0.1348849,0.038320832,9.907196,0.16008127,-0.10682516,0.0,0.04332211,0.7376582865616367,-0.7239990234375,0.4878692626953125,0.024810791015625
10.901405096054077,0.61705804,0.56236166,-2.7752993,0.07767576009305839,nan,nan,nan,nan,0.8974218368530273,0.0008251667022705078,1.3422632,1.1028825,-0.12142061,-0.1405179719405359,-0.02604904014795517,9.820117416381837,-0.8463238,0.50556594,0.16377303,1.0689168,0.90344286,-3.0,0.0,1.0621032,0.538731,0.0,-0.14441669,0.042542968,9.922174,0.14015517,-0.084924564,0.0,0.04169601,0.7383394840135213,-0.4646759033203125,0.3633270263671875,-0.0242919921875
11.000985383987427,0.7624154,0.66481227,-2.7857022,0.08104932643570252,nan,nan,nan,nan,0.9968152046203613,0.0006535053253173828,1.3564775,0.9337677,-0.12869787,-0.20698395124858865,0.017081595090897794,9.835133895874023,-0.53251565,0.37376875,0.11535727,1.1723304,0.9498122,-3.0,0.0,1.0181168,0.3931021,0.0,-0.15171836,0.046602428,9.934785,0.11244268,-0.061833058,0.0,0.03997362,0.7389114288986829,-0.1865997314453125,0.255401611328125,-0.060577392578125
11.101173877716064,0.91547126,0.7439577,-2.797868,0.07846388434582849,nan,nan,nan,nan,1.0970568656921387,0.0007929801940917969,1.3339359,0.6863001,-0.12672025,-0.24428163589799032,0.05007773856376985,9.848638916015627,-0.19672447,0.25461242,0.060213514,1.2719961,0.9815875,-3.0,0.0,0.96973515,0.2400339,0.0,-0.15671262,0.05051868,9.944394,0.078415185,-0.03769759,0.0,0.03814816,0.7394254327959742,0.0626678466796875,0.1717681884765625,-0.0826416015625
11.201733827590942,1.048599,0.7847546,-2.8086464,0.07207032016145104,nan,nan,nan,nan,1.1976940631866455,0.0007913112640380859,1.2841696,0.43190932,-0.12005206,-0.2507607323947867,0.07067984394534221,9.86152282714844,0.05350018,0.1742413,0.012254582,1.3669804,0.9978406,-3.0,0.0,0.9172944,0.08253876,0.0,-0.15926416,0.05426191,9.95039,0.040280826,-0.012952269,0.0,0.03622765,0.739915468779669,0.190887451171875,0.1125030517578125,-0.09063720703125
11.30113434791565,1.1814127,0.7948448,-2.8191779,0.06244391320473584,nan,nan,nan,nan,1.297008752822876,0.0006480216979980469,1.2052025,0.15840593,-0.11365292,-0.23614687566824605,0.0848564739034976,9.873381805419926,0.22116162,0.1067807,-0.028880658,1.4553616,0.99825567,-3.0,0.0,0.8619474,-0.07419018,0.0,-0.15932928,0.05776201,9.952447,0.0010879427,0.011641937,0.0,0.034241706,0.7403662388773616,0.2652130126953125,0.0584564208984375,-0.089935302734375
11.400763273239136,1.290797,0.77473545,-2.8281705,0.052034635514595515,nan,nan,nan,nan,1.3965260982513428,0.0006847381591796875,1.1138394,-0.07559717,-0.11253729,-0.21180371813985577,0.09190326864725673,9.882695388793945,0.30145428,0.049325682,-0.055043064,1.5382402,0.9830959,-3.0,0.0,0.80312216,-0.23007947,0.0,-0.1569495,0.061066557,9.950626,-0.037334576,0.03613153,0.0,0.032152224,0.7407200665400205,0.261993408203125,0.0151214599609375,-0.083099365234375
11.502288818359375,1.3941866,0.7271293,-2.83778,0.04021434746139768,nan,nan,nan,nan,1.498483657836914,0.0016977787017822266,1.0025578,-0.29681587,-0.11712788,-0.18030724426510872,0.09361767106752472,9.887852096557616,0.31243643,-0.0016025561,-0.0738476,1.6169133,0.9516436,-3.0,0.0,0.739601,-0.38604432,0.0,-0.15200643,0.06423073,9.944943,-0.07337752,0.060717553,0.0,0.029895166,0.7409159007218514,0.2294158935546875,-0.0208587646484375,-0.070098876953125
11.600778818130493,1.4754153,0.6641322,-2.8473656,0.02925296643752799,nan,nan,nan,nan,1.5966060161590576,0.0009348392486572266,0.8947803,-0.4688305,-0.1268642,-0.1528137687531192,0.09118055055402796,9.887685775756836,0.27958825,-0.033587404,-0.08359766,1.6863667,0.90663475,-3.0,0.0,0.6756009,-0.5301958,0.0,-0.14491981,0.06705246,9.936252,-0.10276779,0.08356684,0.0,0.027597776,0.740909585221887,0.1798553466796875,-0.041168212890625,-0.05499267578125
11.701239347457886,1.54928,0.58035403,-2.8595474,0.017758041092273982,nan,nan,nan,nan,1.6971080303192139,0.0008804798126220703,0.778943,-0.6220411,-0.14215541,-0.1277170743055986,0.0857673793042808,9.881284484863281,0.2291936,-0.056624714,-0.08277095,1.7508597,0.84626955,-3.0,0.0,0.60738945,-0.66947955,0.0,-0.13539241,0.069702,9.9247055,-0.12565327,0.10580411,0.0,0.025103407,0.7406664763170239,0.1434326171875,-0.05242919921875,-0.03631591796875
11.801802396774292,1.6058776,0.4927018,-2.8728752,0.008077608219298184,nan,nan,nan,nan,1.7975904941558838,0.0007984638214111328,0.67700446,-0.73720247,-0.15883614,-0.10887930988582026,0.07957419087998985,9.868830947875976,0.18176335,-0.05846034,-0.075948745,1.8083628,0.77243966,-3.0,0.0,0.53677076,-0.7980754,0.0,-0.12370634,0.07209273,9.91129,-0.13983831,0.12651195,0.0,0.02245513,0.7401932888432665,0.103790283203125,-0.04705810546875,-0.019134521484375
11.901115417480469,1.6521631,0.3979311,-2.8881736,-0.0005074759233435408,nan,nan,nan,nan,1.896982192993164,0.0005910396575927734,0.5810317,-0.8318053,-0.17711742,-0.09473057337289684,0.07384296012576042,9.850715026855468,0.13753308,-0.052004535,-0.064409986,1.8581536,0.68730664,-3.0,0.0,0.46481356,-0.9127802,0.0,-0.11018909,0.07418784,9.897081,-0.14446883,0.14515541,0.0,0.019676987,0.7395044187497933,0.0853424072265625,-0.0382843017578125,-0.003662109375
12.002177715301514,1.6895635,0.2980481,-2.9054685,-0.007747665515121044,nan,nan,nan,nan,1.9980387687683105,0.0006499290466308594,0.49136522,-0.9102024,-0.19522882,-0.08300853125141212,0.06891535856080822,9.827545471191408,0.12197378,-0.044553064,-0.053269394,1.90135,0.58977723,-3.0,0.0,0.38979462,-1.0148174,0.0,-0.09465401,0.07602676,9.882659,-0.13933438,0.16189812,0.0,0.016690262,0.7386224570013689,0.07781982421875,-0.0245513916015625,0.009521484375
12.11139726638794,1.721516,0.18535635,-2.9262276,-0.01383476473272889,nan,nan,nan,nan,2.107642412185669,0.00098419189453125,0.4012173,-0.9787367,-0.214529,-0.07127800970002318,0.06504328264828918,9.79756126403809,0.11320042,-0.02829683,-0.035980046,1.9395324,0.47331566,-3.0,0.0,0.30666465,-1.1069627,0.0,-0.07604372,0.07767053,9.868184,-0.123005584,0.17716172,0.0,0.013275556,0.7374795470748885,0.0803985595703125,-0.007537841796875,0.020751953125
12.201111555099487,1.7436887,0.078808144,-2.947377,-0.017821939088833227,nan,nan,nan,nan,2.1969809532165527,0.0008599758148193359,0.3227405,-1.0280389,-0.23076785,-0.06015962763931622,0.06275037520298477,9.770661621093755,0.1197441,-0.014668249,-0.020200923,1.96386,0.37164927,-3.0,0.0,0.23781137,-1.1666282,0.0,-0.059753958,0.07872758,9.858074,-0.10229276,0.18712492,0.0,0.010371785,0.736452722517139,0.10028076171875,-0.0033721923828125,0.02783203125
12.30216121673584,1.7601556,-0.03732325,-2.9723964,-0.020612368941986398,nan,nan,nan,nan,2.2980411052703857,0.0006740093231201172,0.2411517,-1.0652008,-0.24718605,-0.047236826375636656,0.061592539172642624,9.739541931152349,0.13051455,-0.0077557834,-0.0058472375,1.9839194,0.25107324,-3.0,0.0,0.15903266,-1.2163846,0.0,-0.040393814,0.07960523,9.8492,-0.07233059,0.19548473,0.0,0.00698058,0.7352630434469161,0.11370849609375,0.00128173828125,0.032562255859375
12.401028156280518,1.7685784,-0.14340353,-2.9972196,-0.02216452218399994,nan,nan,nan,nan,2.3968846797943115,0.0007932186126708984,0.16822907,-1.0833404,-0.26030758,-0.03429434186967475,0.06138507913814495,9.708187866210944,0.13784134,-0.00020235995,0.004375812,1.9958038,0.1292162,-3.0,0.0,0.08135963,-1.246102,0.0,-0.02079721,0.0801279,9.843706,-0.03821887,0.20050098,0.0,0.0035852203,0.7340624807068471,0.1176910400390625,0.009124755859375,0.03460693359375
12.511320352554321,1.7700944,-0.26450175,-3.0281515,-0.02309204758259145,nan,nan,nan,nan,2.5076651573181152,0.0014324188232421875,0.08457362,-1.0851854,-0.2727049,-0.018193920700825487,0.061813714629528116,9.67482513427735,0.14452225,0.0030021132,0.014715544,1.9999768,-0.009632288,-3.0,0.0,-0.006052215,-1.2565788,0.0,0.0015505287,0.08031192,9.841735,0.0028751264,0.20227373,0.0,-0.0002670718,0.7327828741838188,0.12139892578125,0.0106353759765625,0.03570556640625
12.62023663520813,1.7660336,-0.3484012,-3.0511668,-0.023195883065961775,nan,nan,nan,nan,2.6163785457611084,0.0009288787841796875,0.026004104,-1.0737913,-0.27988884,-0.006536878616692051,0.06247624112354133,9.646521759033208,0.14123926,0.009919976,0.019882297,1.9946555,-0.14572482,-3.0,0.0,-0.09180693,-1.2432227,0.0,0.023453336,0.08007731,9.844245,0.042993058,0.20001417,0.0,-0.004044047,0.731695585247619,0.1272125244140625,0.0460662841796875,0.035247802734375
12.701533794403076,1.7560303,-0.4455803,-3.0791965,-0.02274276293033685,nan,nan,nan,nan,2.6975531578063965,0.0009009838104248047,-0.04321113,-1.0469283,-0.2861817,0.007473921839058147,0.06404020780472086,9.625967941284182,0.14247493,0.025290545,0.025193539,1.9846125,-0.24571063,-3.0,0.0,-0.15558155,-1.2181127,0.0,0.03953196,0.079635665,9.848885,0.07089546,0.19577594,0.0,-0.0068306406,0.7309049995123933,0.132049560546875,0.0262298583984375,0.03302001953125
12.818089962005615,1.7388964,-0.54545057,-3.1097546,-0.021711884990569322,nan,nan,nan,nan,2.8165628910064697,0.001436471939086914,-0.11808836,-1.0022626,-0.2901431,0.022889300983403103,0.06601238890799688,9.601693649291995,0.14588723,0.014022567,0.028550519,1.9605681,-0.3873955,-3.0,0.0,-0.24830334,-1.1585108,0.0,0.06227924,0.078584075,9.859484,0.10581617,0.18576561,0.0,-0.010818246,0.7299702209471612,0.1501312255859375,0.0409698486328125,0.029632568359375
12.90074896812439,1.717848,-0.631023,-3.1378841,-0.020420507500403348,nan,nan,nan,nan,2.8964879512786865,0.0005817413330078125,-0.18616644,-0.94625455,-0.29105568,0.037512696096271385,0.06733317927411786,9.58540191650391,0.14800553,0.008931114,0.029331038,1.9382591,-0.47788158,-3.0,0.0,-0.30982634,-1.1038605,0.0,0.07677442,0.077615425,9.868693,0.123811185,0.1766455,0.0,-0.013407338,0.7293421799128577,0.1412811279296875,0.018890380859375,0.0263671875
13.002589702606201,1.6897886,-0.7151627,-3.1680205,-0.018932316887199915,nan,nan,nan,nan,2.998457908630371,0.0005984306335449219,-0.2580649,-0.8695494,-0.2893966,0.05363274137866912,0.06833397576616385,9.571388320922853,0.14793465,0.008076717,0.028168716,1.9027109,-0.58621645,-3.0,0.0,-0.38716412,-1.0180701,0.0,0.09408591,0.076085046,9.882171,0.13898115,0.16243452,0.0,-0.016583866,0.7288015332095007,0.135467529296875,0.0190887451171875,0.0228271484375
13.103405475616455,1.6588501,-0.78408515,-3.1953652,-0.017570646237983295,nan,nan,nan,nan,3.0993573665618896,0.0012531280517578125,-0.32317057,-0.784599,-0.2859663,0.06814084065912773,0.06942632278865668,9.561568679809573,0.14142556,0.0121174585,0.027348213,1.85985,-0.68395835,-3.0,0.0,-0.46212727,-0.9167433,0.0,0.109656595,0.07425966,9.896553,0.1444557,0.14580277,0.0,-0.019571638,0.7284224540542625,0.1346435546875,0.027923583984375,0.01904296875
13.202697038650513,1.6195561,-0.8475376,-3.2243304,-0.016293171960259208,nan,nan,nan,nan,3.199007987976074,0.0012743473052978516,-0.3929796,-0.67788434,-0.27982226,0.08298311300226843,0.0709001109231373,9.555581893920902,0.13029666,0.013178794,0.024234463,1.8101846,-0.76971793,-3.0,0.0,-0.53434116,-0.8022171,0.0,0.12327488,0.07216896,9.910813,0.14015442,0.12718211,0.0,-0.022362685,0.7281912435966486,0.1152496337890625,0.020477294921875,0.014862060546875
13.300741910934448,1.5774806,-0.8945519,-3.2502463,-0.01549238824652905,nan,nan,nan,nan,3.2965269088745117,0.0006034374237060547,-0.45707318,-0.56701815,-0.2720973,0.09493498401222517,0.07179849449980513,9.553095321655277,0.1127301,0.011520339,0.021947656,1.7547116,-0.8419814,-3.0,0.0,-0.60298514,-0.67796385,0.0,0.13471466,0.06986125,9.9239025,0.12682174,0.1071647,0.0,-0.024940342,0.7280951905607053,0.104888916015625,0.0213470458984375,0.011444091796875
13.40072250366211,1.5252647,-0.9322358,-3.2774897,-0.014996096587032222,nan,nan,nan,nan,3.396623373031616,0.0006272792816162109,-0.5263805,-0.43657932,-0.2625396,0.10630042463620851,0.07290856763025189,9.553469314575198,0.09631677,0.010687104,0.018032515,1.6909256,-0.9030123,-3.0,0.0,-0.6710873,-0.5398698,0.0,0.14434882,0.06723875,9.93555,0.10455695,0.08510576,0.0,-0.027434373,0.7281096382169134,0.081268310546875,0.0088958740234375,0.00799560546875
13.50090742111206,1.4757146,-0.9525013,-3.2994552,-0.014971882923993443,nan,nan,nan,nan,3.496723175048828,0.0005805492401123047,-0.58452064,-0.31820673,-0.2534453,0.11456996141386648,0.07337307390257575,9.555923995971686,0.08541493,0.006428791,0.014996378,1.6204509,-0.94977605,-3.0,0.0,-0.7365381,-0.39324,0.0,0.15171269,0.06437375,9.944589,0.07494986,0.06185485,0.0,-0.02978591,0.7282044575736133,0.089324951171875,0.0205535888671875,0.005401611328125
13.60102128982544,1.4109244,-0.9625773,-3.3236096,-0.015264164277349536,nan,nan,nan,nan,3.5968544483184814,0.0005872249603271484,-0.65261734,-0.17124023,-0.24202605,0.12323463985140479,0.0738541296617159,9.559643859863288,0.074070714,0.009182175,0.011302863,1.543543,-0.98153895,-3.0,0.0,-0.7990956,-0.24034742,0.0,0.15670499,0.061278917,9.950371,0.03980216,0.03774692,0.0,-0.032009427,0.7283481251520487,0.054351806640625,0.0032196044921875,0.002716064453125
13.70071816444397,1.3448699,-0.9573905,-3.344185,-0.015924251512480787,nan,nan,nan,nan,3.696460008621216,0.0006234645843505859,-0.71452457,-0.0297373,-0.23068243,0.12947722665860575,0.07398287403676074,9.563915100097665,0.04868511,-0.003376127,0.007176734,1.4609787,-0.9977375,-3.0,0.0,-0.8581877,-0.084483124,0.0,0.15924798,0.057985205,9.952446,0.0014857813,0.013257456,0.0,-0.034107752,0.7285130533690758,0.03216552734375,-0.0046844482421875,0.000762939453125
13.803171873092651,1.2671479,-0.93579507,-3.3652422,-0.017184340858551958,nan,nan,nan,nan,3.7990365028381348,0.0008020401000976562,-0.7795477,0.127559,-0.21840982,0.13310540823509343,0.0729565335502198,9.568007049560558,0.016209835,-0.014350084,0.004240311,1.3699765,-0.998102,-3.0,0.0,-0.9155281,0.07738649,0.0,0.15930517,0.054380253,9.95052,-0.039002113,-0.012143598,0.0,-0.03616375,0.7286710239747923,-0.004058837890625,-0.01806640625,-0.000244140625
13.901280879974365,1.1903833,-0.90134835,-3.3837495,-0.018874069216787956,nan,nan,nan,nan,3.897150993347168,0.0006144046783447266,-0.8363397,0.27322432,-0.2074623,0.13302183956497748,0.07062080966156947,9.571135025024423,-0.019096982,-0.02919486,0.0028709988,1.2776043,-0.98295176,-3.0,0.0,-0.9668202,0.23104975,0.0,0.15692689,0.050739314,9.944841,-0.07630626,-0.036284164,0.0,-0.038040034,0.7287917573739615,-0.0245819091796875,-0.0181121826171875,0.000701904296875
14.000764846801758,1.1017374,-0.84873825,-3.4027843,-0.021004893074187264,nan,nan,nan,nan,3.9966156482696533,0.0006794929504394531,-0.8935427,0.4276114,-0.19655661,0.1293488217921801,0.06735952077972351,9.572596817016612,-0.053974714,-0.031780157,0.000110464636,1.1790084,-0.9523621,-3.0,0.0,-1.0150678,0.38323608,0.0,0.15211944,0.04686462,9.935517,-0.110377975,-0.06027378,0.0,-0.039856672,0.7288481727646018,-0.0561676025390625,-0.0245819091796875,0.002716064453125
14.10160231590271,1.0149274,-0.7873647,-3.4196346,-0.022908613108829155,nan,nan,nan,nan,4.097403049468994,0.0008230209350585938,-0.94271153,0.562881,-0.18775526,0.12343848221586268,0.06434754602482906,9.571816177368172,-0.07520227,-0.035027936,-0.0015699421,1.0744075,-0.9062117,-3.0,0.0,-1.0599138,0.5313367,0.0,0.14485313,0.04275852,9.922896,-0.13889055,-0.0837483,0.0,-0.041608587,0.7288180458330994,-0.060546875,-0.019439697265625,0.003936767578125
14.201141834259033,0.9315227,-0.7214796,-3.4345942,-0.024404409773198042,nan,nan,nan,nan,4.196977615356445,0.0007593631744384766,-0.9848885,0.6787748,-0.18083104,0.11658366227600636,0.0614864632322869,9.568389282226573,-0.08705289,-0.031904418,-0.00060500443,0.9668336,-0.84635675,-3.0,0.0,-1.100048,0.6693055,0.0,0.13540621,0.03853309,9.90798,-0.15930143,-0.105776206,0.0,-0.043244213,0.7286857784254085,-0.0489349365234375,-0.0059661865234375,0.0048828125
14.301184177398682,0.82830065,-0.6327424,-3.4517777,-0.02574855961540482,nan,nan,nan,nan,4.297027587890625,0.0007557868957519531,-1.0317131,0.8048432,-0.1739177,0.10747542099787968,0.05838428817880925,9.56233917236329,-0.09346036,-0.031172357,-0.0003207435,0.85493684,-0.7728888,-3.0,0.0,-1.136038,0.7973884,0.0,0.12377754,0.034128778,9.891392,-0.17067412,-0.1264008,0.0,-0.044778734,0.7284522053199839,-0.0756683349609375,-0.02081298828125,0.005096435546875
14.401571989059448,0.72863823,-0.5418683,-3.4676592,-0.026555844044621274,nan,nan,nan,nan,4.39756441116333,0.0011212825775146484,-1.0721073,0.9092567,-0.16825274,0.09801759185000034,0.0550824971006767,9.553806457519538,-0.10669266,-0.037064645,-0.00017360445,0.7390938,-0.6867749,-3.0,0.0,-1.1676824,0.91341203,0.0,0.11010452,0.029554663,9.874078,-0.17204735,-0.1452586,0.0,-0.046191424,0.7281226620856803,-0.087005615234375,-0.024932861328125,0.005035400390625
14.502854347229004,0.6166953,-0.43559062,-3.484849,-0.027031895620433292,nan,nan,nan,nan,4.499157905578613,0.0011103153228759766,-1.1117678,1.007935,-0.16327614,0.0863861803555073,0.05122929740857063,9.543109283447272,-0.11526132,-0.039530545,0.0017092999,0.6190403,-0.588641,-3.0,0.0,-1.1949272,1.0158585,0.0,0.09447274,0.02479589,9.856972,-0.16297537,-0.16206981,0.0,-0.047463007,0.7277093169928351,-0.1118011474609375,-0.0400848388671875,0.005035400390625
14.600775241851807,0.5098437,-0.3311353,-3.5007014,-0.02725347082583175,nan,nan,nan,nan,4.596545219421387,0.0006015300750732422,-1.1445891,1.084616,-0.15902176,0.07396398150244875,0.04662222533541649,9.530785827636723,-0.13956355,-0.05357718,0.0024694651,0.5015834,-0.4855533,-3.0,0.0,-1.2164763,1.098561,0.0,0.07800197,0.020121148,9.841912,-0.14481403,-0.17576398,0.0,-0.048509743,0.7272328441398381,-0.12640380859375,-0.046051025390625,0.005279541015625
14.701097011566162,0.39082542,-0.21228163,-3.5179114,-0.027363175484475345,nan,nan,nan,nan,4.696962833404541,0.0007448196411132812,-1.1746696,1.1516589,-0.15467633,0.05835076149006201,0.04050817103540694,9.518684234619148,-0.15702872,-0.059865426,0.0035747588,0.37851092,-0.37167042,-3.0,0.0,-1.233927,1.1666176,0.0,0.059757352,0.01520407,9.828678,-0.11741582,-0.18712313,0.0,-0.049386695,0.7267646494992958,-0.143463134765625,-0.05322265625,0.0064697265625
14.801007986068726,0.27890337,-0.09855265,-3.5336022,-0.027289439956090202,nan,nan,nan,nan,4.796906232833862,0.000835418701171875,-1.1968124,1.1970448,-0.15078893,0.04284149068806051,0.03489810416836603,9.504830322265631,-0.16715655,-0.06160654,0.0027951123,0.25452244,-0.25245297,-3.0,0.0,-1.2464197,1.2159336,0.0,0.040615547,0.010233951,9.818612,-0.08299711,-0.19540873,0.0,-0.050031833,0.7262282944060539,-0.1514434814453125,-0.050994873046875,0.00738525390625
14.90119457244873,0.15629302,0.027501395,-3.5501897,-0.027170066200313668,nan,nan,nan,nan,4.8971171379089355,0.0008566379547119141,-1.2143978,1.2276732,-0.14594133,0.024783205112871215,0.028398616484779815,9.491745834350588,-0.17623861,-0.06159303,0.0033947593,0.12919609,-0.12892625,-3.0,0.0,-1.2540125,1.2461494,0.0,0.020750556,0.0051980773,9.812245,-0.043403674,-0.200509,0.0,-0.05043142,0.7257213685868301,-0.1634674072265625,-0.05401611328125,0.008575439453125
15.00075650215149,0.042472437,0.14474374,-3.564663,-0.026897394854673504,nan,nan,nan,nan,4.996547222137451,0.0005521774291992188,-1.2246686,1.2384444,-0.14072028,0.0073364812071408676,0.022597630624389797,9.480286941528322,-0.18482018,-0.06092762,0.005006707,0.004338563,-0.0043385527,-3.0,0.0,-1.2566341,1.2566253,0.0,0.000698386,0.00017459689,9.810003,-0.0014724827,-0.20228158,0.0,-0.05057074,0.7252771353321619,-0.1702117919921875,-0.0493316650390625,0.00909423828125
15.101845502853394,-0.08141546,0.27007684,-3.5789962,-0.026357849226566914,nan,nan,nan,nan,5.097772121429443,0.00086212158203125,-1.2301909,1.2295059,-0.13374871,-0.012331917655887823,0.016250086258901897,9.471375732421874,-0.19074233,-0.05953513,0.0055624302,-0.122787155,0.12255553,-3.0,0.0,-1.2542666,1.2471641,0.0,-0.019725466,-0.004940327,9.812029,0.041291457,-0.20068061,0.0,-0.05044489,0.7249314839403553,-0.172698974609375,-0.0499420166015625,0.009796142578125
15.20386004447937,-0.19623198,0.38173944,-3.5912874,-0.025549475977424504,nan,nan,nan,nan,5.200236797332764,0.0015842914581298828,-1.2302544,1.2014989,-0.1262902,-0.03085940750292175,0.010828831497611047,9.465648117065427,-0.19107567,-0.05178585,0.0067849346,-0.25096193,0.24897835,-3.0,0.0,-1.2467047,1.2170644,0.0,-0.040057138,-0.010091026,9.818376,0.081928276,-0.19559927,0.0,-0.050046735,0.724709233152716,-0.1704864501953125,-0.0458984375,0.00946044921875
15.30334210395813,-0.32030195,0.4959677,-3.6036413,-0.024260226325946314,nan,nan,nan,nan,5.299404859542847,0.00101470947265625,-1.225782,1.1500422,-0.11759612,-0.05056190410475676,0.005440650254393331,9.463615264892573,-0.1828959,-0.053291332,0.008394735,-0.3740285,0.36742958,-3.0,0.0,-1.2344666,1.168737,0.0,-0.059077106,-0.015024653,9.828254,0.1162787,-0.18747827,0.0,-0.04941424,0.7246303354670778,-0.15753173828125,-0.0552978515625,0.0086669921875
15.40074634552002,-0.42434716,0.58543134,-3.613348,-0.0229730257011554,nan,nan,nan,nan,5.396509647369385,0.0005838871002197266,-1.2175459,1.0902226,-0.10918046,-0.0665814836946654,0.0006354360419771332,9.465479660034173,-0.1751804,-0.05677242,0.008646937,-0.49313033,0.47790554,-3.0,0.0,-1.21784,1.1038442,0.0,-0.07677825,-0.019784018,9.840912,0.14318739,-0.17664278,0.0,-0.0485773,0.7247026954341473,-0.1529388427734375,-0.052001953125,0.007659912109375
15.502117395401001,-0.5456505,0.6812382,-3.6237648,-0.02134267569751086,nan,nan,nan,nan,5.498425483703613,0.0012545585632324219,-1.2020059,1.0014226,-0.09825701,-0.08413207359261324,-0.005173949918292342,9.471300582885736,-0.15850799,-0.0573784,0.009118821,-0.61615205,0.5861835,-3.0,0.0,-1.1955165,1.0181001,0.0,-0.09408065,-0.024681158,9.856578,0.16263387,-0.16243945,0.0,-0.047491126,0.7249285683201103,-0.13409423828125,-0.0545654296875,0.006988525390625
15.603224754333496,-0.6554421,0.7591116,-3.6321445,-0.0198854953957257,nan,nan,nan,nan,5.599700927734375,0.0013308525085449219,-1.1821661,0.90426964,-0.08737082,-0.0989500212793549,-0.010390746094373737,9.480793380737298,-0.14398584,-0.053640395,0.007382327,-0.73589975,0.6842732,-3.0,0.0,-1.1684785,0.91637224,0.0,-0.109706655,-0.029428305,9.873608,0.17194036,-0.14574215,0.0,-0.046227816,0.7252967744106075,-0.12451171875,-0.05206298828125,0.006195068359375
15.700981855392456,-0.7711551,0.8302462,-3.639615,-0.018359809002403325,nan,nan,nan,nan,5.696805715560913,0.0006127357482910156,-1.1548839,0.7839516,-0.074449606,-0.11309325488310706,-0.01594781296649672,9.493848419189444,-0.12004979,-0.054597612,0.007750856,-0.84792536,0.76794875,-3.0,0.0,-1.1381106,0.8048902,0.0,-0.12299437,-0.033852372,9.890339,0.1710538,-0.12761477,0.0,-0.044869334,0.725802851538678,-0.09375,-0.0533905029296875,0.00567626953125
15.803450107574463,-0.8745039,0.8833764,-3.645383,-0.017050858256899275,nan,nan,nan,nan,5.799624681472778,0.0012199878692626953,-1.1242646,0.66180646,-0.0624604,-0.12372712704163957,-0.02106303348629468,9.509860610961903,-0.09503956,-0.051925514,0.0059472113,-0.96309376,0.84407496,-3.0,0.0,-1.1013423,0.67384046,0.0,-0.13504557,-0.038386073,9.907437,0.1598441,-0.10650335,0.0,-0.043298207,0.7264230875203799,-0.0909881591796875,-0.0469207763671875,0.00506591796875
15.901467323303223,-0.9821565,0.9268099,-3.6505036,-0.015727611358571064,nan,nan,nan,nan,5.897278070449829,0.0006759166717529297,-1.0861586,0.5203785,-0.049529202,-0.13289846305131878,-0.026072975831772593,9.52815139770507,-0.07879938,-0.04431667,0.0062762955,-1.0687639,0.9033653,-3.0,0.0,-1.062164,0.5389363,0.0,-0.14440449,-0.042536967,9.922154,0.14019004,-0.08495723,0.0,-0.041698437,0.7271309468495077,-0.066162109375,-0.045135498046875,0.004638671875
16.000943422317505,-1.0691823,0.95181715,-3.6537504,-0.0147488542988133,nan,nan,nan,nan,5.996710538864136,0.0006349086761474609,-1.0497731,0.39490095,-0.03914353,-0.1398258932734407,-0.029866774581831956,9.547671813964834,-0.06869896,-0.041087683,0.0059341886,-1.1722243,0.9497712,-3.0,0.0,-1.018165,0.3932584,0.0,-0.15171194,-0.046598256,9.934773,0.112475224,-0.061857764,0.0,-0.03997548,0.7278856441714784,-0.0760040283203125,-0.041046142578125,0.00372314453125
16.10097336769104,-1.1595901,0.9664496,-3.6564252,-0.01370881207610794,nan,nan,nan,nan,6.096768856048584,0.0006058216094970703,-1.0063034,0.25321895,-0.028588096,-0.14626735834694043,-0.033624839298903586,9.567255325317376,-0.058651276,-0.03798056,0.0055146273,-1.2717171,0.9815184,-3.0,0.0,-0.9698796,0.24047995,0.0,-0.15670176,-0.050507702,9.944371,0.07851963,-0.03776777,0.0,-0.03815353,0.7286420060288115,-0.0669097900390625,-0.039703369140625,0.003082275390625
16.200970888137817,-1.2514957,0.96654767,-3.6585093,-0.01258218607716656,nan,nan,nan,nan,6.19676947593689,0.0007774829864501953,-0.95506084,0.095005274,-0.017763812,-0.15200704198677073,-0.03751544706754384,9.58628601074218,-0.041001838,-0.03410636,0.0046041077,-1.3661325,0.99776363,-3.0,0.0,-0.9177929,0.08399486,0.0,-0.15925206,-0.05422843,9.950353,0.040641967,-0.013180818,0.0,-0.036245696,0.7293762751493282,-0.03070068359375,-0.0372314453125,0.002166748046875
16.30165982246399,-1.330653,0.952282,-3.6600533,-0.01151434154329982,nan,nan,nan,nan,6.29769229888916,0.0009427070617675781,-0.90408903,-0.053377565,-0.009101557,-0.15492688328946896,-0.04075566632627581,9.603899002075186,-0.013470438,-0.03135279,0.0033009276,-1.4559507,0.9982046,-3.0,0.0,-0.86155456,-0.075267814,0.0,-0.15932126,-0.057785414,9.952448,0.00081836066,0.011811071,0.0,-0.034227706,0.7300551956272361,-0.0164031982421875,-0.035797119140625,0.00115966796875
16.40156126022339,-1.4103599,0.92119217,-3.6610339,-0.010423573866574318,nan,nan,nan,nan,6.397490978240967,0.0008301734924316406,-0.8460396,-0.21403266,-0.00093525054,-0.1558280313135777,-0.044037370059168524,9.619355850219723,0.010276446,-0.029787736,0.0029788893,-1.5390152,0.9828731,-3.0,0.0,-0.80253583,-0.23157784,0.0,-0.15691453,-0.06109759,9.95059,-0.037695326,0.036367238,0.0,-0.032131433,0.7306504914506294,0.0238037109375,-0.033905029296875,0.000396728515625
16.50055193901062,-1.478246,0.8782784,-3.6612325,-0.009464776762586197,nan,nan,nan,nan,6.496297359466553,0.0007562637329101562,-0.7896731,-0.35967582,0.0050096638,-0.15356163241384152,-0.046943904736864495,9.632081375122063,0.044839326,-0.029542169,0.0033911234,-1.6152949,0.95248395,-3.0,0.0,-0.7409957,-0.38275766,0.0,-0.1521386,-0.064165324,9.945104,-0.07265618,0.060198184,0.0,-0.029944899,0.7311402358431994,0.042205810546875,-0.0338287353515625,-0.000335693359375
16.60064458847046,-1.5455452,0.81712097,-3.661112,-0.008544078956955692,nan,nan,nan,nan,6.59639310836792,0.0008420944213867188,-0.7260194,-0.51165223,0.009826187,-0.14744321220651352,-0.0498412527367218,9.641555099487299,0.0744743,-0.026629042,0.00097300456,-1.686223,0.9067475,-3.0,0.0,-0.6757425,-0.5298912,0.0,-0.14493759,-0.067046575,9.936274,-0.10271104,0.083518386,0.0,-0.027602902,0.7315046239959121,0.0704498291015625,-0.0323333740234375,-0.001312255859375
16.701883792877197,-1.6013919,0.74802357,-3.6603343,-0.007732725177140284,nan,nan,nan,nan,6.6980345249176025,0.0012269020080566406,-0.66489327,-0.6430143,0.012244402,-0.13965888211121008,-0.052531873256270734,9.647456970214838,0.0915138,-0.0262746,0.0021072852,-1.7514219,0.84564906,-3.0,0.0,-0.60674924,-0.67071664,0.0,-0.13529435,-0.06972523,9.924589,-0.12582546,0.10600246,0.0,-0.025079723,0.7317315373353779,0.07501220703125,-0.0341949462890625,-0.001708984375
16.80632781982422,-1.6549281,0.6607887,-3.658748,-0.006836520424521743,nan,nan,nan,nan,6.802412748336792,0.0007891654968261719,-0.5962818,-0.77360475,0.013868491,-0.12922350979165703,-0.05534488347534383,9.649881668090815,0.11168058,-0.02510198,0.0002524327,-1.8109431,0.7685768,-3.0,0.0,-0.5333255,-0.80394304,0.0,-0.12309395,-0.07220071,9.910614,-0.14028321,0.12746145,0.0,-0.022324009,0.7318247412698491,0.0914154052734375,-0.03277587890625,-0.001861572265625
16.901549339294434,-1.6980227,0.5699007,-3.656759,-0.006012788295615697,nan,nan,nan,nan,6.897369861602783,0.0007588863372802734,-0.53063595,-0.88160115,0.013922807,-0.11813831807169858,-0.05785173055758164,9.64904861450195,0.120721914,-0.02312512,-0.0013570512,-1.8583338,0.6869524,-3.0,0.0,-0.46452898,-0.9132012,0.0,-0.11013276,-0.07419547,9.897025,-0.14446807,0.14522415,0.0,-0.01966583,0.7317927205092806,0.1093597412109375,-0.02996826171875,-0.00225830078125
17.001137018203735,-1.7350634,0.47032258,-3.6543922,-0.005158560090579557,nan,nan,nan,nan,6.996984243392944,0.0007264614105224609,-0.46282455,-0.9771896,0.012703875,-0.10626622022896945,-0.060485065751658684,9.645264358520507,0.13268478,-0.023303159,-0.0022252086,-1.9009387,0.59084654,-3.0,0.0,-0.3905858,-1.0138347,0.0,-0.0948246,-0.07600916,9.882805,-0.13943847,0.16173612,0.0,-0.016722245,0.7316472445697434,0.12481689453125,-0.0281524658203125,-0.002044677734375
17.10107445716858,-1.7661865,0.36396655,-3.6519406,-0.004316656928330297,nan,nan,nan,nan,7.096930742263794,0.0006661415100097656,-0.39323148,-1.0583881,0.011184261,-0.09277046451230728,-0.06284815168213087,9.639249572753902,0.151067,-0.021294653,-0.001816347,-1.9362036,0.48512986,-3.0,0.0,-0.31485957,-1.0988563,0.0,-0.07793423,-0.0775265,9.869513,-0.12506528,0.1758131,0.0,-0.013616824,0.7314159629382689,0.13885498046875,-0.02777099609375,-0.002044677734375
17.203287839889526,-1.7929394,0.24354438,-3.6494632,-0.003371312077027025,nan,nan,nan,nan,7.1993443965911865,0.0011668205261230469,-0.31633425,-1.1274514,0.009233037,-0.07615412326668781,-0.06509173889710018,9.631682205200192,0.16928947,-0.01760747,-0.0020446465,-1.9644201,0.36888978,-3.0,0.0,-0.23597832,-1.1680105,0.0,-0.059311327,-0.078752,9.857834,-0.1016647,0.1873565,0.0,-0.010293646,0.731124878624774,0.154449462890625,-0.0231170654296875,-0.002044677734375
17.312791109085083,-1.810607,0.12983558,-3.6476064,-0.002361931922039366,nan,nan,nan,nan,7.308990478515625,0.0009143352508544922,-0.24360074,-1.1725694,0.0068489695,-0.05919396695827756,-0.0668780619395899,9.622393569946288,0.1819852,-0.01671049,-0.0026706306,-1.9856137,0.2377311,-3.0,0.0,-0.15045308,-1.2206106,0.0,-0.038249422,-0.079679616,9.848428,-0.06874667,0.196197,0.0,-0.006607642,0.7307674281274192,0.1490020751953125,-0.0326995849609375,-0.002166748046875
17.401715755462646,-1.8216846,0.005802941,-3.6462142,-0.0010039041018061572,nan,nan,nan,nan,7.397755861282349,0.0009100437164306641,-0.16344698,-1.1997492,0.004456518,-0.04022294723639798,-0.06861815191822207,9.61476119995117,0.18155165,-0.009585951,-0.0018594543,-1.9958744,0.12813054,-3.0,0.0,-0.08067321,-1.246279,0.0,-0.020622522,-0.08013101,9.843673,-0.037903637,0.2005309,0.0,-0.0035550562,0.7304735858193826,0.1590118408203125,-0.0107269287109375,-0.002410888671875
17.50070285797119,-1.824861,-0.10776051,-3.6457305,0.0003121940931164833,nan,nan,nan,nan,7.496515274047852,0.0006315708160400391,-0.089328684,-1.2054061,0.0018768216,-0.022775065082670833,-0.06949756148322606,9.606839447021484,0.17822891,-0.003095229,-0.0030541692,-1.9999952,0.0043792347,-3.0,0.0,-0.0027515609,-1.256625,0.0,-0.00070493465,-0.08031274,9.841726,-0.0013072033,0.20228153,0.0,-0.00012142148,0.730168479045794,0.155914306640625,-0.01104736328125,-0.0030517578125
17.618945837020874,-1.8208245,-0.23680681,-3.6454504,0.00183641501299514,nan,nan,nan,nan,7.615808486938477,0.0011544227600097656,-0.0043663075,-1.1888609,-4.1309762e-05,-0.002845914383231952,-0.07003702227097075,9.599605026245117,0.17335758,-0.0055598896,-0.002425303,-1.9947076,-0.14501663,-3.0,0.0,0.091358386,-1.2433535,0.0,0.023339398,-0.080079615,9.84422,0.04278904,0.20003627,0.0,0.0040243585,0.7298897349948434,0.1535186767578125,-0.0210113525390625,-0.003936767578125
17.701946020126343,-1.813214,-0.32519713,-3.6453657,0.0027987312144071817,nan,nan,nan,nan,7.697919607162476,0.0007469654083251953,0.055327624,-1.1626519,-0.0009027541,0.010998506444535145,-0.07081688972203004,9.595473937988285,0.16864993,-0.009991367,-0.0037498935,-1.9845554,-0.24615727,-3.0,0.0,0.15586884,-1.2179703,0.0,0.039603744,-0.079633154,9.84891,0.07101529,0.19575195,0.0,0.006843127,0.7297305160115386,0.153350830078125,-0.023162841796875,-0.003875732421875
17.801074504852295,-1.7985234,-0.4262334,-3.6453001,0.0038509786918364906,nan,nan,nan,nan,7.797007322311401,0.0006186962127685547,0.12590538,-1.116341,-0.0010548291,0.027206480385557348,-0.07179332301031027,9.593233718872076,0.16282205,-0.008830355,-0.0056712255,-1.9652756,-0.36462584,-3.0,0.0,0.23314917,-1.1701229,0.0,0.05862734,-0.07878934,9.857465,0.10068819,0.18771052,0.0,0.010172967,0.7296441599238952,0.154388427734375,-0.0266571044921875,-0.00347900390625
17.90138339996338,-1.7755287,-0.5282775,-3.6456861,0.004909900893650905,nan,nan,nan,nan,7.897254943847656,0.0007638931274414062,0.20202284,-1.0486854,-0.00016626895,0.04427178423478924,-0.07313439821824419,9.593729400634768,0.15874402,-0.013234483,-0.002944598,-1.9380212,-0.47872823,-3.0,0.0,0.31041336,-1.103281,0.0,0.0769099,-0.07760513,9.868789,0.123959236,0.17654908,0.0,0.0134317875,0.7296632683598987,0.1490631103515625,-0.017425537109375,-0.00238037109375
18.00084352493286,-1.7480973,-0.6137942,-3.6459696,0.005848456689565389,nan,nan,nan,nan,7.996659517288208,0.0006740093231201172,0.2715357,-0.9703413,0.0019998231,0.05971244828131257,-0.07435519565762383,9.5970751953125,0.16089565,-0.01693151,-0.002654916,-1.903406,-0.584384,-3.0,0.0,0.3858129,-1.0197324,0.0,0.09379354,-0.076114826,9.881921,0.13879538,0.1627087,0.0,0.016529173,0.7297922351878026,0.145904541015625,-0.0167694091796875,-0.001007080078125
18.102653980255127,-1.71181,-0.6953248,-3.6462505,0.006996305862232606,nan,nan,nan,nan,8.098509073257446,0.0007846355438232422,0.34645504,-0.8688814,0.004803479,0.07579650465335172,-0.0752496942155374,9.603115463256835,0.14165315,-0.0042704334,-0.002740997,-1.8602419,-0.6831801,-3.0,0.0,0.4615042,-0.91765916,0.0,0.10953281,-0.07427625,9.89643,0.14445078,0.14595242,0.0,0.019547183,0.73002500612811,0.128936767578125,-0.0085906982421875,0.0
18.20130443572998,-1.6717899,-0.7595665,-3.6466966,0.008192749394513282,nan,nan,nan,nan,8.197272539138794,0.0007839202880859375,0.41449046,-0.76181793,0.007944858,0.08894704508770611,-0.07532320954534644,9.610779266357419,0.12498667,0.0014886161,-0.0020312923,-1.8111106,-0.7683242,-3.0,0.0,0.5331009,-0.80432427,0.0,0.12305391,-0.07220771,9.91057,0.14031143,0.12752315,0.0,0.022315457,0.7303202371334874,0.1203155517578125,-0.010101318359375,0.000457763671875
18.302918195724487,-1.6211908,-0.8160201,-3.6467974,0.009573726852484706,nan,nan,nan,nan,8.298700094223022,0.0004093647003173828,0.487106,-0.6335306,0.011798571,0.10150977005771841,-0.07523429896033984,9.621301574707026,0.10801074,0.0029794038,-0.002226899,-1.7533996,-0.8434517,-3.0,0.0,0.6044901,-0.6750718,0.0,0.13494706,-0.06980699,9.924177,0.12642676,0.10670082,0.0,0.024996089,0.7307253940196783,0.10064697265625,-0.0014495849609375,0.00103759765625
18.411853075027466,-1.573173,-0.8527647,-3.6464894,0.010757142296760384,nan,nan,nan,nan,8.407984495162964,0.0009033679962158203,0.54705644,-0.5165731,0.014995248,0.11110668012691935,-0.07528161903109676,9.633029708862301,0.09714856,0.0061258385,-0.00079518463,-1.683258,-0.90905374,-3.0,0.0,0.6786545,-0.52361417,0.0,0.14530107,-0.06692551,9.936721,0.10153566,0.08252029,0.0,0.027708208,0.7311767197019583,0.1272430419921875,-0.0269927978515625,0.001953125
18.500723123550415,-1.5063183,-0.8837847,-3.6455557,0.012366502076649084,nan,nan,nan,nan,8.496497869491577,0.0006136894226074219,0.6200776,-0.35832056,0.019092098,0.120857395642547,-0.07441041071448473,9.644232025146483,0.07580552,0.0058485446,0.0015920361,-1.6206167,-0.9496874,-3.0,0.0,0.736394,-0.39357784,0.0,0.15169875,-0.06438045,9.9445715,0.07502346,0.06190826,0.0,0.029780772,0.7316075542273514,0.0595245361328125,0.009552001953125,0.001953125
18.60349726676941,-1.4606098,-0.8940899,-3.6448133,0.013383069571576665,nan,nan,nan,nan,8.599666357040405,0.0011775493621826172,0.66461706,-0.25239798,0.021756077,0.12608469802753816,-0.07401887739036428,9.656404495239256,0.062466577,0.0037377444,0.0016485888,-1.5412935,-0.98220867,-3.0,0.0,0.8008077,-0.23598754,0.0,0.15681018,-0.061188813,9.950481,0.038755704,0.03706097,0.0,0.032070145,0.7320754167345795,0.1127166748046875,-0.0366363525390625,0.002471923828125
18.701727151870728,-1.3739849,-0.89288366,-3.6430109,0.015234908474627273,nan,nan,nan,nan,8.697561740875244,0.0007331371307373047,0.7407165,-0.05784552,0.025600653,0.1331413407991089,-0.07385467893286268,9.667413940429686,0.04040434,0.0008549219,0.003079075,-1.4600333,-0.9978296,-3.0,0.0,0.8588227,-0.08274785,0.0,0.15926243,-0.057947636,9.952447,0.0010520708,0.012985088,0.0,0.034130372,0.7324983231751838,0.0128631591796875,0.013702392578125,0.003631591796875
18.80256414413452,-1.3097996,-0.87771404,-3.6413612,0.016601849677793434,nan,nan,nan,nan,8.798858404159546,0.0014586448669433594,0.79106516,0.078129455,0.028119816,0.13545256778447176,-0.07328215320720965,9.67659370422363,0.013401139,0.003969416,0.002983401,-1.3701389,-0.9981157,-3.0,0.0,0.9154321,0.07710681,0.0,0.15930732,-0.054386664,9.950526,-0.03893266,-0.012099702,0.0,0.03616028,0.7328507618934323,0.0208892822265625,-0.0036163330078125,0.004119873046875
18.900869607925415,-1.2288214,-0.84443486,-3.6392105,0.018222558098800468,nan,nan,nan,nan,8.896674871444702,0.0008757114410400391,0.84853107,0.23892741,0.030036138,0.13590754106848543,-0.07275451496123675,9.683503799438475,-0.00549558,0.0025595478,0.0042419643,-1.2780646,-0.9830616,-3.0,0.0,0.96658,0.23031072,0.0,0.15694413,-0.05075743,9.944878,-0.07613234,-0.036167905,0.0,0.038031135,0.733115950945215,-0.02197265625,0.0131683349609375,0.00518798828125
19.000876426696777,-1.1489916,-0.79974794,-3.6376452,0.019785923270568953,nan,nan,nan,nan,8.996728420257568,0.0010364055633544922,0.9004827,0.38430396,0.030884497,0.13364638570812498,-0.0717080718660037,9.68757385253906,-0.040067945,0.014046086,0.0039960793,-1.1788934,-0.95231867,-3.0,0.0,1.0151206,0.38340637,0.0,0.1521126,-0.046860117,9.935505,-0.11041379,-0.060300697,0.0,0.03985869,0.7332721032895572,-0.037353515625,0.01568603515625,0.005645751953125
19.103760719299316,-1.0642213,-0.74185896,-3.6362486,0.0213842502500756,nan,nan,nan,nan,9.100266695022583,0.0012717247009277344,0.9505931,0.52465457,0.030302089,0.12856969823543202,-0.06996666768067805,9.688397979736326,-0.065016344,0.019134939,0.0042189565,-1.0713702,-0.9046841,-3.0,0.0,1.0611267,0.53543156,0.0,0.14461236,-0.04263929,9.922498,-0.13959299,-0.08439964,0.0,0.04165699,0.7333037178990384,-0.0426788330078125,0.0135498046875,0.005706787109375
19.200947046279907,-0.9672296,-0.66523653,-3.635,0.023179617132908635,nan,nan,nan,nan,9.196785926818848,0.0006363391876220703,1.0020156,0.66750175,0.027960347,0.12067247072429257,-0.06743441126041505,9.685755767822263,-0.089659385,0.030333301,0.0049973954,-0.96704465,-0.8464852,-3.0,0.0,1.0999746,0.669049,0.0,0.13542649,-0.038541388,9.9080105,-0.15927047,-0.105735086,0.0,0.043241154,0.7332023543988827,-0.0805511474609375,0.033905029296875,0.005279541015625
19.30077075958252,-0.8728203,-0.58261806,-3.6340978,0.024885989004958135,nan,nan,nan,nan,9.296625852584839,0.0007884502410888672,1.0465482,0.7890959,0.024928553,0.11069313326393634,-0.06388367540181972,9.67966598510742,-0.11467054,0.040909257,0.005225295,-0.85539234,-0.77320844,-3.0,0.0,1.1359026,0.7968989,0.0,0.12382822,-0.03414673,9.89146,-0.17064811,-0.12632161,0.0,0.044772826,0.7329686786491992,-0.0892791748046875,0.03399658203125,0.00408935546875
19.402645111083984,-0.7648348,-0.48161575,-3.6336045,0.02660549747299893,nan,nan,nan,nan,9.398488283157349,0.0006551742553710938,1.0909412,0.90662426,0.020751515,0.09780270187896256,-0.05919532428417451,9.671456756591795,-0.1342961,0.04888046,0.005640271,-0.73801506,-0.68593067,-3.0,0.0,1.1679517,0.9144132,0.0,0.10997027,-0.029511988,9.873919,-0.17201208,-0.14542213,0.0,0.046203736,0.7326535596467111,-0.1085968017578125,0.042022705078125,0.00201416015625
19.515283584594727,-0.6870263,-0.4053289,-3.633594,0.027653622314528985,nan,nan,nan,nan,9.511542797088623,0.001325368881225586,1.1188577,0.97874314,0.017003324,0.08830687385643121,-0.05617929898571283,9.658008804321286,-0.122257955,0.026681097,0.0050686663,-0.6042214,-0.5759879,-3.0,0.0,1.1979179,1.0272483,0.0,0.09245368,-0.024207126,9.854964,-0.16116463,-0.16394897,0.0,0.047606017,0.7321370581502492,-0.058929443359375,-0.004150390625,0.001739501953125
19.60104012489319,-0.58013517,-0.29712707,-3.6339123,0.02871062106706063,nan,nan,nan,nan,9.596925735473633,0.000713348388671875,1.1539317,1.0633873,0.011717562,0.07737924989750086,-0.05416627190864731,9.646450653076167,-0.11527477,0.022716966,0.004803273,-0.5011207,-0.4851354,-3.0,0.0,1.2165515,1.0988525,0.0,0.077935115,-0.020102695,9.841857,-0.14472604,-0.17581247,0.0,0.04851347,0.7316928516679451,-0.1132659912109375,0.03643798828125,0.00274658203125
19.711848258972168,-0.46089053,-0.17288822,-3.6349227,0.0297959911828192,nan,nan,nan,nan,9.708097219467163,0.0008003711700439453,1.1887966,1.1406491,0.0063574733,0.06363783932809111,-0.05033573820827364,9.62933242797851,-0.15090968,0.048803616,0.0038902084,-0.36476216,-0.35864434,-3.0,0.0,1.2355607,1.1730385,0.0,0.057667732,-0.014653684,9.827391,-0.11389988,-0.18819928,0.0,0.049470205,0.7310344694652793,-0.1504058837890625,0.051666259765625,0.002593994140625
19.80203628540039,-0.34836343,-0.053673014,-3.6369166,0.030754826808546527,nan,nan,nan,nan,9.798139095306396,0.0010275840759277344,1.2161725,1.1955485,0.0013355799,0.047134946599768406,-0.044502088005119234,9.615084457397453,-0.19121088,0.07079966,0.0040907185,-0.25298506,-0.250953,-3.0,0.0,1.2465433,1.2164237,0.0,0.040374484,-0.01017224,9.818509,-0.08253609,-0.19549134,0.0,0.050038297,0.730486033429029,-0.1836395263671875,0.0681304931640625,0.000518798828125
19.91472291946411,-0.22475289,0.07853361,-3.6399305,0.03167032828209196,nan,nan,nan,nan,9.91096806526184,0.0009100437164306641,1.2380404,1.2333287,-0.003477957,0.025538903584300252,-0.03642647050794179,9.598214187622059,-0.21813281,0.07692788,0.0040397937,-0.11182256,-0.11164764,-3.0,0.0,1.2546713,1.2487804,0.0,0.017970225,-0.0044993227,9.811684,-0.03766355,-0.20095396,0.0,0.050466366,0.7298361335969621,-0.1902923583984375,0.0558013916015625,-0.00286865234375
20.001312255859375,-0.1093514,0.20075063,-3.6431122,0.03221107482220335,nan,nan,nan,nan,9.997305154800415,0.0008094310760498047,1.2511127,1.2456503,-0.007946235,0.004143851277758768,-0.029262447658953805,9.58556701660155,-0.2244955,0.070404716,0.0014332044,-0.0033861462,-0.0033861413,-3.0,0.0,1.2566353,1.25663,0.0,0.0005450744,-0.00013626878,9.810002,-0.0011492433,-0.20228235,0.0,0.050570797,0.7293485471440672,-0.190673828125,0.0620269775390625,-0.00567626953125
20.100836992263794,0.016820695,0.32989162,-3.6471307,0.03233499428345314,nan,nan,nan,nan,10.096700429916382,0.0009222030639648438,1.2592199,1.2335597,-0.011476818,-0.018964340620508204,-0.02225491205112018,9.573424835205065,-0.21573763,0.06601516,-2.5552232e-05,0.12144278,0.12121869,-3.0,0.0,1.2543184,1.2473705,0.0,-0.019510357,0.004886257,9.811985,0.04084758,-0.20071548,0.0,0.050447635,0.7288801268157474,-0.1756744384765625,0.066558837890625,-0.007568359375
20.201515436172485,0.13323322,0.44404143,-3.6511755,0.03196182791091361,nan,nan,nan,nan,10.19769811630249,0.0011150836944580078,1.260872,1.2000302,-0.013861073,-0.03894253057892223,-0.01579749402480335,9.56391731262206,-0.19684027,0.068400495,-0.0026779117,0.24779697,0.24588767,-3.0,0.0,1.2469546,1.2180562,0.0,-0.039560415,0.009963971,9.81817,0.0809749,-0.19576642,0.0,0.0500598,0.7285131387931952,-0.160369873046875,0.061370849609375,-0.008514404296875
20.31168818473816,0.25839755,0.560358,-3.655299,0.03116101021879919,nan,nan,nan,nan,10.307855606079102,0.0011219978332519531,1.2554816,1.1419703,-0.014210387,-0.058432272784916056,-0.008945323142443673,9.55768959045409,-0.17675702,0.062199805,-0.004712078,0.38445514,0.3772852,-3.0,0.0,1.2332013,1.1637679,0.0,-0.060657904,0.015441961,9.829247,0.11890996,-0.1866458,0.0,0.04934967,0.7282726513725181,-0.1493682861328125,0.0535736083984375,-0.009185791015625
20.401164293289185,0.36319464,0.65103424,-3.6583633,0.030262731149332235,nan,nan,nan,nan,10.397048234939575,0.0005686283111572266,1.245624,1.0766059,-0.013337376,-0.07356990452689072,-0.003737851117231017,9.555519104003894,-0.1617594,0.05618665,-0.0065333415,0.49378622,0.47849995,-3.0,0.0,1.217735,1.1034374,0.0,-0.07687338,0.019810177,9.840989,0.14331503,-0.1765751,0.0,0.04857209,0.728188818258057,-0.1380767822265625,0.0519561767578125,-0.00927734375
20.50185489654541,0.48472124,0.7470887,-3.6617167,0.028984052945421227,nan,nan,nan,nan,10.49773359298706,0.0008668899536132812,1.2282228,0.9820124,-0.0106524825,-0.08988103825235032,0.0019485246896304709,9.556732177734363,-0.14456247,0.05257877,-0.008658352,0.6153256,0.58547956,-3.0,0.0,1.1956846,1.0187396,0.0,-0.09396834,0.024648333,9.856465,0.16253515,-0.16254494,0.0,0.047499154,0.7282356733286911,-0.117584228515625,0.0534210205078125,-0.008880615234375
20.60611057281494,0.58508927,0.81769675,-3.6643562,0.027763468089041947,nan,nan,nan,nan,10.602169036865234,0.0008292198181152344,1.2085593,0.88902897,-0.0075190035,-0.10203533358029004,0.00679797204959165,9.561709136962877,-0.12577194,0.054815184,-0.009841982,0.73878324,0.6865319,-3.0,0.0,1.16776,0.9137004,0.0,-0.110065885,0.029542375,9.874032,0.17203727,-0.1453057,0.0,0.04619497,0.7284278776588203,-0.126251220703125,0.0424346923828125,-0.0079345703125
20.70608949661255,0.7092224,0.8926308,-3.6670125,0.026135180373805758,nan,nan,nan,nan,10.696468114852905,0.001117706298828125,1.177847,0.7561359,-0.0024152533,-0.11529863945794606,0.012501422757721148,9.569062652587874,-0.099984646,0.049566317,-0.010620515,0.84754115,0.76767695,-3.0,0.0,1.1382236,0.8052996,0.0,-0.122951284,0.03383723,9.890281,0.1710735,-0.12768103,0.0,0.04487428,0.7287117702796232,-0.0831756591796875,0.047698974609375,-0.007537841796875
20.80129361152649,0.8121942,0.9427983,-3.6684673,0.024746224803069046,nan,nan,nan,nan,10.797231912612915,0.0009381771087646484,1.1467602,0.6317259,0.0027258613,-0.12471552286112206,0.017087116634843635,9.580343551635728,-0.086851336,0.04524085,-0.009003496,0.96045786,0.8424591,-3.0,0.0,1.1022507,0.6770262,0.0,-0.13479018,0.03828244,9.907055,0.1602198,-0.10701428,0.0,0.043336157,0.7291470730166068,-0.07745361328125,0.04388427734375,-0.006317138671875
20.900641202926636,0.92008644,0.98273635,-3.6689773,0.02323183768361206,nan,nan,nan,nan,10.896525859832764,0.0005517005920410156,1.1087625,0.48922303,0.008538706,-0.13333968503206436,0.02177231220191289,9.593718414306625,-0.070706576,0.044258446,-0.0075662383,1.0679655,0.9029599,-3.0,0.0,1.0624809,0.54000825,0.0,-0.14434056,0.042505626,9.922049,0.14037186,-0.08512779,0.0,0.041711118,0.7296628448444247,-0.05413818359375,0.0441131591796875,-0.005126953125
21.0084125995636,1.0073712,1.0045593,-3.6687264,0.022001141968607703,nan,nan,nan,nan,11.004623174667358,0.0011153221130371094,1.0728433,0.36347124,0.013494802,-0.1388882435476657,0.02559490357520877,9.606966857910141,-0.049769104,0.04301991,-0.008322569,1.1802665,0.95283604,-3.0,0.0,1.0144905,0.38137123,0.0,-0.15219398,0.046914034,9.935654,0.10998541,-0.059979107,0.0,0.03983455,0.7301733872787001,-0.086395263671875,0.0398101806640625,-0.00390625
21.100982427597046,1.0980356,1.0154159,-3.6678083,0.020704507480176375,nan,nan,nan,nan,11.096819877624512,0.0005919933319091797,1.0297434,0.22278936,0.018252617,-0.1435612373024676,0.02960618765193135,9.62246200561522,-0.038083706,0.040662553,-0.007566253,1.2717665,0.98153067,-3.0,0.0,0.969854,0.24040093,0.0,-0.1567037,0.050509647,9.944375,0.07850113,-0.03775534,0.0,0.038152575,0.7307700623381258,-0.06842041015625,0.0386505126953125,-0.00311279296875
21.201274633407593,1.1903181,1.0117842,-3.666144,0.019433361218219453,nan,nan,nan,nan,11.197258472442627,0.0007984638214111328,0.9783552,0.06715424,0.022991989,-0.1480319461909063,0.03370928643680471,9.637333221435531,-0.03473398,0.03748797,-0.006218653,1.3665805,0.99780446,-3.0,0.0,0.91752964,0.083225764,0.0,-0.15925848,0.05424612,9.950373,0.040451232,-0.013060099,0.0,0.03623617,0.731342259893686,-0.0403900146484375,0.035430908203125,-0.001983642578125
21.31081795692444,1.2827775,0.9904283,-3.6632752,0.018161081293325942,nan,nan,nan,nan,11.307259321212769,0.0012998580932617188,0.9185682,-0.10260716,0.027728828,-0.15146264480318805,0.03775670032322909,9.650797805786118,-0.016598074,0.033518367,-0.0057055675,1.4641671,0.9974124,-3.0,0.0,0.8560399,-0.09034301,0.0,-0.15919696,0.05811195,9.952437,-0.0029497442,0.014177248,0.0,0.03403127,0.7318599540062684,-0.006195068359375,0.03155517578125,-0.0009765625
21.400870323181152,1.3508384,0.9614586,-3.6606333,0.01723856896014528,nan,nan,nan,nan,11.396669149398804,0.0006792545318603516,0.8691332,-0.23574127,0.030564288,-0.15218112087755864,0.04064742665720256,9.661415710449202,0.0065147467,0.03051133,-0.0047284984,1.5383557,0.98306274,-3.0,0.0,0.8030348,-0.23030289,0.0,-0.15694429,0.061071176,9.950622,-0.03738838,0.036166675,0.0,0.032149125,0.7322679427045271,0.014862060546875,0.0310821533203125,0.00018310546875
21.501938581466675,1.4203888,0.9174426,-3.6573932,0.016339783734867094,nan,nan,nan,nan,11.497976541519165,0.0012028217315673828,0.812982,-0.37832522,0.032886926,-0.15027748485173836,0.043731421741333376,9.670686340332017,0.038383763,0.030552596,-0.0029580765,1.6165383,0.9518391,-3.0,0.0,0.7399245,-0.38528255,0.0,-0.15203719,0.06421556,9.944981,-0.07321051,0.060597166,0.0,0.029906701,0.7326239796265122,0.025970458984375,0.0330047607421875,0.001190185546875
21.600722789764404,1.4897785,0.85568666,-3.6535962,0.01541314661968883,nan,nan,nan,nan,11.596529483795166,0.0007512569427490234,0.7492925,-0.5268579,0.03415944,-0.14551043452617174,0.047054986532804266,9.677020187377915,0.061529543,0.030472104,-0.0013897424,1.6863152,0.9066752,-3.0,0.0,0.6756517,-0.53008646,0.0,-0.1449262,0.06705035,9.936259,-0.102747425,0.08354945,0.0,0.027599618,0.7328671317987459,0.060455322265625,0.03057861328125,0.001678466796875
21.700693607330322,1.5486003,0.78688526,-3.6498923,0.014661918346627126,nan,nan,nan,nan,11.696480989456177,0.0006110668182373047,0.68858755,-0.6562029,0.033893608,-0.13855118750218443,0.05005341119751172,9.680181808471666,0.08541129,0.029865168,-0.0006456844,1.7504787,0.84668905,-3.0,0.0,0.6078228,-0.66864157,0.0,-0.13545871,0.06968625,9.924785,-0.12553628,0.10566977,0.0,0.025119437,0.7329884745542652,0.06927490234375,0.033233642578125,0.00213623046875
21.80124545097351,1.6061833,0.7003994,-3.6460261,0.01401172576899632,nan,nan,nan,nan,11.797191619873047,0.0008914470672607422,0.62038827,-0.7853932,0.03243034,-0.12865410137302116,0.05323397852916867,9.680080337524403,0.10411295,0.030908182,0.0009160023,1.808149,0.7727575,-3.0,0.0,0.53705513,-0.79758936,0.0,-0.123756714,0.07208378,9.9113455,-0.13980056,0.12643331,0.0,0.022465946,0.7329845804155298,0.0916595458984375,0.032196044921875,0.002197265625
21.900832653045654,1.653095,0.6108072,-3.643004,0.013404385673414919,nan,nan,nan,nan,11.896674871444702,0.0006875991821289062,0.55472827,-0.8924838,0.029838653,-0.11795965408446785,0.056381942071316304,9.676849746704091,0.119646095,0.030426504,0.00029945065,1.858011,0.68758655,-3.0,0.0,0.46503854,-0.9124473,0.0,-0.110233605,0.074181795,9.897125,-0.14446935,0.14510103,0.0,0.019685803,0.7328605897367487,0.0995025634765625,0.032196044921875,0.00177001953125
22.00101923942566,1.6971399,0.50482816,-3.6402636,0.01280624651423707,nan,nan,nan,nan,11.996771574020386,0.0008335113525390625,0.48077118,-0.9936433,0.025908705,-0.10516991313336205,0.059803578345104746,9.670715332031238,0.13007991,0.03224091,0.0022803985,1.9008555,0.5910622,-3.0,0.0,0.39074543,-1.0136361,0.0,-0.094859,0.0760056,9.882834,-0.13945931,0.16170336,0.0,0.016728695,0.7326250927799204,0.12200927734375,0.0242462158203125,0.0009765625
22.10078740119934,1.7285913,0.40879402,-3.6382315,0.012311375084985275,nan,nan,nan,nan,12.096542835235596,0.0007004737854003906,0.41624868,-1.0666941,0.02218992,-0.09327084824533735,0.06248243203422521,9.662339553832995,0.1422108,0.026515007,0.0018924423,1.9360813,0.48555622,-3.0,0.0,0.31515613,-1.098559,0.0,-0.07800244,0.07752122,9.869561,-0.1251381,0.17576365,0.0,0.013629155,0.732303430409242,0.1218414306640625,0.0297088623046875,0.000701904296875
22.213747024536133,1.7590901,0.28942725,-3.636114,0.011768404427072693,nan,nan,nan,nan,12.210262298583984,0.0011556148529052734,0.3383254,-1.1367298,0.017687885,-0.07775034928798555,0.06527422583965947,9.651400909423817,0.15574974,0.023478983,0.0027701317,1.9669502,0.35610378,-3.0,0.0,0.22750613,-1.17426,0.0,-0.057260122,0.07886242,9.856739,-0.09871484,0.18840408,0.0,0.009931979,0.7318831340301409,0.1310272216796875,0.034820556640625,9.1552734375e-05
22.30073380470276,1.7811856,0.17584734,-3.6343637,0.01124645981002215,nan,nan,nan,nan,12.296535968780518,0.0006592273712158203,0.26526955,-1.1843673,0.013776741,-0.06212669505076632,0.06763141203416434,9.641842880249014,0.16683231,0.025271432,0.0010036343,1.9836792,0.2529037,-3.0,0.0,0.16021149,-1.2157856,0.0,-0.040687982,0.07959469,9.849309,-0.07281876,0.19538383,0.0,0.0070317737,0.7315156901139298,0.15447998046875,0.021881103515625,-0.00091552734375
22.400851488113403,1.7981489,0.051114716,-3.632992,0.010647184989353773,nan,nan,nan,nan,12.396708965301514,0.0007090568542480469,0.18493983,-1.21611,0.009516725,-0.04364274470253543,0.06975030563766382,9.631281814575186,0.18401642,0.014561235,0.00050708425,1.9957895,0.12943405,-3.0,0.0,0.081497386,-1.2460663,0.0,-0.020832263,0.08012728,9.843713,-0.03828211,0.20049495,0.0,0.0035912732,0.731109474122685,0.1644744873046875,0.01495361328125,-0.001678466796875
22.505615711212158,1.8070507,-0.063719295,-3.6327252,0.010002936211076171,nan,nan,nan,nan,12.501452207565308,0.0006046295166015625,0.1103346,-1.2260385,0.005515631,-0.025496015196533817,0.07124853266487041,9.621473693847646,0.19072711,0.012959164,-0.00015677186,1.9999992,-0.0018260072,-3.0,0.0,-0.0011473147,-1.256635,0.0,0.0002939363,0.080312915,9.841724,0.0005450686,0.20228322,0.0,-5.0629016e-05,0.7307320195498666,0.162628173828125,0.023468017578125,-0.0020751953125
22.602131366729736,1.8088615,-0.18530333,-3.6333158,0.009126928354264114,nan,nan,nan,nan,12.59821105003357,0.000926971435546875,0.0285566,-1.2146909,0.002035138,-0.0056876158843816174,0.0728209539777731,9.61305923461913,0.18732134,0.01060547,-0.0016486679,1.9961933,-0.12310355,-3.0,0.0,-0.07749575,-1.2470789,0.0,0.019813651,0.08014506,9.843523,0.03644205,0.20066617,0.0,-0.003415397,0.7304080451303002,0.1578521728515625,0.0107574462890625,-0.00262451171875
22.701353073120117,1.8027848,-0.29306954,-3.6339695,0.008103202994078367,nan,nan,nan,nan,12.697153568267822,0.0007145404815673828,-0.047359582,-1.1848493,-2.5396817e-05,0.01203890817627353,0.07363315010156812,9.606697311401355,0.1782341,0.004180822,-0.0020690013,1.9846746,-0.24522328,-3.0,0.0,-0.1552681,-1.2182677,0.0,0.03945363,0.079638384,9.848856,0.07076469,0.19580208,0.0,-0.0068170177,0.7301630035355867,0.1516265869140625,0.011016845703125,-0.002716064453125
22.801281929016113,1.7909544,-0.3867102,-3.63442,0.007092677671058086,nan,nan,nan,nan,12.797170639038086,0.0006816387176513672,-0.11662575,-1.1419435,-0.00091424724,0.027466441713407046,0.07410892271714364,9.602975387573231,0.1699508,0.0078125335,-0.0006642145,1.9652375,-0.36481738,-3.0,0.0,-0.23327616,-1.1700286,0.0,0.058658067,0.07878768,9.857481,0.1007322,0.18769471,0.0,-0.010178384,0.7300196089272212,0.1532440185546875,0.023406982421875,-0.002685546875
