time,x,y,z,yaw,platform,trajectory,controller,feedforward,traj_time,comp_time,vx,vy,vz,roll,pitch,f,p,q,r,x_ref,y_ref,z_ref,yaw_ref,vx_ref,vy_ref,vz_ref,roll_ref,pitch_ref,f_ref,u_ff_df,u_ff_dphi,u_ff_dpsi,u_ff_dth,throttle,p_cmd,q_cmd,r_cmd
10.00200891494751,0.009691659,0.016969342,-2.6429973,-0.0003352829265615871,SIM,fig8_heading,contraction,1.0,3.337860107421875e-06,0.0013353824615478516,-0.03161755,-0.040215254,-0.18982708,-0.008279298239447527,-0.0024030251828039972,9.809016724303364,-4.5143588e-05,-0.0014017498,0.001039524,2.0972395e-06,2.0972395e-06,-3.0,0.7853982,0.62831855,0.62831855,0.0,-1.5004318e-07,3.7510794e-08,9.81,7.030113e-08,-0.0449519,-8.784897e-07,0.011237975,0.7379164017454152,0.9481205940246582,-0.9294968843460083,0.7775564789772034
10.103344917297363,0.0066920747,0.012674356,-2.6631837,0.00016535829738411072,nan,nan,nan,nan,0.10139179229736328,0.0009958744049072266,-0.029543243,-0.03455199,-0.19723709,-0.0016216645252872105,-0.012225203351239555,9.802029324024916,0.26832798,-0.363521,0.020340947,0.0636872,0.06362976,-3.0,0.7840433,0.62775195,0.6260532,0.0,-0.004552244,0.0011390838,9.810108,0.0021256593,-0.044788904,-0.02676562,0.01122748,0.7376499671766382,0.9493364691734314,-0.9271727800369263,0.7574750781059265
10.20255732536316,0.004627387,0.009642148,-2.6824954,0.004422522829730512,nan,nan,nan,nan,0.20090603828430176,0.0017805099487304688,-0.0076313093,-0.01358585,-0.22839832,0.029204564718017342,-0.04531242331455676,9.786030360311267,0.53954583,-0.5797323,0.09006163,0.12608406,0.12563784,-3.0,0.7800551,0.62609494,0.6194399,0.0,-0.008988288,0.0022550186,9.810422,0.0041552903,-0.044313118,-0.05350494,0.011196798,0.7370395573698473,0.8020918965339661,-0.7519715428352356,0.7515792846679688
10.302318334579468,0.006430021,0.010217244,-2.7075148,0.015268004900776934,nan,nan,nan,nan,0.3002502918243408,0.0008218288421630859,0.06634871,0.058383696,-0.26139012,0.10067001291301222,-0.11575954880593353,9.76227145701647,0.78044343,-0.6265605,0.2297853,0.18815589,0.18666974,-3.0,0.7733768,0.6233558,0.608546,0.0,-0.013354152,0.0033650044,9.810931,0.0060714125,-0.043529548,-0.081139356,0.011146137,0.7361321605053973,0.37154003977775574,-0.2698902487754822,0.769080400466919
10.401937007904053,0.020723986,0.023975449,-2.7375908,0.04367996195213007,nan,nan,nan,nan,0.39989566802978516,0.0010216236114501953,0.20570965,0.21417722,-0.2764072,0.1579433494230683,-0.1573630385657805,9.735500518381597,0.36199147,-0.119448766,0.39913493,0.2500885,0.24658811,-3.0,0.76385254,0.6195242,0.59338725,0.0,-0.017639866,0.0044723055,9.811625,0.007832025,-0.0424396,-0.11031095,0.011075389,0.7351084043419511,-0.13945497572422028,0.14755000174045563,0.739481508731842
10.502918720245361,0.049710613,0.05622264,-2.7660878,0.0898604701474992,nan,nan,nan,nan,0.5009891986846924,0.001055002212524414,0.34464025,0.39418155,-0.27786598,0.16040355296423026,-0.15742000732080563,9.710440591275693,-0.12585886,0.22708301,0.526296,0.3124755,0.30562022,-3.0,0.7511207,0.6145341,0.57378554,0.0,-0.021861557,0.0055874786,9.812498,0.0094053885,-0.041030828,-0.14197037,0.010983448,0.7341488032522224,-0.4360961318016052,0.3304261863231659,0.6507542133331299
10.601414918899536,0.09775136,0.11467794,-2.7970266,0.15441981707287838,nan,nan,nan,nan,0.5994081497192383,0.0008056163787841797,0.47344184,0.57464397,-0.27939934,0.11670421033853907,-0.13252353249152882,9.688708267062909,-0.48272446,0.38631496,0.60867834,0.37267467,0.36098936,-3.0,0.7355264,0.6086175,0.5507498,0.0,-0.025820583,0.006663263,9.813489,0.010690842,-0.03937612,-0.17541452,0.01087472,0.7333156205829153,-0.5296562910079956,0.3712873160839081,0.517578661441803
10.702046632766724,0.1531624,0.18618661,-2.8260975,0.21775703177134387,nan,nan,nan,nan,0.7000594139099121,0.0010929107666015625,0.56262183,0.6927602,-0.2856685,0.05623475588990155,-0.10014927362488257,9.669225538373,-0.5918527,0.38678604,0.6247809,0.43358347,0.4150748,-3.0,0.7160101,0.60149705,0.5233225,0.0,-0.029687043,0.007751412,9.81462,0.011719828,-0.037407167,-0.21302556,0.010744256,0.7325678891125514,-0.46598076820373535,0.31778159737586975,0.3708672523498535
10.804373741149902,0.22059412,0.27512053,-2.858751,0.28265355281255355,nan,nan,nan,nan,0.8027658462524414,0.0009608268737792969,0.631469,0.7540373,-0.29701957,-0.008340276582288642,-0.0651837896824965,9.650420700758701,-0.53143245,0.31206676,0.58680516,0.49494088,0.46722156,-3.0,0.69197476,0.5931294,0.49150345,0.0,-0.03341407,0.0088472385,9.815864,0.012444513,-0.03512447,-0.25584406,0.010591452,0.7318454597718602,-0.3233477473258972,0.23280519247055054,0.21083074808120728
10.901498794555664,0.28122565,0.35281178,-2.8876328,0.33105022710776993,nan,nan,nan,nan,0.8994097709655762,0.0006241798400878906,0.67397285,0.75496,-0.3075855,-0.05235094090229736,-0.0396737252102346,9.631531018316753,-0.4172331,0.23969054,0.5151686,0.5518421,0.51313996,-3.0,0.6651021,0.58425295,0.4582371,0.0,-0.036695182,0.00986317,9.817086,0.012809345,-0.032739613,-0.30116916,0.010429923,0.7311190619461319,-0.19437596201896667,0.16396385431289673,0.06983304023742676
11.001648187637329,0.35506207,0.43977982,-2.9227304,0.37785476908260107,nan,nan,nan,nan,0.9996371269226074,0.0006988048553466797,0.7120862,0.70772785,-0.3188621,-0.08843757700781454,-0.015636661439438315,9.61247924417258,-0.26182497,0.1644103,0.40072602,0.6098967,0.5572061,-3.0,0.6323058,0.57403636,0.42056903,0.0,-0.039843198,0.010899397,9.818376,0.012854535,-0.030041104,-0.35442933,0.010244677,0.730385709052903,-0.054119475185871124,0.11202079802751541,-0.08212098479270935
11.101222276687622,0.42470333,0.51045537,-2.9559615,0.4092575222969488,nan,nan,nan,nan,1.0991408824920654,0.0006589889526367188,0.7400006,0.63220906,-0.32763562,-0.1066273252749784,0.0008913384480826458,9.593154243230828,-0.11891988,0.12140839,0.27587518,0.66646934,0.59707093,-3.0,0.59410137,0.5628928,0.3802409,0.0,-0.042690396,0.011908908,9.819643,0.012564576,-0.027154094,-0.4148265,0.010043373,0.7296410961073877,0.044043414294719696,0.08854984492063522,-0.22506821155548096
11.200958251953125,0.50113845,0.57304645,-2.9928744,0.4289519706166709,nan,nan,nan,nan,1.198866367340088,0.0009148120880126953,0.7613953,0.53064144,-0.33562532,-0.11229603586523873,0.014256372588608679,9.573653734773405,-0.0007384623,0.09734756,0.12832442,0.7220063,0.63286406,-3.0,0.54935294,0.5507434,0.33717352,0.0,-0.045246202,0.012899724,9.820868,0.0119490875,-0.024073113,-0.4841885,0.009824705,0.728888960035522,0.11575843393802643,0.0839366465806961,-0.3688625693321228
11.301042318344116,0.56623876,0.61399066,-3.0247326,0.4332775676208596,nan,nan,nan,nan,1.2989273071289062,0.0006067752838134766,0.77133554,0.43850148,-0.34151065,-0.1089410190585634,0.023069121933016135,9.554295560568576,0.06766367,0.08747045,-0.0003177807,0.7764639,0.66434014,-3.0,0.4970044,0.5375874,0.29159772,0.0,-0.047493264,0.013871123,9.82202,0.011023474,-0.020814808,-0.56393564,0.009588766,0.7281415557813906,0.14259156584739685,0.08092360198497772,-0.5117200613021851
11.402217864990234,0.6316323,0.64390516,-3.0571399,0.4258717642024379,nan,nan,nan,nan,1.400472640991211,0.0012574195861816406,0.77266115,0.34642658,-0.34775972,-0.1013442876361377,0.030270603428430132,9.534850487113006,0.109423675,0.089046866,-0.13284783,0.8303348,0.6915124,-3.0,0.435152,0.523271,0.24325378,0.0,-0.049432687,0.014831968,9.823079,0.009796741,-0.017360656,-0.6562442,0.009332892,0.7273900337511293,0.151767760515213,0.07760071754455566,-0.6634463667869568
11.501974821090698,0.7087901,0.66634727,-3.0960684,0.4017462679568804,nan,nan,nan,nan,1.500049352645874,0.0017058849334716797,0.7623827,0.2428253,-0.35521647,-0.08978329329505977,0.037033297324422065,9.515534314662228,0.12820229,0.080531396,-0.29510492,0.8817031,0.713302,-3.0,0.3648263,0.5083127,0.1941363,0.0,-0.05098766,0.015748162,9.823984,0.008347812,-0.013853051,-0.7580603,0.009066378,0.7266427344507967,0.1595173180103302,0.0750759020447731,-0.8159826397895813
11.601834297180176,0.7789776,0.6767267,-3.1328454,0.364470696656649,nan,nan,nan,nan,1.599651575088501,0.00042176246643066406,0.741615,0.1555001,-0.36210892,-0.07885271704335484,0.04160536226791334,9.495623923242103,0.13469574,0.076049685,-0.44716978,0.93155026,0.7301342,-3.0,0.2838308,0.49246603,0.14365552,0.0,-0.052188683,0.016637295,9.824735,0.0066962303,-0.010249605,-0.86972684,0.008784813,0.7258716518719257,0.15538455545902252,0.06617312133312225,-0.974249541759491
11.701481819152832,0.8523559,0.67918783,-3.173666,0.3077581962998416,nan,nan,nan,nan,1.6993911266326904,0.0004413127899169922,0.70789135,0.072367035,-0.3697049,-0.06767817925617331,0.04475994698024932,9.474987074881803,0.13271962,0.062515035,-0.61416423,0.97984135,0.7418983,-3.0,0.19123542,0.47573867,0.09210361,0.0,-0.053028,0.017498817,9.825314,0.0048863012,-0.006570874,-0.98751616,0.0084883,0.725071581662257,0.14790910482406616,0.05266249552369118,-1.129606008529663
11.803739547729492,0.9158673,0.67498225,-3.211844,0.24022098326691474,nan,nan,nan,nan,1.802490472793579,0.002421140670776367,0.66748756,0.0074993754,-0.37659457,-0.05870818603121794,0.045815481818269,9.453641805052769,0.12230382,0.046634436,-0.770139,1.0279609,0.7486167,-3.0,0.08316868,0.45757556,0.03814394,0.0,-0.053507287,0.018357523,9.825716,0.002905283,-0.0027211327,-1.1076869,0.00816696,0.7242431294499493,0.1274821162223816,0.03462570160627365,-1.2899378538131714
11.901767015457153,0.97953737,0.6650993,-3.253538,0.15051648480408986,nan,nan,nan,nan,1.899817705154419,0.0010609626770019531,0.61736894,-0.049693856,-0.3833701,-0.051181069262730805,0.04476620111504226,9.431670907735834,0.10274709,0.02668077,-0.93641406,1.0716289,0.7498379,-3.0,-0.029703004,0.4396457,-0.01306264,0.0,-0.05359441,0.019137079,9.825906,0.0009851245,0.00093186094,-1.2086612,0.007850202,0.7233894180129085,0.11085617542266846,0.018912823870778084,-1.4121218919754028
12.000825881958008,1.0335734,0.6519638,-3.2923422,0.05255247419910661,nan,nan,nan,nan,1.9986252784729004,0.00044798851013183594,0.5685996,-0.09183903,-0.38820073,-0.04654989728876539,0.04173734292957332,9.409387942403562,0.08419107,0.011732629,-1.0881757,1.1141392,0.7459812,-3.0,-0.15319526,0.42069593,-0.064957574,0.0,-0.05331928,0.01989632,9.825907,-0.000960626,0.0046340716,-1.2856034,0.007515732,0.7225225644679995,0.0885116383433342,0.009926620870828629,-1.51067054271698
12.102894306182861,1.079353,0.6378571,-3.3279774,-0.04946492332446316,nan,nan,nan,nan,2.1008942127227783,0.0012042522430419922,0.52443045,-0.12172004,-0.390631,-0.0439158227537564,0.0377963388078546,9.38711888223887,0.06877721,0.0039941217,-1.2178612,1.156128,0.73660994,-3.0,-0.28709787,0.4003239,-0.11819761,0.0,-0.052650705,0.020646678,9.825707,-0.0029145912,0.008432813,-1.3254715,0.0071563134,0.7216552257904243,0.05535358935594559,0.007400454021990299,-1.5778518915176392
12.20150637626648,1.1322929,0.61844486,-3.3724785,-0.19465566947742857,nan,nan,nan,nan,2.1993305683135986,0.0005652904510498047,0.47048998,-0.15036796,-0.39033464,-0.04256695115695573,0.03191641528750466,9.36549042433501,0.048171986,0.004404994,-1.3622535,1.1945405,0.72248495,-3.0,-0.4176302,0.38002113,-0.16862798,0.0,-0.051642906,0.021333585,9.825333,-0.0046854313,0.012032035,-1.3192822,0.006798092,0.7208118520062773,0.03472185507416725,0.012550655752420425,-1.5509716272354126
12.301491260528564,1.176529,0.5990209,-3.412637,-0.34192556083050707,nan,nan,nan,nan,2.299316883087158,0.0005543231964111328,0.42406267,-0.17030601,-0.38484925,-0.04280208060014959,0.02642187831289311,9.345261358767758,0.032663446,0.0121053485,-1.4601517,1.2314789,0.70311093,-3.0,-0.5474301,0.35873747,-0.21867736,0.0,-0.050260425,0.021994617,9.82478,-0.00632435,0.015605384,-1.2706022,0.0064223623,0.7200221639149333,0.007106238044798374,0.020323120057582855,-1.4790067672729492
12.405994892120361,1.2135226,0.5802958,-3.4486256,-0.4849006145564876,nan,nan,nan,nan,2.4046237468719482,0.001817941665649414,0.38383967,-0.1850051,-0.37472865,-0.044015616080543746,0.021649629702426454,9.327286532074218,0.01581935,0.018148618,-1.5093933,1.2680463,0.6773782,-3.0,-0.67693865,0.33564177,-0.2697253,0.0,-0.0484239,0.022649555,9.824033,-0.007827133,0.01925179,-1.1843069,0.006014231,0.7193197577848367,-0.029286418110132217,0.028292063623666763,-1.3742482662200928
12.504566669464111,1.2442911,0.562782,-3.4806423,-0.6185551597149871,nan,nan,nan,nan,2.502830743789673,0.0016608238220214844,0.34893197,-0.19627412,-0.36191607,-0.045944308746836526,0.017656426618962495,9.312170068770651,0.0011429974,0.02643957,-1.519754,1.2999265,0.6486279,-3.0,-0.78847474,0.31351382,-0.31544888,0.0,-0.04637163,0.02322105,9.823206,-0.008982711,0.02251972,-1.0852971,0.0056226533,0.7187285244283887,-0.06299053132534027,0.035774022340774536,-1.2489323616027832
12.601869344711304,1.2764146,0.5414351,-3.516989,-0.7752429591091508,nan,nan,nan,nan,2.5999159812927246,0.0012047290802001953,0.3075731,-0.20856893,-0.3430199,-0.04925384425319285,0.0134826135174404,9.30141559824348,-0.017244432,0.034205277,-1.4869745,1.329281,0.61589193,-3.0,-0.8888292,0.291117,-0.35855374,0.0,-0.04403438,0.023747731,9.8222885,-0.009861506,0.025602365,-0.98197323,0.005225658,0.7183076046310147,-0.08255193382501602,0.03917646408081055,-1.0851225852966309
12.701323509216309,1.3023505,0.5207161,-3.5483885,-0.9147354295313801,nan,nan,nan,nan,2.699258804321289,0.0005059242248535156,0.26853856,-0.2196154,-0.32441238,-0.0532310665944537,0.009867627336291207,9.292793716713792,-0.029873727,0.03856665,-1.416365,1.3570423,0.5781815,-3.0,-0.98124146,0.26770145,-0.40020478,0.0,-0.04134137,0.024246287,9.821277,-0.010466454,0.028583013,-0.8796258,0.0048098057,0.7179699765759112,-0.10248998552560806,0.03892845660448074,-0.9320549964904785
12.811149597167969,1.3261501,0.49665174,-3.5801394,-1.056264806731727,nan,nan,nan,nan,2.8091487884521484,0.0010831356048583984,0.22327419,-0.23205464,-0.3041688,-0.05804642657528042,0.005854273824837275,9.286564538180837,-0.038926784,0.03436222,-1.3044875,1.3850121,0.53181684,-3.0,-1.0721389,0.24126169,-0.44303927,0.0,-0.03802952,0.024749078,9.820106,-0.010770943,0.031650618,-0.7769055,0.004339188,0.7177259479627032,-0.1192130297422409,0.03418537974357605,-0.7747082114219666
12.910476446151733,1.3439016,0.47278303,-3.6076684,-1.1754314805257982,nan,nan,nan,nan,2.9088406562805176,0.0011973381042480469,0.17857057,-0.24412775,-0.28573394,-0.06282249392648431,0.0017758676818493413,9.283606936670848,-0.049350753,0.030240273,-1.1817638,1.4078497,0.485847,-3.0,-1.1454537,0.21683188,-0.47866178,0.0,-0.03474505,0.02516,9.819033,-0.0107092075,0.03420366,-0.6959544,0.003903316,0.7176100550105821,-0.1267155259847641,0.02610485441982746,-0.6440744996070862
13.001047611236572,1.3582178,0.4446805,-3.6354895,-1.2903530194681294,nan,nan,nan,nan,2.9989638328552246,0.0004787445068359375,0.12587853,-0.25839683,-0.26584554,-0.06849608190266754,-0.0032167450880393744,9.282467944128445,-0.05724047,0.01728896,-1.0363876,1.4263835,0.4413653,-3.0,-1.2052768,0.19442037,-0.5079997,0.0,-0.031566188,0.02549377,9.81808,-0.010379314,0.036307707,-0.6332781,0.003502587,0.7175654189196233,-0.11187039315700531,0.009590843692421913,-0.5218278765678406
13.10258936882019,1.3657207,0.4168768,-3.659394,-1.382736102768108,nan,nan,nan,nan,3.100529670715332,0.0013589859008789062,0.07230387,-0.2726822,-0.24732195,-0.07335291748826278,-0.00884073247591921,9.28296021994204,-0.0531838,0.001654217,-0.8990969,1.4448334,0.3882354,-3.0,-1.2664928,0.16883297,-0.5375857,0.0,-0.027768454,0.025826287,9.817058,-0.009707175,0.03843094,-0.574126,0.00304409,0.717584711100982,-0.10695479810237885,-0.006660499610006809,-0.4263904094696045
13.201664924621582,1.3667607,0.38515326,-3.6831303,-1.468147749541781,nan,nan,nan,nan,3.1997616291046143,0.0007898807525634766,0.009383502,-0.29011622,-0.2268824,-0.07788340312876718,-0.016158544195477242,9.285019372869291,-0.055246565,-0.014252569,-0.7567681,1.4603343,0.3336103,-3.0,-1.3210503,0.14353806,-0.5627366,0.0,-0.023863012,0.026105868,9.816139,-0.008763191,0.04023704,-0.5271591,0.0025898716,0.717665403308963,-0.08947792649269104,-0.030613252893090248,-0.34225308895111084
13.301820993423462,1.361,0.35413522,-3.7027297,-1.5342876776166263,nan,nan,nan,nan,3.299687623977661,0.0007586479187011719,-0.05321848,-0.30916736,-0.20761208,-0.08172957704659611,-0.024127613716991236,9.288727840129294,-0.04737121,-0.040060416,-0.6341339,1.4733942,0.27627566,-3.0,-1.3717737,0.117815815,-0.58413535,0.0,-0.019763066,0.02634158,9.815322,-0.007554432,0.041774575,-0.48960456,0.0021270965,0.7178107047790018,-0.06991976499557495,-0.05414731800556183,-0.28223761916160583
13.402348279953003,1.3486851,0.32106623,-3.720447,-1.589275618194343,nan,nan,nan,nan,3.400439500808716,0.0009591579437255859,-0.1196271,-0.33291647,-0.1879936,-0.08418485909602957,-0.0338418994273364,9.2939373289235,-0.034311656,-0.06473833,-0.52837414,1.4839488,0.21650928,-3.0,-1.4195712,0.09167215,-0.60156846,0.0,-0.015488522,0.02653219,9.814631,-0.0061100386,0.043027796,-0.46062008,0.0016559538,0.7180147687970243,-0.04431351274251938,-0.0765453428030014,-0.23771968483924866
13.501236915588379,1.3286235,0.2858712,-3.7365663,-1.634597633325571,nan,nan,nan,nan,3.499215841293335,0.0007891654968261719,-0.18956043,-0.36247757,-0.16762899,-0.08497023094093847,-0.04500876775655027,9.300555226225416,-0.013697399,-0.08795186,-0.43523362,1.4917313,0.15641555,-3.0,-1.4639918,0.06588236,-0.6145024,0.0,-0.011189997,0.026672803,9.814105,-0.0045159287,0.043957945,-0.44003108,0.001190561,0.7182739199747411,-0.010409120470285416,-0.10101281106472015,-0.20672419667243958
13.600846529006958,1.2973901,0.2442688,-3.7517219,-1.674547439011032,nan,nan,nan,nan,3.5987484455108643,0.0016169548034667969,-0.2683865,-0.4032965,-0.14444861,-0.08324378471397342,-0.05880755842305918,9.308743750844162,0.01209634,-0.11271191,-0.35438523,1.4969906,0.094779894,-3.0,-1.5070574,0.03978112,-0.6232812,0.0,-0.0067807506,0.026767854,9.813742,-0.0027782877,0.044589464,-0.42649165,0.00071908033,0.7185944479830624,0.038745347410440445,-0.1312084048986435,-0.1845177710056305
13.701792001724243,1.2602446,0.20205401,-3.7632496,-1.7046058591532764,nan,nan,nan,nan,3.700164556503296,0.0016620159149169922,-0.34118,-0.45105702,-0.1222103,-0.0781725463830969,-0.07352205489756591,9.318695630226298,0.056088753,-0.14031886,-0.29388446,1.4996732,0.031303126,-3.0,-1.5499079,0.013115081,-0.6277711,0.0,-0.0022395214,0.026816346,9.813554,-0.0009246623,0.04491251,-0.41970095,0.00023710034,0.7189838102500468,0.08556192368268967,-0.150077223777771,-0.17852053046226501
13.80329155921936,1.2195725,0.15892203,-3.771568,-1.7277104089176607,nan,nan,nan,nan,3.8015565872192383,0.0010764598846435547,-0.40514684,-0.5061291,-0.10149472,-0.06973510731487342,-0.0883483839109509,9.330258574578924,0.09707035,-0.15686893,-0.25177822,1.4996502,-0.032384105,-3.0,-1.5924076,-0.013568186,-0.6277326,0.0,0.0023168577,0.026815934,9.813555,0.0009565307,0.044909734,-0.41975883,-0.0002452915,0.7194359435946848,0.13190008699893951,-0.15651054680347443,-0.18550589680671692
13.901012420654297,1.1590261,0.09621518,-3.7791336,-1.752846823195163,nan,nan,nan,nan,3.8988852500915527,0.0005340576171875,-0.47914067,-0.59432685,-0.07465776,-0.05304827397698986,-0.10823659744483494,9.34359906325118,0.16476326,-0.16819435,-0.21511132,1.4970839,-0.093305275,-3.0,-1.6335266,-0.039159752,-0.6234373,0.0,0.0066752564,0.026769543,9.813735,0.0027357955,0.044600695,-0.42625403,-0.0007078521,0.7199572344018941,0.2109672725200653,-0.16647933423519135,-0.1918790340423584
14.001236915588379,1.0949394,0.028448451,-3.7834394,-1.7737414550486652,nan,nan,nan,nan,3.999277114868164,0.0012617111206054688,-0.53494203,-0.69620615,-0.04944374,-0.03018443422740369,-0.12657328147531777,9.358505570981663,0.23382987,-0.16575545,-0.1959865,1.4918302,-0.15548973,-3.0,-1.6769382,-0.06548806,-0.61466724,0.0,0.011123769,0.026674587,9.814099,0.004490488,0.043969803,-0.4397736,-0.0011834415,0.7205392786810302,0.2859894633293152,-0.1595391482114792,-0.2130890190601349
14.101195812225342,1.0357051,-0.03833356,-3.7849538,-1.7907032786307209,nan,nan,nan,nan,4.0992395877838135,0.0005667209625244141,-0.5675375,-0.7993382,-0.027853746,-0.004978733443583905,-0.14093496875674782,9.375000703874985,0.29529664,-0.15399902,-0.18960495,1.4839782,-0.21631645,-3.0,-1.7218738,-0.0915887,-0.60161716,0.0,0.015474731,0.02653272,9.81463,0.0061051263,0.043031294,-0.46054113,-0.0016544489,0.7211828129045081,0.3537460267543793,-0.13588601350784302,-0.25058019161224365
14.201132774353027,0.9686011,-0.12338149,-3.7845538,-1.8095566340065092,nan,nan,nan,nan,4.19909143447876,0.0006487369537353516,-0.58134204,-0.93035495,-0.003581785,0.029369655026991737,-0.15413998705883336,9.393137179855266,0.36884925,-0.12469685,-0.19380541,1.4735377,-0.2755628,-3.0,-1.7692218,-0.11750037,-0.5843716,0.0,0.019712085,0.026344176,9.815312,0.0075382143,0.041791555,-0.48920217,-0.0021214164,0.7218897286989071,0.43641436100006104,-0.09805342555046082,-0.2977348864078522
14.301015138626099,0.8969525,-0.23204471,-3.7815506,-1.8314191502939616,nan,nan,nan,nan,4.2989501953125,0.0005464553833007812,-0.5620131,-1.0935346,0.024334999,0.07541891758090513,-0.1636911107796215,9.41312749499456,0.45725915,-0.074790075,-0.2120698,1.4605188,-0.33288568,-3.0,-1.8198642,-0.14320819,-0.5630377,0.0,0.023811199,0.026109198,9.816128,0.008749196,0.04025867,-0.5266154,-0.0025839424,0.7226681124332649,0.53072190284729,-0.03661104291677475,-0.3571512699127197
14.401204586029053,0.8367985,-0.34964472,-3.7764294,-1.8535222669395472,nan,nan,nan,nan,4.399186134338379,0.0006833076477050781,-0.5028058,-1.2617507,0.051977433,0.12672981170581232,-0.16578254676271564,9.435037186834972,0.5368085,-0.007981914,-0.24169119,1.4448812,-0.38808298,-3.0,-1.8749369,-0.16876109,-0.5376629,0.0,0.027757557,0.025827149,9.817055,0.00970487,0.038436476,-0.57397705,-0.0030428008,0.7235202841789975,0.6151881814002991,0.051446333527565,-0.4373193383216858
14.500998497009277,0.7843522,-0.49685484,-3.7684698,-1.879708375494534,nan,nan,nan,nan,4.498924255371094,0.0005009174346923828,-0.3831911,-1.4581313,0.08605479,0.1916651506442072,-0.1570652723830619,9.460021928641957,0.62659395,0.09896396,-0.28752518,1.4267933,-0.44029212,-3.0,-1.9349803,-0.19389191,-0.50865287,0.0,0.031489484,0.025501153,9.818058,0.010368529,0.03635457,-0.63192725,-0.003493128,0.7244908525966545,0.696953296661377,0.17132681608200073,-0.5384213924407959
14.602102994918823,0.75431246,-0.6509258,-3.757865,-1.9053559706476966,nan,nan,nan,nan,4.600646018981934,0.0014042854309082031,-0.21062905,-1.645052,0.12482036,0.2592529887362959,-0.13548387235940584,9.489151063058538,0.6932671,0.22347288,-0.34674266,1.4057813,-0.4903728,-3.0,-2.0027757,-0.21917373,-0.47541162,0.0,0.03506845,0.025122767,9.819135,0.010728903,0.033970647,-0.7031311,-0.003945142,0.7256207991444037,0.7578170895576477,0.31629106402397156,-0.6717590093612671
14.700929641723633,0.74967223,-0.83692104,-3.7415292,-1.9331887692583458,nan,nan,nan,nan,4.698841333389282,0.000637054443359375,0.05378652,-1.8437747,0.17793931,0.3383952804509751,-0.09342577903551019,9.524336501751108,0.7469829,0.39154777,-0.4279972,1.3830767,-0.53534496,-3.0,-2.0756893,-0.2432021,-0.44004697,0.0,0.038281567,0.024714267,9.820192,0.010761952,0.031436246,-0.7839171,-0.0043737646,0.7269833652630242,0.7997010350227356,0.4966485798358917,-0.8351866602897644
14.800890684127808,0.7791854,-1.0245713,-3.7203875,-1.9570566315907678,nan,nan,nan,nan,4.798770904541016,0.00045371055603027344,0.37903938,-2.0116453,0.24141805,0.4142889812305667,-0.03354889326383548,9.567962862942382,0.77801853,0.5774804,-0.52771723,1.3575691,-0.5773926,-3.0,-2.1586208,-0.2672324,-0.40100342,0.0,0.041285027,0.024255754,9.821256,0.010475323,0.028640186,-0.87767404,-0.0048014666,0.7286693183211485,0.8133997321128845,0.6949208378791809,-1.0405158996582031
14.901206016540527,0.85808796,-1.241737,-3.689295,-1.9784568563443237,nan,nan,nan,nan,4.899141550064087,0.0007677078247070312,0.82946783,-2.1604161,0.33316293,0.49608136096786404,0.057902422037463985,9.624274410102531,0.7755035,0.803298,-0.6674825,1.3295552,-0.6155539,-3.0,-2.251839,-0.29089725,-0.35896087,0.0,0.044010244,0.023752654,9.822279,0.00986867,0.025631493,-0.9809753,-0.00522176,0.7308398216040619,0.7861142754554749,0.9365964531898499,-1.2948790788650513
15.001718521118164,0.9708785,-1.4323002,-3.654331,-1.990827334038399,nan,nan,nan,nan,4.99969220161438,0.0006577968597412109,1.2964416,-2.2436569,0.43627548,0.5623703692138554,0.16027999402451543,9.697002250049279,0.73802704,1.0174615,-0.8148093,1.2991349,-0.64942235,-3.0,-2.3558595,-0.31408912,-0.31429955,0.0,0.04642835,0.02320685,9.823228,0.008956267,0.022437554,-1.0879556,-0.005632842,0.73363370882098,0.7220988273620605,1.172818660736084,-1.5813637971878052
15.102419137954712,1.1885288,-1.6741896,-3.5936368,-1.9965129540694924,nan,nan,nan,nan,5.101097583770752,0.0012578964233398438,2.0129123,-2.266953,0.6170939,0.6390583283394659,0.32683965700989903,9.791502163503335,0.63390476,1.3131299,-1.0466679,1.266122,-0.67891383,-3.0,-2.4714463,-0.33691394,-0.2670018,0.0,0.048533503,0.022615075,9.824078,0.007752131,0.019057196,-1.1896623,-0.0060367268,0.7372483796423513,0.5376729369163513,1.4925289154052734,-1.9346269369125366
15.201034545898438,1.4529344,-1.8700299,-3.521307,-1.989174240396106,nan,nan,nan,nan,5.198885440826416,0.0004420280456542969,2.7398841,-2.1860347,0.83413225,0.6943332425434047,0.5065320127876038,9.918966435287164,0.45845616,1.5968298,-1.2892734,1.2321231,-0.7027172,-3.0,-2.5918808,-0.35834914,-0.21956372,0.0,0.05023233,0.022006148,9.824769,0.006352044,0.015668683,-1.2693903,-0.006415504,0.742096435185515,0.26902562379837036,1.794930338859558,-2.294384241104126
15.304044485092163,1.7341169,-2.016969,-3.441775,-1.9730279361849448,nan,nan,nan,nan,5.302452325820923,0.0008990764617919922,3.4205515,-2.0279448,1.0774003,0.7292836095025992,0.68494164643029,10.085135451648398,0.23758481,1.8403001,-1.5207837,1.1938624,-0.7227848,-3.0,-2.726316,-0.38039485,-0.16772339,0.0,0.051664304,0.021321451,9.82534,0.0046545933,0.0119674625,-1.3197827,-0.0068046874,0.7483700751015235,-0.04044647887349129,2.0599982738494873,-2.6453747749328613
15.401315927505493,2.233338,-2.1787174,-3.2889044,-1.9342375413132766,nan,nan,nan,nan,5.399390697479248,0.0006303787231445312,4.4758677,-1.6284802,1.5532357,0.7546462734203538,0.9805700917493501,10.315831091497106,-0.2044234,2.1668549,-1.8854967,1.1560136,-0.73664373,-3.0,-2.8548737,-0.40038192,-0.118049785,0.0,0.05265312,0.020644631,9.825708,0.0029092657,0.008422264,-1.3254249,-0.0071573374,0.7569948204040109,-0.6957556009292603,2.380232810974121,-3.0671546459198
15.501208305358887,2.8130062,-2.262076,-3.0850732,-1.8873650247369995,nan,nan,nan,nan,5.499238014221191,0.0006186962127685547,5.4882164,-1.0557528,2.2063632,0.7317045527886181,1.3061144706299967,10.634424991700806,-0.8091032,2.4517422,-2.2560878,1.1150373,-0.74584126,-3.0,-2.98565,-0.42027825,-0.06607576,0.0,0.053309295,0.019912366,9.825904,0.0010022541,0.004713848,-1.2868867,-0.007508362,0.7687486845295817,-1.428376317024231,2.542708396911621,-3.478933811187744
15.60201621055603,3.4406264,-2.2643232,-2.8201413,1.5543581872126542,nan,nan,nan,nan,5.600374221801758,0.0017733573913574219,6.345923,-0.37370497,3.0485957,-2.2360259034193337,1.4942326398138062,11.076378536317504,-1.395194,2.5840366,-2.6080198,1.0715442,-0.7498404,-3.0,-3.1121225,-0.43968195,-0.012961211,0.0,0.05359459,0.019135565,9.825906,-0.0009889402,0.0009246252,-1.2084817,-0.007850842,0.7847658806720804,13.721368789672852,3.4119794368743896,-7.041275978088379
15.700919151306152,4.200218,-2.1769676,-2.4204752,1.3538891650752976,nan,nan,nan,nan,5.698835611343384,0.0004703998565673828,6.9803824,0.2815047,4.1914153,-2.3047416197235253,1.0552239936411052,11.668343601319945,5.354192,4.6541066,-2.7017853,1.0273536,-0.7485656,-3.0,3.0569553,-0.45781475,0.03884097,0.0,0.053503647,0.018346684,9.825712,-0.0029312426,-0.002770859,-1.1061982,-0.008171188,0.8057271637806019,13.37418270111084,7.801185607910156,-0.18664252758026123
15.801676034927368,4.9487815,-2.0511112,-1.9302181,0.8120661059627294,nan,nan,nan,nan,5.799755573272705,0.0005757808685302734,7.650305,0.37137455,5.3719,-1.8078552548244993,0.5443224065901671,12.346751766297974,11.768113,8.040581,-2.5239508,0.9802469,-0.7419766,-3.0,2.9511995,-0.47559208,0.091659665,0.0,0.053033583,0.017506057,9.825317,-0.0048703006,-0.006539196,-0.9885302,-0.008485705,0.8291057134465848,10.798529624938965,12.682035446166992,0.8367261290550232
15.901095151901245,5.8029685,-1.9590335,-1.2760067,-0.41650567472054467,nan,nan,nan,nan,5.899132490158081,0.0005915164947509766,7.787741,-0.16451554,6.281961,-1.110560110065375,0.4886982534867088,13.2179232502915,11.11971,13.306726,-1.9973966,0.93214846,-0.7303084,-3.0,2.8588195,-0.49226737,0.14303277,0.0,0.05220112,0.016647965,9.824743,-0.006675021,-0.01020516,-0.87113714,-0.008781288,0.8582043006316633,7.808077812194824,14.138328552246094,2.1394829750061035
16.001271724700928,6.5443926,-1.9398164,-0.5979454,-2.175635184857179,nan,nan,nan,nan,5.999215602874756,0.0017046928405761719,7.085173,-0.11999116,6.905207,-1.3305610491409618,0.9397230623201298,14.117710886094725,9.301646,13.555993,-1.6636411,0.88207614,-0.7134444,-3.0,2.7773232,-0.5081991,0.19376878,0.0,0.050997823,0.015754817,9.823991,-0.008336326,-0.013826811,-0.7588502,-0.009064356,0.887268583341017,8.742292404174805,11.208601951599121,3.5296630859375
16.101227283477783,7.148818,-1.8926849,0.08346991,-3.883296357869578,nan,nan,nan,nan,6.099174499511719,0.0005452632904052734,6.9323773,0.7726339,7.7622414,-1.823730017979382,0.7347824246478951,15.069253454301512,9.962653,11.686743,-1.3347263,0.830519,-0.69159806,-3.0,2.7066717,-0.5232197,0.24308288,0.0,0.049438804,0.014835252,9.823083,-0.009792025,-0.01734845,-0.6565849,-0.009331974,0.9170137771217056,10.286210060119629,12.90659236907959,5.467530250549316
16.20097589492798,7.8976417,-1.8029888,-0.12610127,-6.833472523739449,nan,nan,nan,nan,6.198906183242798,0.0005202293395996094,7.7695746,0.79841703,-4.9991894,1.5307531548260949,-0.38244169186799826,13.557625398729002,-9.010108,-8.836289,32.364838,0.777628,-0.66497064,-3.0,2.6458118,-0.5372921,0.29058737,0.0,0.04753827,0.013891888,9.822043,-0.011000214,-0.020742595,-0.5657825,-0.009583481,0.8692900017367513,-7.363210678100586,21.646345138549805,9.395551681518555
16.30219054222107,8.636675,-1.6753217,-0.5315581,-10.148015608993179,nan,nan,nan,nan,6.300216197967529,0.0005040168762207031,8.088014,1.45216,-3.9125605,-1.640466858976282,0.3479923776075351,12.001718006227172,5.2987614,5.769957,31.63903,0.72251123,-0.63317305,-3.0,2.592684,-0.55062723,0.33676615,0.0,0.045268264,0.0129087325,9.820879,-0.01194197,-0.02404398,-0.48487127,-0.009822618,0.8172981040248707,8.475101470947266,18.543567657470703,12.136680603027344
16.40159797668457,9.418899,-1.454298,-0.8483818,-12.924836872701915,nan,nan,nan,nan,6.399617910385132,0.000614166259765625,8.001422,2.2158024,-2.614844,1.4964218137576335,-0.6484914401298849,11.052321100328125,-16.769392,-1.1195139,30.758883,0.6671674,-0.5975423,-3.0,2.5480063,-0.56274766,0.3797209,0.0,0.042724058,0.011921365,9.819658,-0.01255889,-0.02711688,-0.41563222,-0.010040756,0.7839023122003906,-9.26408576965332,25.247802734375,15.78001594543457
16.501445531845093,10.121208,-1.170146,-1.0328234,-10.11208370477809,nan,nan,nan,nan,6.499258995056152,0.0004603862762451172,8.24008,2.864751,-1.55809,-1.855991923208515,0.6063228316879448,10.490843925569214,6.5462174,-7.762986,30.037039,0.6105299,-0.55766976,-3.0,2.5096781,-0.5739183,0.4201375,0.0,0.039876312,0.010910698,9.81839,-0.01285314,-0.030010201,-0.3550554,-0.010242539,0.7634736673233822,7.125659942626953,18.848552703857422,11.952378273010254
16.601179838180542,10.906902,-0.7870397,-1.1102488,-13.045089259129504,nan,nan,nan,nan,6.598977088928223,0.000499725341796875,8.481801,3.610066,-0.29342225,1.833873902608854,-0.6905038640431438,10.335726530347024,-9.407195,11.570439,29.057314,0.5527841,-0.51387846,-3.0,2.4769769,-0.58409667,0.45765597,0.0,0.036747944,0.009879985,9.817107,-0.012812767,-0.03269797,-0.30197257,-0.010427086,0.7577340893933041,-13.58515739440918,27.84092140197754,16.010313034057617
16.701167106628418,11.669131,-0.36712778,-1.0757796,-10.436803661028641,nan,nan,nan,nan,6.699185848236084,0.0006468296051025391,8.899292,4.219166,0.6855968,-2.1554907261680727,0.46085121196449563,10.417146916110072,-10.770772,-12.304636,28.442064,0.49378252,-0.46626118,-3.0,2.449119,-0.5932988,0.4921431,0.0,0.033345442,0.008826553,9.815839,-0.012433931,-0.035170343,-0.25498196,-0.010594539,0.7607520960580263,6.250443458557129,22.394784927368164,12.491508483886719
16.803420782089233,12.556255,0.14946078,-0.9145139,-13.35381875097023,nan,nan,nan,nan,6.801931381225586,0.0008156299591064453,9.256507,4.9835086,1.9112182,1.9050619264554771,-0.4420610476958342,10.787263524252923,8.512213,6.2741327,27.496855,0.43238539,-0.41403195,-3.0,2.425159,-0.6016484,0.523902,0.0,0.0296125,0.0077300114,9.814596,-0.011702451,-0.037448753,-0.21224266,-0.010747024,0.774324829995182,-16.868274688720703,29.27420997619629,16.17157745361328
16.903160095214844,13.429015,0.69028974,-0.660109,-10.556488340342918,nan,nan,nan,nan,6.901751756668091,0.0014386177062988281,9.649299,5.648664,2.8136647,-1.6379328144145524,0.19647078359768222,11.285268723685293,-19.891684,8.333086,27.10855,0.3719682,-0.36034995,-3.0,2.405863,-0.6086933,0.55104357,0.0,0.025774872,0.0066506388,9.813477,-0.010677233,-0.039397217,-0.17500243,-0.01087611,0.7922251485284931,0.6295633316040039,26.995838165283203,12.921097755432129
17.001049757003784,14.443673,1.3288788,-0.27036035,-13.182756516270436,nan,nan,nan,nan,6.998996019363403,0.0014066696166992188,10.021641,6.309776,4.057928,1.2598374928515454,-0.38865583699638484,11.978876387793571,-1.3220098,-18.192274,26.1867,0.3124841,-0.30562824,-3.0,2.3904738,-0.6145333,0.57378256,0.0,0.021862132,0.005587633,9.812498,-0.00940559,-0.04103061,-0.1419749,-0.010983434,0.8165104739843357,-16.326446533203125,32.1174201965332,16.04869842529297
17.102431058883667,15.4379425,1.9717158,0.1886609,-16.315035264875192,nan,nan,nan,nan,7.100343227386475,0.0009372234344482422,10.579055,6.885788,5.079282,-1.3380801377516955,-0.08403797710707495,12.737209369856867,9.495209,13.690101,25.6252,0.24993989,-0.24644572,-3.0,2.3777137,-0.61953473,0.5934288,0.0,0.017629683,0.0044696485,9.811624,-0.007828018,-0.042442586,-0.11023854,-0.011075581,0.8422705145426556,-3.776359796524048,32.18344497680664,18.98268699645996
17.202964305877686,16.495937,2.6592607,0.742318,-18.97935661204174,nan,nan,nan,nan,7.200982332229614,0.0007939338684082031,11.190488,7.29687,6.212572,1.8558127383695326,0.12498718151958488,13.6224043581076,-26.536894,7.951674,25.183952,0.18738702,-0.18591908,-3.0,2.368116,-0.62339646,0.60870725,0.0,0.013300456,0.003351257,9.810924,-0.0060485075,-0.04354115,-0.08078849,-0.011146887,0.8713881425587862,-22.497291564941406,32.894004821777344,21.42748260498047
17.301908493041992,17.426508,3.289707,1.0047151,-20.609119161427245,nan,nan,nan,nan,7.29995059967041,0.0008699893951416016,5.861641,5.4365797,-5.501568,1.6048360200707121,-1.3246712361302138,13.518983194548643,-2.8265707,-9.182723,-10.304441,0.12554722,-0.12510669,-3.0,2.3614917,-0.6261139,0.6195153,0.0,0.008950291,0.0022454183,9.810418,-0.004138198,-0.04431854,-0.05327123,-0.011197149,0.868036022949108,-18.179527282714844,34.898624420166016,24.375349044799805
17.40185022354126,18.104063,3.8319092,0.5259271,-20.793832960110997,nan,nan,nan,nan,7.399931907653809,0.001035928726196289,6.689284,5.0195894,-4.2466187,1.4058045936049783,-0.223154934533081,11.983255359847105,-3.976273,7.1704106,-10.024941,0.06285566,-0.06280045,-3.0,2.3575141,-0.62776667,0.626112,0.0,0.004492913,0.0011242115,9.810105,-0.0020981403,-0.044793133,-0.026413884,-0.011227753,0.8166615288682846,-17.617273330688477,30.19316291809082,23.604141235351562
17.504427433013916,18.816473,4.3251534,0.15664046,-19.39821577944141,nan,nan,nan,nan,7.5024824142456055,0.0011336803436279297,7.706862,5.38377,-3.4429984,2.144827835437866,0.761959969088251,10.976240856368097,6.7433085,18.474098,-9.510193,-0.0015601036,0.0015601029,-3.0,2.3561954,-0.6283182,0.6283172,0.0,-0.00011161471,-2.7903692e-05,9.81,5.2295778e-05,-0.044951808,0.000653496,-0.01123797,0.7811651231586385,-23.172698974609375,26.498756408691406,21.356977462768555
17.602269172668457,19.699707,4.9348865,-0.13096623,-18.76535700242775,nan,nan,nan,nan,7.60051155090332,0.0009429454803466797,8.003793,5.5312557,-1.7454363,-1.6994730896345018,-1.0570079541084958,10.428291711527859,23.168882,19.587677,-9.261235,-0.06313498,0.06307903,-3.0,2.3575258,-0.6277617,0.6260923,0.0,-0.0045128437,-0.0011292072,9.810106,0.002107385,-0.044791717,0.026532028,-0.011227661,0.7611642808075645,-1.9689249992370605,38.925357818603516,22.495983123779297
17.701544523239136,20.473429,5.44037,-0.28688556,-19.607196257123295,nan,nan,nan,nan,7.699615478515625,0.0007297992706298828,8.537036,5.477967,-1.2900106,1.8551301107216407,-0.03122656283243197,10.189671778399504,33.861546,10.169213,-9.396206,-0.12527663,0.12483895,-3.0,2.3614688,-0.62612337,0.61955327,0.0,-0.008931138,-0.002240579,9.810416,0.004129581,-0.04432127,0.053153455,-0.011197323,0.7522903419856056,-22.29900550842285,34.291812896728516,22.38567352294922
17.801971197128296,21.344595,6.0055923,-0.36265665,-18.912703559034878,nan,nan,nan,nan,7.799954891204834,0.0008702278137207031,8.52961,5.3432937,0.19751376,-0.9983467842484773,-0.5164889162936583,10.252500294689096,36.253544,-4.5718923,-9.125295,-0.18797238,0.1864906,-3.0,2.368192,-0.6233655,0.6085845,0.0,-0.013341338,-0.0033617232,9.810929,0.0060659484,-0.043532323,0.081055604,-0.011146315,0.754636834207079,-6.820769309997559,38.19029998779297,22.24371337890625
17.901789903640747,22.298912,6.584387,-0.34939688,-19.911752901698716,nan,nan,nan,nan,7.899789094924927,0.0008409023284912109,9.068456,5.619957,1.128437,3.1258282487574918,-0.03662325313387882,10.479041139129558,26.92392,-17.941063,-8.948584,-0.25002265,0.246525,-3.0,2.3777285,-0.61952883,0.59340566,0.0,-0.017635351,-0.0044711283,9.811625,0.007830248,-0.04244092,0.11027885,-0.011075473,0.7630384442983366,-30.49550437927246,37.03647232055664,22.786121368408203
18.001110792160034,23.180593,7.105395,-0.20660092,-18.225451653196213,nan,nan,nan,nan,7.998925447463989,0.00046944618225097656,8.967466,4.9748683,2.242647,-0.8665015569445611,-0.32034152877950883,10.98600171232597,13.025742,-20.328232,-8.5419035,-0.31120753,0.30443597,-3.0,2.3901796,-0.614647,0.5742272,0.0,-0.021776875,-0.0055648168,9.812479,0.009375711,-0.04106256,0.14129929,-0.010985524,0.7815168252045394,-8.162095069885254,39.60581970214844,21.50595474243164
18.101016759872437,24.159472,7.6178775,0.023701116,-21.06758083452093,nan,nan,nan,nan,8.09895133972168,0.001622915267944336,9.720128,5.180365,3.0844958,2.798064572280265,-0.9134499277807635,11.508233725074687,0.24356788,-12.135472,-8.390586,-0.37239704,0.3607381,-3.0,2.4059863,-0.6086473,0.5508653,0.0,-0.02580262,-0.0066583008,9.813485,0.010685497,-0.039384417,0.17525248,-0.010875264,0.8001112376786128,-28.561357498168945,45.26663589477539,24.874074935913086
18.201682567596436,25.119701,8.102885,0.36087608,-20.573223787664674,nan,nan,nan,nan,8.200063705444336,0.001420736312866211,10.178846,5.229625,4.6868877,2.381029300662707,-0.02667560433141669,12.27549122000114,-3.665812,0.87893945,-8.078729,-0.43358648,0.4150774,-3.0,2.4255836,-0.6014967,0.5233211,0.0,-0.02968723,-0.0077514653,9.81462,0.01171987,-0.037407063,0.2130275,-0.010744249,0.8266807169375883,-27.351524353027344,41.60300827026367,23.669296264648438
18.301006078720093,26.218906,8.6240635,0.9033775,-19.3772943149699,nan,nan,nan,nan,8.29884648323059,0.0004999637603759766,10.791982,5.3333716,6.306096,2.3071085098660324,0.04473171915294327,13.276719514373704,1.9182043,14.653053,-7.6763244,-0.49261585,0.46529293,-3.0,2.4486187,-0.5934689,0.49278584,0.0,-0.03327625,-0.008805721,9.815815,0.012423149,-0.03521644,0.25411597,-0.010597642,0.8601331410019049,-27.651840209960938,43.226783752441406,22.50875473022461
18.402462005615234,27.258518,9.133993,1.5646151,-17.4157334082977,nan,nan,nan,nan,8.400307178497314,0.0004050731658935547,10.441703,5.655029,7.798635,2.3261209096043545,-0.8156420884901463,14.442045775894092,13.401327,22.509869,-7.4945436,-0.5523664,0.5135511,-3.0,2.476761,-0.58416605,0.45791373,0.0,-0.03672456,-0.009872529,9.817098,0.01281126,-0.032716434,0.30161616,-0.010428344,0.8975168104672387,-28.22947883605957,49.01921844482422,21.433879852294922
18.500892639160156,28.21055,9.541772,1.888012,-19.444704719813497,nan,nan,nan,nan,8.498772144317627,0.0007753372192382812,9.126448,3.435008,-0.70922315,1.3380199937630712,-0.27467917378619067,14.382872948888707,32.47404,34.768463,5.2151194,-0.6094003,0.5568422,-3.0,2.5089805,-0.57412887,0.4209071,0.0,-0.039817207,-0.010890539,9.818364,0.012855602,-0.030065317,0.35393918,-0.010246351,0.8956557356891366,-20.37770652770996,44.842567443847656,23.07552719116211
18.601112604141235,29.065289,9.868123,1.850715,-20.91919015988995,nan,nan,nan,nan,8.59907078742981,0.0005395412445068359,8.776958,3.4347305,0.20708264,0.9093416784703727,-0.07507729083032788,13.768374939207005,8.931483,48.34829,5.0736895,-0.6664302,0.5970446,-3.0,2.5474625,-0.56290096,0.38027,0.0,-0.042688515,-0.011908211,9.819642,0.012564894,-0.027156174,0.41478148,-0.01004352,0.8760978074473733,-18.513973236083984,44.02946090698242,24.48369026184082
18.701110363006592,29.979713,10.230745,1.8808229,-16.120060270397875,nan,nan,nan,nan,8.698990821838379,0.0004699230194091797,8.640821,3.8309538,1.1911695,1.1720393048837539,-0.05698009381072211,13.48645085001366,-18.24344,42.23018,4.924318,-0.72207516,0.6329062,-3.0,2.5923002,-0.55072755,0.33711797,0.0,-0.045249205,-0.012900952,9.820869,0.011948116,-0.02406914,0.48428148,-0.00982442,0.8669789251151258,-20.9001522064209,44.69731521606445,19.823087692260742
18.803999423980713,30.734226,10.557224,1.9667184,-11.332572269631545,nan,nan,nan,nan,8.801998138427734,0.0006864070892333984,8.919665,4.0532255,1.857087,2.0627637867270603,0.5568778429171033,13.46427391389387,-31.721508,39.125015,4.791506,-0.77811444,0.66523355,-3.0,2.6463244,-0.5371685,0.2901647,0.0,-0.047557037,-0.013900565,9.822053,0.010990452,-0.020712389,0.56655604,-0.009581268,0.8662575823506665,-26.76972007751465,42.196990966796875,14.6436128616333
18.901726484298706,31.639725,11.002705,2.1119082,-4.930596233133359,nan,nan,nan,nan,8.899840116500854,0.0013380050659179688,6.9892654,3.9613187,-0.7848181,2.718186649335602,0.7350187591532307,13.530159756932429,-30.801733,47.26596,-1.6663247,-0.8300042,0.6913587,-3.0,2.7060263,-0.523363,0.24356028,0.0,-0.049421716,-0.014826071,9.823072,0.009805196,-0.01738255,0.65563375,-0.009334533,0.868398897760659,-30.771669387817383,39.27292251586914,8.261224746704102
19.00091290473938,32.25679,11.380289,2.0403852,-0.7459438447264871,nan,nan,nan,nan,8.998810768127441,0.0005280971527099609,6.945253,3.7063756,0.062077478,1.3366083699398494,1.392855419625421,13.142886061463527,-24.425644,46.024487,-1.4756733,-0.8810737,0.71306133,-3.0,2.7758288,-0.5085041,0.19475585,0.0,-0.050970487,-0.01573694,9.823974,0.008367156,-0.013897284,0.7567294,-0.009069784,0.8557364268306422,-23.674053192138672,35.918617248535156,3.7150118350982666
19.10124707221985,32.928112,11.794189,2.0585334,4.078911567617203,nan,nan,nan,nan,9.09926700592041,0.001497030258178711,6.72431,3.6326444,1.2775849,0.5306738840286009,0.5098705856398551,13.050558736231197,-20.049242,45.320164,-1.3418335,-0.93136114,0.730079,-3.0,2.857428,-0.49252877,0.14385222,0.0,-0.052184746,-0.01663392,9.824733,0.0067029246,-0.010263642,0.86928153,-0.008785925,0.8526902161143083,-19.1170597076416,41.663516998291016,-0.06269478797912598
19.201411485671997,33.49967,12.152203,2.1497874,8.879864065929912,nan,nan,nan,nan,9.199371814727783,0.0006320476531982422,6.679365,3.992592,2.4140086,1.633091218865293,-0.6023506346644155,13.197093303706515,-17.901993,43.13201,-1.1561157,-0.9798323,0.74189657,-3.0,2.9503384,-0.47574195,0.09211351,0.0,-0.053027876,-0.017498657,9.825314,0.0048866575,-0.006571579,0.9874936,-0.008488358,0.8575199351938221,-25.38921546936035,48.9220085144043,-3.6280155181884766
19.30129647254944,34.113136,12.537201,2.3380427,13.857174890757383,nan,nan,nan,nan,9.299298524856567,0.0006573200225830078,6.892242,4.1084604,3.1300063,2.6201173172149286,0.188003304730624,13.52272961905228,-16.859385,45.34756,-1.1635821,-1.0264996,0.7484923,-3.0,3.0548944,-0.45815074,0.03982063,0.0,-0.05349842,-0.018331438,9.8257065,0.002967717,-0.002840748,1.1041018,-0.008177129,0.868157676617759,-31.814577102661133,45.10096740722656,-9.076958656311035
19.401158809661865,34.499626,12.752958,2.04294,11.051862076421552,nan,nan,nan,nan,9.39912223815918,0.0010554790496826172,3.6689975,1.3322207,-2.9622197,0.3154868196159044,0.547286222861961,12.461760886218418,-8.887289,40.274647,4.5088453,-1.0713234,0.7498468,-3.0,-3.1127293,-0.43977636,-0.012696934,0.0,-0.05359505,-0.019131621,9.825905,0.0009988829,0.0009057722,1.2080133,-0.00785251,0.8330047598602509,-15.735651016235352,38.686378479003906,-12.610010147094727
19.503391981124878,34.784107,12.903268,1.7519201,15.315456296183308,nan,nan,nan,nan,9.502172708511353,0.0010120868682861328,3.421088,1.6073297,-1.8782903,1.6972428186428647,-0.36062898320784265,11.790493648555147,-23.703047,35.95897,4.30716,-1.1156305,0.74574745,-3.0,-2.9838324,-0.4200019,-0.066814825,0.0,-0.053302605,-0.019922959,9.825903,-0.0010297584,0.0047665765,1.2877253,-0.0075034862,0.8099857671368862,-23.336267471313477,44.10942459106445,-15.842187881469727
19.602644681930542,35.15816,13.045265,1.4827689,14.88298363385809,nan,nan,nan,nan,9.601126909255981,0.0009696483612060547,3.6028306,1.5326272,-1.0128552,2.361698411382122,0.24978052628688463,11.438123024012913,-37.361954,34.689323,4.138205,-1.1562213,0.7365824,-3.0,-2.854186,-0.40027663,-0.11831807,0.0,-0.05264874,-0.020648342,9.825707,-0.0029189303,0.008441408,1.3255094,-0.00715548,0.79763977948783,-27.413341522216797,41.062530517578125,-15.801627159118652
19.703566074371338,35.494427,13.136985,1.33892,14.97855236384565,nan,nan,nan,nan,9.702373743057251,0.0009713172912597656,3.7795703,1.350916,-0.37419254,-2.8140613362036553,1.026542673022071,11.344064200427407,-45.791527,30.336561,4.0990624,-1.1956964,0.72196925,-3.0,-2.7199478,-0.37938282,-0.17017096,0.0,-0.05160611,-0.02135426,9.825318,-0.004737941,0.012142176,1.3183957,-0.0067868284,0.79431220273376,0.3982810974121094,37.04164505004883,-16.363855361938477
19.80207061767578,35.864986,13.230821,1.2762741,21.626592555890255,nan,nan,nan,nan,9.80013632774353,0.0006883144378662109,3.768517,1.2349916,0.5608026,-2.3061743352724955,1.0067063257981261,11.460045842435235,-55.6332,24.774506,4.0613914,-1.2317731,0.70293134,-3.0,-2.5931203,-0.3585602,-0.21908215,0.0,-0.05024761,-0.021999884,9.824775,-0.0063370047,0.015634293,1.2700502,-0.006419231,0.798413388252847,-2.3296873569488525,37.54275894165039,-22.879974365234375
19.901111841201782,36.20347,13.314869,1.305112,21.847656558664013,nan,nan,nan,nan,9.899080753326416,0.0010051727294921875,3.7315571,1.1484492,1.4265252,-1.9218795238223372,0.8944818479132022,11.74913239648568,-62.564976,16.992067,4.0908937,-1.2661824,0.67886597,-3.0,-2.4712331,-0.33687413,-0.26708716,0.0,-0.048530094,-0.022616155,9.824077,-0.007754492,0.019063296,1.1894957,-0.0060360217,0.808546241555323,-4.389566898345947,38.50646209716797,-22.956897735595703
20.002798318862915,36.563698,13.407209,1.4287798,21.800857598630863,nan,nan,nan,nan,10.00162386894226,0.0008957386016845703,3.6503444,1.2687694,2.4317648,-2.5479314846331604,0.7317154315047723,12.18147205522286,-66.52159,6.1240215,4.1524844,-1.2995483,0.64900804,-3.0,-2.3544278,-0.3137889,-0.31489962,0.0,-0.04639877,-0.023214264,9.823216,-0.008970091,0.022480452,1.0865685,-0.005627525,0.8234704492505263,-1.2345385551452637,39.74272537231445,-22.72934913635254
20.1032555103302,36.88632,13.494916,1.6346017,21.944855073307316,nan,nan,nan,nan,10.101366758346558,0.0009217262268066406,3.5666316,1.2958527,3.331829,-2.633740241043762,0.6344141571151991,12.725113837029806,-66.76043,-5.0172725,4.2315087,-1.3297035,0.61537087,-3.0,-2.251339,-0.2907783,-0.35918108,0.0,-0.043997172,-0.023755316,9.822274,-0.009872535,0.025647242,0.9804355,-0.0052196495,0.8418657510586298,-0.9148282408714294,40.53211975097656,-22.779146194458008
20.201813459396362,37.17197,13.577307,1.8990046,22.040115646796558,nan,nan,nan,nan,10.199841260910034,0.0009045600891113281,3.5176606,1.2152013,4.061984,-2.156734748099511,0.43418975227070256,13.358349048402182,-63.365234,-14.958025,4.3259506,-1.3571985,0.577948,-3.0,-2.1598382,-0.26756254,-0.40044144,0.0,-0.041324694,-0.024249095,9.82127,-0.010469094,0.028599951,0.87904733,-0.0048073363,0.8628039709650666,-3.4350993633270264,41.94642639160156,-22.705455780029297
20.301116943359375,37.499428,13.680499,2.3006856,22.2267999324967,nan,nan,nan,nan,10.299042463302612,0.0005469322204589844,3.398021,1.2946012,5.039914,-2.3943711348536723,0.3526561878729122,14.063531748559349,-55.29726,-25.73483,4.5660243,-1.3825619,0.53627455,-3.0,-2.077349,-0.24371512,-0.43925184,0.0,-0.038347974,-0.024705011,9.820214,-0.010759225,0.03137928,0.7857852,-0.004382907,0.8855452172621845,-2.3872456550598145,42.589717864990234,-22.817058563232422
20.410454988479614,37.760174,13.772187,2.7116938,22.14700548613816,nan,nan,nan,nan,10.401004314422607,0.0013308525085449219,-0.093442045,0.44202632,-0.5349463,-1.5748236998647913,-0.15660399963193727,14.624439522530906,-14.669302,-41.538197,0.76433486,-1.4061432,0.4895866,-3.0,-2.0016146,-0.218766,-0.47598,0.0,-0.035012268,-0.025129283,9.819117,-0.010725681,0.034011398,0.7018728,-0.0039378605,0.903229506864714,-5.493759632110596,40.824676513671875,-22.314910888671875
20.50474214553833,38.041473,13.919346,1.8614267,25.46929042313603,nan,nan,nan,nan,10.50292706489563,0.0014214515686035156,2.901425,1.8434451,-6.895236,1.802618740495598,0.22184119459097573,12.339973084237451,-17.01691,9.616091,-27.334967,-1.4271522,0.43934947,-3.0,-1.9338108,-0.19342817,-0.50922465,0.0,-0.03142211,-0.025507616,9.818039,-0.010358952,0.03639559,0.63074654,-0.0034848275,0.828875336587665,-26.32632064819336,43.131248474121094,-26.009206771850586
20.601508855819702,38.288326,14.089226,1.1789421,28.327521488191543,nan,nan,nan,nan,10.599578380584717,0.0007798671722412109,2.871428,1.9087765,-5.43152,-2.103407539061313,-0.5009017113980527,10.82402617147195,28.160395,14.268917,-26.703806,-1.444673,0.3887457,-3.0,-1.875645,-0.16907366,-0.53732675,0.0,-0.027804933,-0.025823394,9.817067,-0.009714875,0.03841235,0.5746254,-0.0030484071,0.775660170163824,-4.971459865570068,47.74740982055664,-28.11549949645996
20.70122766494751,38.57549,14.233571,0.62936544,32.27330287343562,nan,nan,nan,nan,10.699180841445923,0.0005145072937011719,2.861573,1.9350483,-4.2081637,2.6912853275667317,0.48811042022068607,9.854565812852261,5.6954494,-29.474417,-26.048428,-1.4602509,0.33393684,-3.0,-1.8208483,-0.14368676,-0.5626007,0.0,-0.023886357,-0.026104365,9.816144,-0.008769485,0.040227275,0.52740467,-0.0025925448,0.7396509004572173,-31.872400283813477,41.977020263671875,-33.01513671875
20.80144953727722,38.901638,14.384305,0.17432939,29.377075827097233,nan,nan,nan,nan,10.79938292503357,0.0014963150024414062,2.7845316,2.270865,-2.8770492,-2.6984703687426754,-0.5909714504621089,9.381820792462705,-19.51784,20.341555,-25.515211,-1.4733584,0.27645326,-3.0,-1.7699678,-0.1178944,-0.5840764,0.0,-0.019775765,-0.026340935,9.815324,-0.0075584683,0.04177034,0.48970506,-0.0021285114,0.7214487235488425,-2.622215747833252,48.75206756591797,-29.031871795654297
20.90199375152588,39.204502,14.576281,-0.15107246,33.56097814875864,nan,nan,nan,nan,10.89992904663086,0.000514984130859375,2.5017667,2.6297774,-1.6796418,3.140226653800956,0.46844374873773686,9.221884688381133,40.03796,9.4744835,-24.744259,-1.4839021,0.21681592,-3.0,-1.7222563,-0.091804884,-0.601491,0.0,-0.015510456,-0.026531342,9.814635,-0.0061178464,0.04302222,0.4607458,-0.0016583478,0.7151872562122471,-35.766883850097656,42.15797805786133,-34.24060821533203
21.001551866531372,39.426846,14.779259,-0.3308211,37.886824650557216,nan,nan,nan,nan,10.999562740325928,0.0005347728729248047,2.3712933,3.0271564,-0.813505,2.6880148700618003,-1.0126091229330638,9.308722280208046,6.88691,-38.18608,-24.2817,-1.4917542,0.15620153,-3.0,-1.6774477,-0.06579121,-0.6145405,0.0,-0.011174688,-0.026673213,9.814104,-0.0045100492,0.043960694,0.4399714,-0.0011889151,0.7185936077303008,-33.259796142578125,51.13685607910156,-37.16192626953125
21.10115361213684,39.619553,15.045347,-0.4300478,35.52619082079513,nan,nan,nan,nan,11.099083662033081,0.0012753009796142578,2.1262362,3.4880784,0.34764388,-1.77347494708565,0.829481983738253,9.642082406226569,-32.817905,13.468548,-23.622458,-1.4970039,0.09457046,-3.0,-1.6343919,-0.039692864,-0.6233035,0.0,-0.006765767,-0.026768096,9.813741,-0.0027722549,0.04459107,0.4264577,-0.00071748556,0.7315249005506529,-11.043375968933105,39.86212158203125,-36.36306381225586
21.201157808303833,39.77339,15.391795,-0.41655332,38.85203465426979,nan,nan,nan,nan,11.199150800704956,0.0006296634674072266,1.7994337,3.9332247,1.5064577,1.4682287312877556,0.07610029367353954,10.113352132979804,31.84669,27.216652,-23.04054,-1.4996598,0.03193865,-3.0,-1.5921097,-0.013381465,-0.6277486,0.0,-0.0022849885,-0.026816105,9.813554,-0.0009433991,0.044910893,0.41973472,-0.00024191602,0.7494302363742137,-29.269847869873047,44.03035354614258,-39.013004302978516
21.301061630249023,39.86578,15.75966,-0.29430884,40.94644027347306,nan,nan,nan,nan,11.299010753631592,0.0005540847778320312,1.5743015,4.319153,2.675379,-0.7534070874959704,-0.9650213868082279,10.744954696837835,27.084333,-34.01346,-22.65611,-1.4996839,-0.030786702,-3.0,-1.5502532,0.012898622,-0.62778896,0.0,0.002202575,-0.02681654,9.813553,0.0009094355,0.044913795,0.41967404,0.00023318722,0.7727852149924574,-17.53136444091797,50.08853530883789,-40.065128326416016
21.402185916900635,39.922173,16.208786,-0.042319074,42.207691159217234,nan,nan,nan,nan,11.400237083435059,0.001956939697265625,1.193936,4.7447906,3.949123,-0.7261432657531518,1.134122989121006,11.51317979926246,-35.362507,-7.2325945,-21.984428,-1.4970307,-0.094148286,-3.0,-1.5074896,0.039514963,-0.62334836,0.0,0.006735565,-0.02676858,9.813739,0.0027600918,0.044594295,0.4263894,0.00071427086,0.8002853060867731,-19.996421813964844,36.871578216552734,-43.17227554321289
21.501611709594727,39.93427,16.674515,0.30581844,44.29067169092847,nan,nan,nan,nan,11.499634742736816,0.0009877681732177734,0.84374774,5.11302,5.156702,1.0987296890896392,-0.8064629409626141,12.380665045920786,4.9827127,39.579006,-21.46321,-1.4918067,-0.15570973,-3.0,-1.464497,0.06558176,-0.61462814,0.0,0.0111395065,-0.026674164,9.8141,0.0044965353,0.043966994,0.43983462,0.0011851331,0.8302573245410557,-29.817590713500977,48.04256820678711,-43.46656799316406
21.602235555648804,39.91162,17.228655,0.8032365,46.7230360077797,nan,nan,nan,nan,11.600036382675171,0.0009748935699462891,0.51401514,5.5003166,6.380317,-1.3210678596150487,-0.4009026552439927,13.337705479804455,46.287144,-8.902131,-21.01925,-1.483905,-0.21679679,-3.0,-1.419351,0.0917966,-0.6014958,0.0,0.015509088,-0.026531396,9.814634,0.0061173597,0.043022566,0.46073794,0.0016581983,0.8621293084377132,-18.014198303222656,45.08466720581055,-46.14302062988281
21.704489946365356,39.865543,17.780182,1.372035,45.15150610446561,nan,nan,nan,nan,11.702547073364258,0.0006918907165527344,0.11115558,5.792502,7.454526,-3.117017294938034,1.2250089675769567,14.355802642051156,-6.0490894,-40.468197,-20.357512,-1.4731301,-0.27758124,-3.0,-1.3706782,0.11839378,-0.5837008,0.0,0.019856434,-0.026336813,9.815339,0.0075840643,0.04174334,0.4903454,0.0021375036,0.8948030574617877,-10.182896614074707,34.596160888671875,-45.94330978393555
21.804973363876343,39.814373,18.273085,1.9277872,42.345919940138955,nan,nan,nan,nan,11.803377628326416,0.0006015300750732422,-0.2475426,6.2249126,8.079601,-2.6143421452610816,-0.334342466288686,15.46799906844276,-37.01891,3.8234394,-19.66341,-1.4598821,-0.33537647,-3.0,-1.3193926,0.14434265,-0.5619993,0.0,0.023989296,-0.02609771,9.816167,0.008797151,0.040184084,0.52849233,0.0026043332,0.9291984961111577,-13.150215148925781,43.37772750854492,-41.66596603393555
21.901230335235596,39.707813,19.012873,2.8339937,46.84029038773457,nan,nan,nan,nan,11.899190902709961,0.0007929801940917969,-0.5229327,6.659538,9.303938,3.072685283713199,0.630484268345679,16.649194842521126,17.422535,38.457302,-19.3188,-1.4448802,-0.38808614,-3.0,-1.2666522,0.1687626,-0.5376613,0.0,0.027757782,-0.02582713,9.817055,0.0097049195,0.038436368,0.57398015,0.0030428276,0.9643992427332558,-46.01716613769531,36.930564880371094,-47.027645111083984
22.00199604034424,39.741043,19.589289,3.3777478,48.39738946711772,nan,nan,nan,nan,11.999974966049194,0.0007538795471191406,3.7835042,7.2142544,2.9466405,-3.0494449943431414,0.09816313507251606,17.075305818263473,8.146503,-26.185556,-0.32709116,-1.4265894,-0.44082695,-3.0,-1.2059474,0.19415522,-0.50832766,0.0,0.03152771,-0.025497474,9.818069,0.010373919,0.036331244,0.63259953,0.0034978406,0.9767896033349833,-13.745132446289062,46.479557037353516,-47.8338623046875
22.102221727371216,39.937737,20.197695,3.492672,49.06370885785225,nan,nan,nan,nan,12.100199699401855,0.0009310245513916016,1.8890007,4.440902,1.1455659,-3.114644352640677,-0.004366339363559568,16.407887848559803,-0.03210664,0.3364859,-11.964258,-1.4058791,-0.49016073,-3.0,-1.1391306,0.2190637,-0.4755651,0.0,0.035053287,-0.02512453,9.819129,0.01072804,0.033981647,0.7027912,0.003943177,0.9573121867689682,-9.904754638671875,44.485740661621094,-48.278900146484375
22.202638387680054,40.02593,20.59398,3.5248158,49.993724710014305,nan,nan,nan,nan,12.200863122940063,0.0014202594757080078,1.0026616,3.351248,1.0872698,-3.137772266722612,-0.022611034031982724,15.762193673793263,-0.012876685,0.0060939677,-8.019188,-1.3825843,-0.5362341,-3.0,-1.0643162,0.24369276,-0.43928653,0.0,0.038345084,-0.024705412,9.820214,0.010759347,0.031381764,0.7857036,0.0043825074,0.9380879997518862,-8.562902450561523,43.33961868286133,-49.037235260009766
22.301645517349243,40.075268,20.843122,3.5251534,50.52001678701203,nan,nan,nan,nan,12.299672365188599,0.0011761188507080078,1.0654157,2.4341679,1.0314226,3.1314081907437865,-0.01810146965548398,15.297414506617965,-0.08261794,0.48707974,-4.1385107,-1.3573278,-0.57775426,-3.0,-0.9821795,0.26744732,-0.40063763,0.0,0.041310854,-0.024251418,9.821265,0.010471274,0.028614001,0.8785678,0.0048052873,0.9240052926666359,-41.57192611694336,43.313690185546875,-49.514102935791016
22.401041746139526,40.110123,20.996363,3.5011244,50.8884376115191,nan,nan,nan,nan,12.398954629898071,0.00045990943908691406,0.5420699,2.4885213,0.97660476,3.129730835935738,-0.006200791228869074,14.880890315715257,0.0066833626,-0.020688526,-3.8096232,-1.3296094,-0.615487,-3.0,-0.8899367,0.29085377,-0.35904142,0.0,0.04400547,-0.023753628,9.822277,0.009870088,0.025637254,0.9807779,0.005220988,0.9112017995213608,-41.76906967163086,42.45688247680664,-49.701045989990234
22.501351594924927,40.142002,21.17076,3.460714,51.102204967959,nan,nan,nan,nan,12.499343872070312,0.0006551742553710938,0.85655844,2.081018,0.93806076,3.1345451287726775,-0.00542166053648474,14.538768514338914,-0.0017556245,0.025642283,-0.50780565,-1.2992437,-0.6493133,-3.0,-0.7861105,0.31401002,-0.3144577,0.0,0.04642056,-0.023208804,9.823225,0.008959914,0.022448858,1.0875902,0.0056314413,0.9005506961932561,-41.337215423583984,42.88041687011719,-49.70412826538086
