time,x,y,z,yaw,platform,trajectory,controller,feedforward,traj_time,comp_time,vx,vy,vz,roll,pitch,f,p,q,r,x_ref,y_ref,z_ref,yaw_ref,vx_ref,vy_ref,vz_ref,roll_ref,pitch_ref,f_ref,u_ff_df,u_ff_dphi,u_ff_dpsi,u_ff_dth,throttle,p_cmd,q_cmd,r_cmd
10.060041904449463,0.018106744,0.062379126,-2.6461308,0.004905019002738313,SIM,spiral,contraction,0.0,0.05713987350463867,0.0010576248168945312,-2.6692956e-05,-0.0506188,-0.18098757,-0.013230492550135906,0.0016643396976416813,9.813228988647461,0.009234745,0.0013983672,-0.004816711,0.09570222,1.9977089,-3.0,0.0,1.6735967,-0.08017531,0.0,-0.14196104,0.0067778607,9.909915,6.901573e-11,0.0056211734,0.0,0.118529946,0.7380769725514875,1.18890380859375,-2.483856201171875,-0.011962890625
10.101269960403442,0.01964022,0.05721409,-2.6613944,0.00465239500884587,nan,nan,nan,nan,0.09803581237792969,0.0006263256072998047,-0.0024860648,-0.05040433,-0.17589408,-0.011827765879633962,0.00023496629681174497,9.819077072143555,0.08951501,-0.229756,4.4477172e-05,0.16407599,1.9932584,-3.0,0.0,1.6698682,-0.13745598,0.0,-0.141649,0.011620428,9.909915,-2.9031172e-10,0.009638039,0.0,0.11827116,0.7382998433830708,1.1030731201171875,-2.511871337890625,-0.00738525390625
10.202863216400146,0.020954452,0.05167401,-2.6801188,0.0054198621807234285,nan,nan,nan,nan,0.19983291625976562,0.0009953975677490234,0.020611377,-0.039588694,-0.24194095,0.015486549329059527,-0.07035629922066478,9.823263397216797,0.5246002,-1.5925457,0.01646823,0.33326152,1.9720387,-3.0,0.0,1.6520914,-0.27919254,0.0,-0.14016081,0.023604393,9.909915,2.711441e-10,0.019584484,0.0,0.11703679,0.7384593437388094,0.7713623046875,-2.12408447265625,0.0628662109375
10.301344156265259,0.029685866,0.04975119,-2.7040663,-0.0026900032541263205,nan,nan,nan,nan,0.2981293201446533,0.0010576248168945312,0.17890498,0.02003671,-0.2739019,0.08773165338170821,-0.2702973039051746,9.806748733520505,0.7328687,-1.9614618,0.027012166,0.4943433,1.9379435,-3.0,0.0,1.6235278,-0.4141401,0.0,-0.13776833,0.035017464,9.909915,4.4815325e-09,0.029070085,0.0,0.11505178,0.7378299320402907,0.1978607177734375,-0.730743408203125,0.258392333984375
10.401106357574463,0.064529166,0.058851812,-2.7286274,-0.012758334392609913,nan,nan,nan,nan,0.3978559970855713,0.0006504058837890625,0.5025358,0.14404804,-0.24290484,0.13807695494582511,-0.392443296941015,9.787030868530271,0.20954445,-0.549984,0.066109605,0.6543398,1.8899311,-3.0,0.0,1.583305,-0.54817843,0.0,-0.1343966,0.046358164,9.909915,4.8446065e-09,0.038514297,0.0,0.112253204,0.737077744463428,-0.4123687744140625,0.4776153564453125,0.387451171875
10.511434555053711,0.13933542,0.08599343,-2.7484548,-0.0010167152027150059,nan,nan,nan,nan,0.5084164142608643,0.0009057521820068359,0.8760753,0.28912583,-0.18717164,0.12311739745958866,-0.38431954619813125,9.77852973937988,-0.39192224,0.616091,0.13724157,0.8263357,1.8213098,-3.0,0.0,1.5258169,-0.69226944,0.0,-0.12957224,0.058556095,9.909915,-7.236427e-10,0.048700284,0.0,0.108246714,0.7367532137546353,-0.8175811767578125,1.031158447265625,0.380279541015625
10.600911855697632,0.26540336,0.13725719,-2.7638528,0.02865855707621138,nan,nan,nan,nan,0.5976221561431885,0.0010106563568115234,1.2252412,0.4107957,-0.15033033,0.04684437889109693,-0.2876411869026303,9.782417984008786,-0.8319382,1.1518743,0.22224475,0.96001416,1.7545292,-3.0,0.0,1.469871,-0.8042596,0.0,-0.124871485,0.06804248,9.909915,-1.502952e-09,0.056646734,0.0,0.104340434,0.7369016650387807,-0.88330078125,1.08746337890625,0.275421142578125
10.700767993927002,0.41189152,0.19803454,-2.7757635,0.05547857575952034,nan,nan,nan,nan,0.6974940299987793,0.0006492137908935547,1.4456161,0.4489416,-0.14849146,-0.04614121481699508,-0.17441607744168386,9.790477752685543,-0.9551265,1.1507636,0.27144337,1.1032834,1.6681623,-3.0,0.0,1.3975165,-0.9242846,0.0,-0.118783794,0.07821631,9.909915,1.7635836e-09,0.06519762,0.0,0.099278234,0.7372092891466446,-0.779632568359375,0.8955230712890625,0.159210205078125
10.80488133430481,0.5736621,0.26081458,-2.7885237,0.07658784287898973,nan,nan,nan,nan,0.8027729988098145,0.0006759166717529297,1.5625696,0.39965904,-0.16057353,-0.13529766522189085,-0.0717981048173093,9.796811599731438,-0.86279905,0.9374305,0.27652714,1.2459335,1.5644966,-3.0,0.0,1.3106697,-1.0437908,0.0,-0.11146511,0.08835423,9.909915,6.341293e-09,0.073752135,0.0,0.093187556,0.7374509496800511,-0.575775146484375,0.6539306640625,0.0577392578125
10.90087103843689,0.75263155,0.3187082,-2.8045847,0.09417683914473957,nan,nan,nan,nan,0.8976144790649414,0.0008559226989746094,1.5943787,0.25519508,-0.16990674,-0.2118511017171676,0.014151083814561094,9.800319137573235,-0.6176887,0.65549,0.23899874,1.3661779,1.4606704,-3.0,0.0,1.2236884,-1.1445266,0.0,-0.10412306,0.09690686,9.909915,-3.0161615e-10,0.080998525,0.0,0.0870724,0.7375847420799686,-0.2613677978515625,0.41973876953125,-0.02642822265625
11.001827001571655,0.9125872,0.3524446,-2.820604,0.10635799085099622,nan,nan,nan,nan,0.9987645149230957,0.0010769367218017578,1.5623063,0.056453586,-0.16673648,-0.2548302000078393,0.06847624386785633,9.802750396728507,-0.31655812,0.43501613,0.17966628,1.4849038,1.3397987,-3.0,0.0,1.1224271,-1.2439902,0.0,-0.09556149,0.10535845,9.909915,5.436228e-09,0.08818873,0.0,0.079935625,0.7376774665877803,-0.0537567138671875,0.301513671875,-0.073883056640625
11.101341962814331,1.0624924,0.3604273,-2.8365061,0.11354909720512213,nan,nan,nan,nan,1.0981121063232422,0.0007550716400146484,1.4914333,-0.17910747,-0.15462282,-0.2706235273037535,0.10503519846616727,9.806138992309563,-0.043375034,0.30031443,0.11267593,1.5911455,1.2117162,-3.0,0.0,1.015125,-1.3329949,0.0,-0.08647383,0.11292774,9.909915,1.9322262e-09,0.09465534,0.0,0.0723539,0.7378066832639271,0.178619384765625,0.2081451416015625,-0.109832763671875
11.219786643981934,1.2006696,0.33988518,-2.8511913,0.11473284388851014,nan,nan,nan,nan,1.2169601917266846,0.0012280941009521484,1.3928136,-0.42605516,-0.13906746,-0.2632175653387987,0.12994399025694814,9.811873245239248,0.19067408,0.21116434,0.047306094,1.7037116,1.0475528,-3.0,0.0,0.87759584,-1.4272982,0.0,-0.07480541,0.12095474,9.909915,2.5127393e-09,0.1015431,0.0,0.0626104,0.7380252956030999,0.2702178955078125,0.1885833740234375,-0.125732421875
11.301082611083984,1.3359756,0.28591952,-2.8653405,0.10957786152310214,nan,nan,nan,nan,1.297849416732788,0.0008792877197265625,1.260265,-0.68078655,-0.12407242,-0.23500117977505994,0.1486883298403261,9.817729797363272,0.3543147,0.16157368,-0.013128243,1.7707349,0.92978376,-3.0,0.0,0.7789338,-1.4834474,0.0,-0.06642182,0.12573777,9.909915,1.0501932e-08,0.10566299,0.0,0.05560451,0.7382485045411091,0.379180908203125,0.123626708984375,-0.1328125
11.401510953903198,1.4465611,0.2094923,-2.876995,0.10018283109708948,nan,nan,nan,nan,1.398228645324707,0.0006108283996582031,1.1171461,-0.8864559,-0.11503003,-0.19839060902973654,0.16126750048226057,9.82441535949706,0.4283491,0.1210342,-0.05539838,1.8425742,0.7777661,-3.0,0.0,0.65157986,-1.5436314,0.0,-0.055586535,0.13086775,9.909915,-3.947924e-09,0.11009541,0.0,0.046544086,0.7385032279156719,0.37060546875,0.094482421875,-0.13006591796875
11.501022338867188,1.5505863,0.10343508,-2.8885279,0.08733885166442246,nan,nan,nan,nan,1.497818946838379,0.0007791519165039062,0.945378,-1.0662796,-0.11121134,-0.1550702266636925,0.17039960743833382,9.830089111328117,0.43308258,0.080287546,-0.08791019,1.9009807,0.6215083,-3.0,0.0,0.5206736,-1.592562,0.0,-0.044435404,0.13504106,9.909915,-3.5889958e-10,0.11371212,0.0,0.037213866,0.738719332815061,0.3328399658203125,0.0508575439453125,-0.121673583984375
11.60130524635315,1.6316258,-0.010103209,-2.8989098,0.07494012317986662,nan,nan,nan,nan,1.598193645477295,0.0007908344268798828,0.7776889,-1.1899064,-0.11220066,-0.11709759326274816,0.17458489093244767,9.833823928833002,0.39390913,0.03597766,-0.10484478,1.9464645,0.45964754,-3.0,0.0,0.38507342,-1.6306664,0.0,-0.032872796,0.13829263,9.909915,-2.137067e-10,0.11653701,0.0,0.02753449,0.7388615525081736,0.2647857666015625,0.034271240234375,-0.1099853515625
11.700770139694214,1.7025781,-0.14479788,-2.9100583,0.06199058054269545,nan,nan,nan,nan,1.697484016418457,0.0007717609405517578,0.59207714,-1.2815787,-0.116499685,-0.08207224280825769,0.17592256241758664,9.835187835693356,0.32239607,0.016999735,-0.11400858,1.9779245,0.29633555,-3.0,0.0,0.24825749,-1.6570221,0.0,-0.02119761,0.14054249,9.909915,1.460441e-09,0.11849535,0.0,0.01775714,0.7389134825612059,0.2047119140625,0.0085601806640625,-0.096160888671875
11.801432847976685,1.7519146,-0.2757972,-2.9209502,0.050730122130779286,nan,nan,nan,nan,1.7992653846740723,0.0015034675598144531,0.42071995,-1.3338052,-0.122325756,-0.056504486624821264,0.175429154021973,9.83407432556152,0.25566185,-0.0046176715,-0.115843214,1.9959759,0.12680927,-3.0,0.0,0.10623549,-1.6721449,0.0,-0.009072089,0.14183377,9.909915,1.0924919e-09,0.1196207,0.0,0.0076001114,0.7388710865048459,0.14825439453125,0.0081634521484375,-0.0831298828125
11.903997898101807,1.7879758,-0.42165,-2.9340563,0.03968011637872047,nan,nan,nan,nan,1.9011812210083008,0.0012135505676269531,0.2378747,-1.3634057,-0.1299562,-0.03563478573982409,0.1737167440834928,9.830625457763666,0.19195732,-0.01259123,-0.109476075,1.999519,-0.04386392,-3.0,0.0,-0.03674735,-1.6751132,0.0,0.0031381536,0.14208727,9.909915,5.7626067e-11,0.11984174,0.0,-0.002629009,0.7387397582386435,0.1162872314453125,-0.0052490234375,-0.07025146484375
12.003464460372925,1.8051027,-0.5576244,-2.9471092,0.03059987065858019,nan,nan,nan,nan,2.000392436981201,0.0007283687591552734,0.07244119,-1.3718851,-0.13785234,-0.02123543110183187,0.17223870667645635,9.825026702880853,0.15179984,-0.015703041,-0.101341814,1.9889749,-0.20971121,-3.0,0.0,-0.17568725,-1.6662798,0.0,0.01500228,0.14133294,9.909915,-1.8018429e-09,0.11918412,0.0,-0.012567811,0.7385265160891136,0.098419189453125,-0.0114898681640625,-0.060089111328125
12.102370023727417,1.8068866,-0.69359815,-2.9609609,0.022610389693221752,nan,nan,nan,nan,2.099457025527954,0.0011696815490722656,-0.08952289,-1.3664081,-0.14555436,-0.009586477308386396,0.17022905397750443,9.817665023803707,0.1299422,-0.022227883,-0.09169368,1.9647447,-0.37386936,-3.0,0.0,-0.31321207,-1.6459807,0.0,0.026741423,0.13959984,9.909915,-3.459713e-10,0.11767449,0.0,-0.022400174,0.7382460362108525,0.0927734375,-0.018951416015625,-0.051300048828125
12.20097541809082,1.7940563,-0.82908535,-2.97563,0.015827370776189707,nan,nan,nan,nan,2.1977121829986572,0.0006961822509765625,-0.24673226,-1.350464,-0.15341568,0.0007591392398336901,0.16725562496534807,9.808849334716792,0.11913875,-0.03204641,-0.08042527,1.9273523,-0.53414696,-3.0,0.0,-0.44748592,-1.6146549,0.0,0.038195983,0.13692613,9.909915,1.8348544e-09,0.11534909,0.0,-0.03199121,0.7379100201704366,0.0966339111328125,-0.025726318359375,-0.043914794921875
12.301076650619507,1.7640154,-0.97495055,-2.9923458,0.009903337273201734,nan,nan,nan,nan,2.297858715057373,0.0009920597076416016,-0.41111892,-1.3227725,-0.16152474,0.011784899609483132,0.16278122370842696,9.798771667480464,0.12222694,-0.050349697,-0.070989795,1.8758115,-0.69378054,-3.0,0.0,-0.58122027,-1.5714762,0.0,0.04959456,0.13324237,9.909915,-5.9455907e-10,0.112152085,0.0,-0.04153121,0.7375257179459183,0.1080474853515625,-0.0436248779296875,-0.037078857421875
12.401693105697632,1.7222593,-1.1080601,-3.0085204,0.0057706534348896475,nan,nan,nan,nan,2.398477792739868,0.0009298324584960938,-0.5558544,-1.2883215,-0.16833733,0.022543393219507435,0.1577282587237634,9.787777175903313,0.1280952,-0.05511469,-0.060456917,1.8107383,-0.8492507,-3.0,0.0,-0.7114666,-1.5169606,0.0,0.06068349,0.12859397,9.909915,-2.2983206e-09,0.10812902,0.0,-0.050806887,0.7371062280253925,0.117156982421875,-0.0385894775390625,-0.032073974609375
12.503799438476562,1.6625597,-1.2498473,-3.026612,0.002739370303758329,nan,nan,nan,nan,2.5013480186462402,0.0016121864318847656,-0.70470035,-1.2408199,-0.17574243,0.034986272852330615,0.15219440247132732,9.776027450561516,0.13606139,-0.05988781,-0.05101359,1.7309203,-1.0019556,-3.0,0.0,-0.8393964,-1.4500924,0.0,0.07156067,0.12289611,9.909915,6.072217e-09,0.103213854,0.0,-0.059899386,0.7366576619782752,0.1258697509765625,-0.049713134765625,-0.029052734375
12.600938320159912,1.5949038,-1.3775359,-3.0438156,0.0010082407080844943,nan,nan,nan,nan,2.597723960876465,0.0009572505950927734,-0.83437186,-1.187753,-0.18141472,0.04723910074927847,0.1460096885965927,9.763857498168937,0.14100131,-0.07057631,-0.043018784,1.6444716,-1.1382939,-3.0,0.0,-0.9536149,-1.3776693,0.0,0.081257835,0.116729446,9.909915,-8.780867e-10,0.09791348,0.0,-0.06799952,0.7361927687488435,0.131622314453125,-0.05303955078125,-0.02703857421875
12.701036214828491,1.515587,-1.5016522,-3.0615237,0.0002763411616153455,nan,nan,nan,nan,2.6978116035461426,0.003146648406982422,-0.95638746,-1.1252455,-0.18681315,0.06000117436617399,0.13930701467746842,9.751460571289053,0.14362407,-0.07075238,-0.037534427,1.543361,-1.2720208,-3.0,0.0,-1.0656457,-1.292963,0.0,0.09075441,0.10952251,9.909915,-5.3448055e-09,0.09174288,0.0,-0.07592592,0.7357189070942016,0.136505126953125,-0.04852294921875,-0.0262451171875
12.802798748016357,1.416569,-1.6307482,-3.0813696,0.0002050064646015523,nan,nan,nan,nan,2.7998194694519043,0.0008783340454101562,-1.0797967,-1.0464804,-0.19178446,0.07396292479533967,0.1316174819042406,9.74009933471679,0.1424201,-0.07585273,-0.033596877,1.4291567,-1.3991109,-3.0,0.0,-1.1721164,-1.1972876,0.0,0.099764526,0.10138916,9.909915,-5.966434e-09,0.08480803,0.0,-0.08343997,0.7352843692103019,0.1360321044921875,-0.0604705810546875,-0.026275634765625
12.901041269302368,1.3219411,-1.7338663,-3.098753,0.000335495345825082,nan,nan,nan,nan,2.897780418395996,0.000568389892578125,-1.1780521,-0.9698574,-0.19516821,0.08582410708013195,0.12505082702193793,9.727415618896478,0.14155257,-0.081012756,-0.030150203,1.3096539,-1.5115577,-3.0,0.0,-1.2663196,-1.0971731,0.0,0.107723005,0.092885636,9.909915,-2.5234392e-09,0.07758788,0.0,-0.09007138,0.7347989504132587,0.138702392578125,-0.0527801513671875,-0.02783203125
13.001025438308716,1.1974102,-1.8464712,-3.1194615,0.00018082789984173037,nan,nan,nan,nan,2.9977610111236572,0.0007679462432861328,-1.2869096,-0.8670336,-0.19825849,0.09938074960860199,0.1163876251349123,9.71498817443847,0.13529977,-0.09160657,-0.028151926,1.1786032,-1.6158262,-3.0,0.0,-1.3536714,-0.9873843,0.0,0.115090474,0.08356809,9.909915,3.1092053e-09,0.06970905,0.0,-0.096205264,0.7343230323421488,0.1233978271484375,-0.0814208984375,-0.028045654296875
13.110982418060303,1.0715905,-1.9397187,-3.1389635,-0.0005356764012161078,nan,nan,nan,nan,3.107776403427124,0.0006594657897949219,-1.3786905,-0.7601086,-0.19947702,0.11102292145963871,0.10741458811498394,9.702141265869137,0.123580076,-0.09897888,-0.02569914,1.0248866,-1.7174422,-3.0,0.0,-1.438801,-0.858607,0.0,0.122258455,0.07264826,9.909915,-5.345834e-09,0.06051387,0.0,-0.10216806,0.733830730493946,0.1216278076171875,-0.0745849609375,-0.02862548828125
13.201077938079834,0.9245728,-2.0282323,-3.1602862,-0.0019577037958338137,nan,nan,nan,nan,3.1978065967559814,0.0007002353668212891,-1.4679,-0.6332492,-0.19950195,0.12214330815166013,0.09666531516117582,9.69214645385742,0.101859376,-0.119937845,-0.02834105,0.8925602,-1.7897867,-3.0,0.0,-1.4994082,-0.7477495,0.0,0.127354,0.063254945,9.909915,-9.430653e-09,0.052633394,0.0,-0.10640367,0.7334474973611202,0.0822296142578125,-0.1229400634765625,-0.0264892578125
13.302316904067993,0.79172385,-2.0921159,-3.178328,-0.0037847247656156574,nan,nan,nan,nan,3.2992806434631348,0.0012524127960205078,-1.5338303,-0.5182646,-0.19843979,0.12935008266977038,0.08543394518363301,9.68169967651367,0.076755404,-0.14116551,-0.027521623,0.737369,-1.8591092,-3.0,0.0,-1.5574837,-0.6177368,0.0,0.13223045,0.052245602,9.909915,-3.4864907e-09,0.043426603,0.0,-0.110454604,0.7330467231635525,0.0864105224609375,-0.110321044921875,-0.0240478515625
13.40093207359314,0.61300063,-2.1576028,-3.2006,-0.006523184438792615,nan,nan,nan,nan,3.3976669311523438,0.0008573532104492188,-1.6032789,-0.36480832,-0.19613454,0.13635481297204205,0.07000554323746311,9.672005767822263,0.055060796,-0.15281636,-0.024912326,0.58180404,-1.9135057,-3.0,0.0,-1.6030548,-0.48741102,0.0,0.13605255,0.04121611,9.909915,-5.376644e-09,0.03422943,0.0,-0.11362782,0.732674638134098,0.048828125,-0.141998291015625,-0.017852783203125
13.501129150390625,0.45231098,-2.1993575,-3.2189775,-0.009036801658585544,nan,nan,nan,nan,3.4978432655334473,0.0008931159973144531,-1.6494617,-0.22939156,-0.19298594,0.14018231399103892,0.05551011112057047,9.663217315673824,0.035842802,-0.15985492,-0.024113009,0.41935658,-1.9555409,-3.0,0.0,-1.6382701,-0.35131937,0.0,0.13900335,0.029703982,9.909915,-3.1427697e-10,0.024651976,0.0,-0.11607653,0.7323371464065389,0.0466156005859375,-0.1380615234375,-0.012603759765625
13.606626510620117,0.2724767,-2.2287774,-3.2380981,-0.011570811091796418,nan,nan,nan,nan,3.6040453910827637,0.0013201236724853516,-1.6842402,-0.08010731,-0.18900132,0.1427469997142054,0.0396024295662214,9.655313186645504,0.01957445,-0.16118881,-0.02192811,0.2439397,-1.9850676,-3.0,0.0,-1.6630064,-0.20436245,0.0,0.14107463,0.017277122,9.909915,-4.228624e-10,0.014331681,0.0,-0.11779477,0.7320334831058772,0.0422821044921875,-0.13616943359375,-0.007171630859375
13.700795412063599,0.1035732,-2.2413132,-3.2549024,-0.013711918585039354,nan,nan,nan,nan,3.6975393295288086,0.0007746219635009766,-1.7014333,0.058472056,-0.18489613,0.14445133376300628,0.02528789841240142,9.64832214355468,0.022846818,-0.15182967,-0.01805761,0.087869786,-1.9980688,-3.0,0.0,-1.6738982,-0.07361362,0.0,0.14198627,0.006223141,9.909915,-4.7217664e-11,0.0051610894,0.0,-0.11855088,0.7317647954243603,0.02783203125,-0.138580322265625,-0.00238037109375
13.804062843322754,-0.08081409,-2.2397764,-3.2723732,-0.015587636342321978,nan,nan,nan,nan,3.801213026046753,0.0012059211730957031,-1.7049512,0.20859839,-0.18005097,0.14595329538835944,0.010172069401060524,9.642217941284173,0.012477628,-0.14995757,-0.013241566,-0.0857826,-1.9981595,-3.0,0.0,-1.6739743,0.07186507,0.0,0.14199263,-0.0060753208,9.909915,2.6852616e-11,-0.005038488,0.0,-0.11855615,0.7315301121980283,0.012847900390625,-0.137481689453125,0.001922607421875
13.9026780128479,-0.2372345,-2.2260945,-3.2868757,-0.01670241907562124,nan,nan,nan,nan,3.899777412414551,0.0012140274047851562,-1.6965134,0.33499694,-0.17555599,0.14631914382516326,-0.0024273012186177834,9.636950836181633,-0.001461039,-0.14913152,-0.008630062,-0.25029728,-1.984276,-3.0,0.0,-1.6623433,0.20968856,0.0,0.14101912,-0.017727448,9.909915,1.3268281e-10,-0.014705425,0.0,-0.11774873,0.7313275524453835,0.0231475830078125,-0.1280975341796875,0.0042724609375
14.001194477081299,-0.4217288,-2.1949866,-3.3034105,-0.01739388277664658,nan,nan,nan,nan,3.9979617595672607,0.0008575916290283203,-1.673949,0.4825546,-0.16956867,0.1456274178114417,-0.017077088289995546,9.63252067565917,-0.007922124,-0.14191255,-0.003435208,-0.41248295,-1.9570023,-3.0,0.0,-1.6394944,0.3455609,0.0,0.1391059,-0.029216964,9.909915,2.489178e-09,-0.024247209,0.0,-0.11616162,0.7311571366343566,-0.00286865234375,-0.132080078125,0.007049560546875
14.100918531417847,-0.5907511,-2.1518984,-3.3177264,-0.017476040875639268,nan,nan,nan,nan,4.097620010375977,0.0007848739624023438,-1.6417501,0.61657876,-0.16313984,0.14446734525331695,-0.03013464685822509,9.629003295898428,-0.013713938,-0.13896985,0.0002574583,-0.5742454,-1.9157876,-3.0,0.0,-1.6049665,0.4810787,0.0,0.1362128,-0.040680345,9.909915,1.1977068e-09,-0.033783253,0.0,-0.11376082,0.7310218050203487,-0.0111236572265625,-0.13323974609375,0.008636474609375
14.211640119552612,-0.7844522,-2.0843415,-3.333339,-0.01709257394337242,nan,nan,nan,nan,4.208739995956421,0.0009531974792480469,-1.5904392,0.76974684,-0.15519081,0.14104176627399662,-0.045619144627272235,9.626394042968741,-0.04247385,-0.14416467,0.0030463592,-0.7498459,-1.8541119,-3.0,0.0,-1.5532972,0.62818944,0.0,0.13187914,-0.05313047,9.909915,8.705607e-10,-0.044165537,0.0,-0.11016283,0.7309213977269261,-0.0291290283203125,-0.133697509765625,0.0106201171875
14.301557302474976,-0.9325639,-2.018229,-3.3451054,-0.016546490869492114,nan,nan,nan,nan,4.298310279846191,0.0006299018859863281,-1.5390501,0.88624054,-0.14899217,0.13680023127130042,-0.05779519861904747,9.624929122924799,-0.053494748,-0.13977924,0.0050851856,-0.88673407,-1.7926803,-3.0,0.0,-1.5018324,0.7428686,0.0,0.12755768,-0.0628415,9.909915,1.6397596e-09,-0.052287098,0.0,-0.106572926,0.730865019819591,-0.03564453125,-0.1303558349609375,0.012115478515625
14.40143084526062,-1.1011995,-1.9254602,-3.3585632,-0.015740068259014833,nan,nan,nan,nan,4.398382663726807,0.0008718967437744141,-1.4658998,1.0186081,-0.14174002,0.1308834479360886,-0.07187054265614679,9.623715591430656,-0.064246304,-0.13377292,0.0072653396,-1.0337358,-1.7121303,-3.0,0.0,-1.434351,0.86602044,0.0,0.12188406,-0.07327664,9.909915,-8.9910523e-10,-0.061041966,0.0,-0.10185673,0.7308183134301877,-0.0579986572265625,-0.1218719482421875,0.0142822265625
14.502267599105835,-1.2494682,-1.8265346,-3.3708642,-0.01471292545593001,nan,nan,nan,nan,4.4992148876190186,0.0010180473327636719,-1.3870766,1.1345477,-0.13489896,0.12357683623614316,-0.08408514470207451,9.623078155517572,-0.08410427,-0.1242455,0.010788155,-1.1745069,-1.6188062,-3.0,0.0,-1.356168,0.98395264,0.0,0.11530085,-0.08327698,9.909915,1.2938342e-09,-0.06946338,0.0,-0.09638034,0.7307937786227436,-0.055572509765625,-0.1152191162109375,0.015045166015625
14.601248264312744,-1.3782573,-1.7253383,-3.38194,-0.013550677286974726,nan,nan,nan,nan,4.598082065582275,0.0008580684661865234,-1.3061785,1.23385,-0.12867719,0.11586867944794915,-0.09448690165812756,9.622882461547842,-0.093385264,-0.11496677,0.01198576,-1.3044075,-1.5160875,-3.0,0.0,-1.2701145,1.0927778,0.0,0.10804333,-0.09251247,9.909915,4.949093e-09,-0.07727171,0.0,-0.09033818,0.7307862462297832,-0.03704833984375,-0.114501953125,0.0150146484375
14.701127767562866,-1.5200336,-1.5935707,-3.3944688,-0.011952658216066746,nan,nan,nan,nan,4.697900772094727,0.0007429122924804688,-1.1998745,1.342066,-0.12157969,0.10652490026642297,-0.10595400337191574,9.623084869384755,-0.09067809,-0.1071615,0.013914151,-1.4264827,-1.4018371,-3.0,0.0,-1.1744003,1.1950474,0.0,0.09995763,-0.1011988,9.909915,4.728702e-09,-0.084646076,0.0,-0.08360093,0.7307940370426637,-0.0550689697265625,-0.102294921875,0.0155029296875
14.801172494888306,-1.6403773,-1.461635,-3.4052157,-0.01027959866092585,nan,nan,nan,nan,4.797917604446411,0.0007143020629882812,-1.0929137,1.4329855,-0.1152763,0.09784571002187442,-0.11567267317743934,9.623572006225576,-0.09533543,-0.094886795,0.014877854,-1.5388001,-1.2775344,-3.0,0.0,-1.0702647,1.2891423,0.0,0.09114563,-0.10919757,9.909915,3.0351535e-09,-0.09146525,0.0,-0.0762523,0.7308127869292633,-0.0577239990234375,-0.095855712890625,0.015350341796875
14.912807703018188,-1.7588006,-1.3091737,-3.4161503,-0.008191990970758942,nan,nan,nan,nan,4.910366535186768,0.0013580322265625,-0.9688891,1.5210234,-0.108159065,0.08791867959693353,-0.12507862846546614,9.62446159362792,-0.097886965,-0.085140236,0.016566085,-1.6521497,-1.1271209,-3.0,0.0,-0.9442546,1.3841017,0.0,0.0804637,-0.11727697,9.909915,7.4175963e-09,-0.0983833,0.0,-0.0673364,0.7308470259048429,-0.0532073974609375,-0.0958709716796875,0.014373779296875
15.000959634780884,-1.8561188,-1.1604602,-3.425323,-0.006103076657483955,nan,nan,nan,nan,4.997686862945557,0.00072479248046875,-0.8472988,1.5925097,-0.1013722,0.07806084614291682,-0.13281894115781934,9.62556465148925,-0.10583758,-0.07756447,0.017888801,-1.7301103,-1.0033536,-3.0,0.0,-0.8405676,1.4494139,0.0,0.07166018,-0.12283832,9.909915,-2.2912898e-09,-0.103164084,0.0,-0.059982523,0.7308894788625826,-0.080352783203125,-0.0762176513671875,0.014007568359375
15.100924730300903,-1.9487158,-0.9916799,-3.4342377,-0.003570880428271757,nan,nan,nan,nan,5.097686767578125,0.0010759830474853516,-0.71065986,1.6589534,-0.094111875,0.06631929774857026,-0.14008410809207095,9.627056045532218,-0.11232145,-0.06847159,0.018259011,-1.8080008,-0.85506326,-3.0,0.0,-0.71633613,1.5146673,0.0,0.0610978,-0.12839848,9.909915,-4.225926e-09,-0.1079601,0.0,-0.051153332,0.7309468736959135,-0.0953521728515625,-0.06280517578125,0.0126953125
15.200923681259155,-2.0212357,-0.82939386,-3.4420598,-0.0011064822063439998,nan,nan,nan,nan,5.197621583938599,0.0007531642913818359,-0.579615,1.7093518,-0.08773644,0.054889308502319226,-0.14582038102254002,9.629044342041004,-0.123298615,-0.051200174,0.01764297,-1.8731714,-0.7008772,-3.0,0.0,-0.58716553,1.5692645,0.0,0.050101016,-0.13305372,9.909915,4.88398e-09,-0.1119886,0.0,-0.04195497,0.731023384418201,-0.094268798828125,-0.0608062744140625,0.01129150390625
15.301470518112183,-2.0804813,-0.661291,-3.4493303,0.001462439022564873,nan,nan,nan,nan,5.29829740524292,0.0008032321929931641,-0.44527423,1.7498541,-0.081054255,0.04260624547348377,-0.15023164954019608,9.631366348266589,-0.12852688,-0.04336423,0.015951918,-1.9255562,-0.54058605,-3.0,0.0,-0.45288032,1.6131502,0.0,0.038655974,-0.13679773,9.909915,-1.4169985e-09,-0.11523753,0.0,-0.03237629,0.7311127264718178,-0.0923309326171875,-0.063812255859375,0.009185791015625
15.40080976486206,-2.129325,-0.47351632,-3.4567676,0.004259813873647567,nan,nan,nan,nan,5.3975670337677,0.0008630752563476562,-0.29653078,1.7823225,-0.07443717,0.029184388325151044,-0.15467705497601325,9.633923645019516,-0.13135593,-0.036987357,0.015287873,-1.9638066,-0.3787658,-3.0,0.0,-0.3173141,1.6451949,0.0,0.027091475,-0.13953276,9.909915,1.6786792e-09,-0.117616095,0.0,-0.022693327,0.7312111091577173,-0.1078948974609375,-0.0450439453125,0.00775146484375
15.50129246711731,-2.1622183,-0.28164893,-3.463762,0.007000615462831958,nan,nan,nan,nan,5.498091459274292,0.0009739398956298828,-0.14521758,1.8022639,-0.06845519,0.015378864341323673,-0.15804263959782028,9.636596984863264,-0.13417365,-0.032256592,0.013327659,-1.9887072,-0.21223561,-3.0,0.0,-0.1778021,1.6660554,0.0,0.0151828425,-0.14131379,9.909915,-3.193985e-10,-0.119167425,0.0,-0.012719059,0.7313139422203104,-0.1207427978515625,-0.026214599609375,0.0064697265625
15.601957559585571,-2.178159,-0.10218357,-3.4698153,0.009401125590667716,nan,nan,nan,nan,5.598740816116333,0.0011119842529296875,-0.003387777,1.8089749,-0.06322506,0.002314241945206464,-0.16054192207654694,9.639225921630842,-0.13531563,-0.023240492,0.0121914,-1.9995161,-0.04399324,-3.0,0.0,-0.03685569,1.6751108,0.0,0.0031474053,-0.14208704,9.909915,-1.843113e-10,-0.11984156,0.0,-0.00263676,0.7314150533585967,-0.1220245361328125,-0.0198211669921875,0.005462646484375
15.703429460525513,-2.1805427,0.06314886,-3.4748392,0.01146293031624906,nan,nan,nan,nan,5.7008044719696045,0.0014297962188720703,0.12711628,1.8046806,-0.058527485,-0.009897668064210911,-0.16186636572862634,9.641840362548809,-0.14065252,-0.01064338,0.01089837,-1.9959682,0.12692787,-3.0,0.0,0.10633484,1.6721385,0.0,-0.009080573,-0.14183323,9.909915,4.30711e-10,-0.11962023,0.0,0.007607219,0.7315155933007816,-0.1137542724609375,-0.03466796875,0.0047607421875
15.812381267547607,-2.1681821,0.257755,-3.47993,0.013680833253783956,nan,nan,nan,nan,5.809816360473633,0.0011417865753173828,0.28144413,1.7865465,-0.05282167,-0.024491493860002454,-0.16254541731180328,9.644797744750953,-0.13797939,-0.006718963,0.008800663,-1.9760749,0.30842802,-3.0,0.0,0.25838807,1.6554728,0.0,-0.022062339,-0.14041021,9.909915,1.5566108e-09,-0.11838014,0.0,0.018481404,0.7316293048332511,-0.1148681640625,-0.026275634765625,0.0042724609375
15.90285062789917,-2.139272,0.44966912,-3.4841871,0.015539042163893794,nan,nan,nan,nan,5.900250673294067,0.0014753341674804688,0.43494043,1.7538605,-0.047276586,-0.03896411378692788,-0.16151850598969797,9.6473555755615,-0.14023153,0.022443885,0.007782569,-1.9470618,0.4571111,-3.0,0.0,0.3829485,1.6311667,0.0,-0.032691523,-0.13833532,9.909915,8.8720664e-10,-0.116574176,0.0,0.027382711,0.7317276395304984,-0.1243896484375,0.022003173828125,0.00347900390625
16.00067710876465,-2.0975702,0.62353146,-3.4871564,0.016930004148487977,nan,nan,nan,nan,5.997353792190552,0.0005559921264648438,0.573902,1.7111771,-0.04169164,-0.052363530780531305,-0.15830363001096437,9.650451583862282,-0.13786094,0.03728703,0.0065263053,-1.9034784,0.6138161,-3.0,0.0,0.51422936,1.5946543,0.0,-0.04388615,-0.13521956,9.909915,-5.269894e-09,-0.113867044,0.0,0.03675418,0.731846646791191,-0.1206207275390625,0.0307464599609375,0.001983642578125
16.1158504486084,-2.0420098,0.79341686,-3.4895225,0.01812380476895772,nan,nan,nan,nan,6.1132800579071045,0.0015041828155517578,0.7081557,1.6576029,-0.036393594,-0.06521506521583247,-0.15387153114498986,9.6542110443115,-0.13148311,0.054029267,0.0053240303,-1.8349891,0.79549676,-3.0,0.0,0.6664338,1.5372769,0.0,-0.056851033,-0.13032596,9.909915,-4.2312687e-09,-0.10962657,0.0,0.04760176,0.7319911307844674,-0.114959716796875,-0.0057220458984375,0.000885009765625
16.205796003341675,-1.9668617,0.9718225,-3.4916222,0.019292185413869938,nan,nan,nan,nan,6.202866315841675,0.0008876323699951172,0.84754044,1.587867,-0.03168557,-0.07857038705371418,-0.1485357377953085,9.657431869506812,-0.12603322,0.0490029,0.004038308,-1.7701765,0.9308465,-3.0,0.0,0.7798242,1.4829797,0.0,-0.06649752,-0.12569793,9.909915,4.1413024e-09,-0.10562861,0.0,0.055667788,0.7321148915158487,-0.1154937744140625,0.0383453369140625,-0.00042724609375
16.301408290863037,-1.8919578,1.1169413,-3.4931152,0.020188567704484864,nan,nan,nan,nan,6.29809308052063,0.0005216598510742188,0.960383,1.5193157,-0.027688364,-0.08937453477597569,-0.14389056460293403,9.660990142822243,-0.121911384,0.06670193,0.0041950694,-1.6903653,1.0689552,-3.0,0.0,0.8955258,1.4161172,0.0,-0.076327875,-0.12000263,9.909915,3.0140757e-09,-0.100724414,0.0,0.06388222,0.732251594754339,-0.114349365234375,0.035614013671875,-0.000518798828125
16.400922775268555,-1.7907846,1.2801297,-3.4944556,0.02093296686894925,nan,nan,nan,nan,6.397671699523926,0.0007567405700683594,1.0865512,1.4276329,-0.023303455,-0.10159001767749978,-0.13705701314759944,9.664493865966774,-0.11722785,0.0661598,0.0016274597,-1.5954145,1.2060897,-3.0,0.0,1.0104114,1.3365713,0.0,-0.086074285,-0.11323203,9.909915,-1.7121244e-09,-0.09491585,0.0,0.07202042,0.7323861776647811,-0.1092376708984375,0.0579376220703125,-0.001068115234375
16.501172065734863,-1.6855091,1.4216092,-3.4953043,0.021294211782451028,nan,nan,nan,nan,6.498017311096191,0.0006296634674072266,1.1956393,1.3328047,-0.019203227,-0.11234151361066225,-0.13018477821194607,9.668057785034158,-0.109877184,0.07644012,0.0008590031,-1.48851,1.3357911,-3.0,0.0,1.1190698,1.2470113,0.0,-0.095277384,-0.10561529,9.909915,-1.0328939e-08,-0.08840772,0.0,0.07969869,0.7325230477593844,-0.1044158935546875,0.061492919921875,-0.000762939453125
16.600809812545776,-1.568783,1.5533463,-3.4960701,0.021214895625680595,nan,nan,nan,nan,6.59750771522522,0.0005645751953125,1.2978011,1.2289128,-0.015059319,-0.12214996255563026,-0.12204853543424599,9.67169998168943,-0.100070454,0.091928944,3.3399177e-05,-1.372135,1.4550757,-3.0,0.0,1.2190014,1.1495172,0.0,-0.10372711,-0.09733074,9.909915,-5.5529084e-09,-0.081358425,0.0,0.08674248,0.7326628979942553,-0.100189208984375,0.066070556640625,-0.000396728515625
16.700824737548828,-1.4303447,1.6844797,-3.4970958,0.020826880403061458,nan,nan,nan,nan,6.697566509246826,0.0007185935974121094,1.399098,1.1078839,-0.011954446,-0.13178227301264192,-0.11219185503908191,9.67492988586424,-0.092779316,0.09061491,0.0002273072,-1.2454872,1.5648519,-3.0,0.0,1.3109673,1.043417,0.0,-0.11149022,-0.088322505,9.909915,-3.428216e-09,-0.0737253,0.0,0.093208455,0.7327868953145936,-0.09002685546875,0.08636474609375,-0.00048828125
16.801098823547363,-1.2806466,1.8023188,-3.4985106,0.02023611944039401,nan,nan,nan,nan,6.797799348831177,0.0007948875427246094,1.4902812,0.9784209,-0.009661079,-0.14060582430608404,-0.10199063409107167,9.6781938934326,-0.0808593,0.10578448,-0.0016010818,-1.1098517,1.6637996,-3.0,0.0,1.3938615,0.9297872,0.0,-0.11847605,-0.07868292,9.909915,3.8176262e-10,-0.06559058,0.0,0.09902223,0.7329121808529568,-0.0759124755859375,0.109375,3.0517578125e-05
16.90110182762146,-1.1463451,1.8908485,-3.4999878,0.01949507395226388,nan,nan,nan,nan,6.8978211879730225,0.0007479190826416016,1.55846,0.86288905,-0.007940395,-0.14718909144843592,-0.09243379223015014,9.681049041748029,-0.075961955,0.11124493,-0.0010226992,-0.96670324,1.7508526,-3.0,0.0,1.4667909,0.80986345,0.0,-0.12461251,-0.06851733,9.909915,-5.3150917e-10,-0.05704514,0.0,0.10412515,0.7330217554321979,-0.08135986328125,0.0970001220703125,0.000823974609375
17.001907110214233,-0.992644,1.9751483,-3.502239,0.01848767823982468,nan,nan,nan,nan,6.998916387557983,0.0014531612396240234,1.6230433,0.7313466,-0.006307009,-0.15374780051697567,-0.0815348226802004,9.683492736816389,-0.0700397,0.115085654,-4.733156e-06,-0.8151306,1.8263521,-3.0,0.0,1.5300412,0.68288225,0.0,-0.12992695,-0.057761177,9.909915,-3.821396e-09,-0.04803546,0.0,0.10854137,0.733115526470074,-0.076629638671875,0.100433349609375,0.00201416015625
17.10105299949646,-0.8184977,2.051116,-3.5050368,0.017071247334078735,nan,nan,nan,nan,7.097958326339722,0.0007853507995605469,1.6811637,0.58258736,-0.005038352,-0.15982378329756314,-0.06881282742781614,9.685494155883768,-0.052868985,0.13280027,0.0011471412,-0.66096133,1.8876256,-3.0,0.0,1.5813736,0.55372566,0.0,-0.1342346,-0.046827618,9.909915,-4.197291e-09,-0.03890574,0.0,0.11211871,0.7331923173957722,-0.0540618896484375,0.119659423828125,0.002166748046875
17.202511310577393,-0.65200496,2.1066108,-3.5073454,0.015496909003862497,nan,nan,nan,nan,7.1994616985321045,0.0009419918060302734,1.7224528,0.44117835,-0.003769226,-0.16374770543225117,-0.05586668707216136,9.687139511108375,-0.032625128,0.14138775,0.00070664793,-0.49825156,1.9369422,-3.0,0.0,1.622689,0.41741425,0.0,-0.13769807,-0.035294425,9.909915,-1.743932e-09,-0.029300483,0.0,0.11499347,0.73325544083659,-0.0511932373046875,0.1149139404296875,0.00244140625
17.300881385803223,-0.46686417,2.151199,-3.5092797,0.013767757395308777,nan,nan,nan,nan,7.297601222991943,0.0007588863372802734,1.7534366,0.28613794,-0.0029016144,-0.16651107466308016,-0.04172360670329023,9.688543472290018,-0.020422917,0.14267813,0.0002999127,-0.3374988,1.971318,-3.0,0.0,1.6514876,0.28274235,0.0,-0.14011025,-0.023904568,9.909915,-1.319411e-09,-0.019833777,0.0,0.116994835,0.733309299046216,-0.0310516357421875,0.126312255859375,0.002471923828125
17.401424884796143,-0.27880946,2.1792176,-3.5104494,0.011997964015250592,nan,nan,nan,nan,7.3983635902404785,0.0009951591491699219,1.7693383,0.13013504,-0.0019370377,-0.16763456811629368,-0.027067641991268543,9.689752426147441,-0.005920525,0.14381196,0.0029099477,-0.17008682,1.9927545,-3.0,0.0,1.6694461,0.14249161,0.0,-0.14161366,-0.012046156,9.909915,9.508018e-11,-0.009991224,0.0,0.118241854,0.7333556733343429,-0.0182342529296875,0.1273345947265625,0.00201416015625
17.50062394142151,-0.10413613,2.190044,-3.5108917,0.010353135484493153,nan,nan,nan,nan,7.4973063468933105,0.0006995201110839844,1.7706497,-0.013415895,-0.0016109825,-0.16771064031706265,-0.01382106052856824,9.69080307006834,0.0018120189,0.13681221,0.0012211067,-0.0045124334,1.9999949,-3.0,0.0,1.6755118,0.0037803275,0.0,-0.14212132,-0.00031957892,9.909915,1.0714921e-12,-0.0002650305,0.0,0.11866287,0.7333959726585857,-0.0178985595703125,0.120574951171875,0.002471923828125
17.602250337600708,0.08516115,2.1854606,-3.5110693,0.008689126235822187,nan,nan,nan,nan,7.5990025997161865,0.0007293224334716797,1.7586441,-0.16733614,-0.001090792,-0.16689712281946206,1.711157150063869e-05,9.691736068725568,0.011408194,0.13223323,0.0026918515,0.16569233,1.9931247,-3.0,0.0,1.6697563,-0.13881008,0.0,-0.14163962,0.0117349075,9.909915,9.411272e-10,0.00973301,0.0,0.118263386,0.7334317576573102,-0.0063018798828125,0.119964599609375,0.002899169921875
17.701286792755127,0.24393997,2.168615,-3.5110524,0.007363477315124267,nan,nan,nan,nan,7.69807767868042,0.0006816387176513672,1.7377743,-0.2956254,-0.0005551572,-0.16566747018448558,0.011273141193713698,9.692608032226547,0.0126904175,0.12692752,0.0014585634,0.3303627,1.9725264,-3.0,0.0,1.6524999,-0.27676404,0.0,-0.14019503,0.023399036,9.909915,2.1554797e-10,0.019413948,0.0,0.117065154,0.7334652001062987,-0.0228424072265625,0.111083984375,0.004364013671875
17.807276487350464,0.41457433,2.1372972,-3.5111399,0.006022536404382536,nan,nan,nan,nan,7.804649353027344,0.0015072822570800781,1.7043475,-0.4333615,-0.0009320703,-0.16454766244095742,0.022966844950450982,9.693285598754867,0.013356386,0.124010764,0.003739024,0.50492233,1.935214,-3.0,0.0,1.6212412,-0.42300275,0.0,-0.13757674,0.03576716,9.909915,-2.0425805e-10,0.029693767,0.0,0.11489279,0.7334911858022807,-0.0327301025390625,0.1081085205078125,0.006317138671875
17.901079654693604,0.5955222,2.08783,-3.511049,0.004704374749722101,nan,nan,nan,nan,7.897803068161011,0.0006008148193359375,1.6561158,-0.5801489,-0.0013410244,-0.16289983350300238,0.03534305525514059,9.693728179931624,0.017342705,0.117548876,0.002918352,0.65425754,1.8899596,-3.0,0.0,1.5833288,-0.54810953,0.0,-0.1343986,0.04635233,9.909915,-4.3100874e-09,0.03850944,0.0,0.11225486,0.7335081589660553,0.0106658935546875,0.11431884765625,0.006591796875
18.001111030578613,0.75826234,2.0287151,-3.511157,0.003619300342833573,nan,nan,nan,nan,7.997824668884277,0.0005500316619873047,1.601407,-0.71193033,-0.0012953234,-0.16026684883759357,0.04664871896224487,9.694047088623032,0.0385479,0.12146662,0.004546098,0.81014335,1.8285699,-3.0,0.0,1.5318992,-0.67870414,0.0,-0.13008295,0.05740738,9.909915,-1.4457643e-09,0.047739614,0.0,0.10867096,0.7335203890007493,0.0192413330078125,0.1151580810546875,0.007659912109375
18.111618280410767,0.9289966,1.950404,-3.5113685,0.0026805936829029237,nan,nan,nan,nan,8.108943939208984,0.0009756088256835938,1.5315791,-0.8491876,-0.0008723046,-0.15521246235253405,0.05905744347461228,9.69440177917479,0.059116177,0.12008908,0.0050406763,0.9766132,1.7453443,-3.0,0.0,1.4621762,-0.8181656,0.0,-0.1242245,0.069220826,9.909915,-2.9155187e-09,0.057635516,0.0,0.10380262,0.7335339910207507,0.0152587890625,0.1156463623046875,0.0081787109375
18.204811811447144,1.067689,1.8733373,-3.5113137,0.0021114758916697535,nan,nan,nan,nan,8.202484607696533,0.0019261837005615234,1.4634899,-0.9592164,-0.0008915758,-0.1496257992400813,0.0693576809440426,9.69468223571776,0.067374855,0.11669781,0.0055860663,1.1102489,1.6635346,-3.0,0.0,1.3936396,-0.93012,0.0,-0.118457355,0.07871114,9.909915,3.1990177e-09,0.06561434,0.0,0.09900668,0.7335447460662553,0.0082550048828125,0.1166229248046875,0.008148193359375
18.302515029907227,1.2354226,1.7621088,-3.5110006,0.0016625393886622042,nan,nan,nan,nan,8.299758672714233,0.0012645721435546875,1.3659735,-1.0897586,-0.0010475201,-0.14178085141099503,0.08210462731452428,9.694958801269518,0.069311604,0.11399056,0.0068955426,1.2419798,1.5676371,-3.0,0.0,1.3133006,-1.0404786,0.0,-0.11168701,0.08807314,9.909915,3.119526e-09,0.07351444,0.0,0.0933723,0.7335553517463271,0.045379638671875,0.1074981689453125,0.006134033203125
18.400810956954956,1.3700813,1.6553377,-3.5107076,0.0014982147758554054,nan,nan,nan,nan,8.397507429122925,0.0005972385406494141,1.272129,-1.1937457,-0.0008329515,-0.13476411800238858,0.09248038728260921,9.695260848999014,0.07974056,0.10421672,0.007339465,1.3660483,1.4607916,-3.0,0.0,1.2237899,-1.144418,0.0,-0.10413164,0.09689764,9.909915,6.9642647e-09,0.080990694,0.0,0.08707955,0.7335669344389979,0.047607421875,0.1026458740234375,0.005126953125
18.501571893692017,1.495212,1.5385729,-3.5106118,0.001445183900921132,nan,nan,nan,nan,8.498428106307983,0.0009188652038574219,1.1701428,-1.2897421,-0.00045469234,-0.12687951198763922,0.10214280707951673,9.695611343383781,0.08434611,0.09765693,0.0073027853,1.4845273,1.3402158,-3.0,0.0,1.1227766,-1.2436748,0.0,-0.09559106,0.10533166,9.909915,9.931703e-09,0.08816588,0.0,0.07996028,0.7335803747003756,0.0420074462890625,0.100494384765625,0.004241943359375
18.617857217788696,1.6367544,1.3792337,-3.5106647,0.0014257322409316209,nan,nan,nan,nan,8.60755705833435,0.0011610984802246094,1.0308868,-1.3985851,-0.00059027126,-0.1174406672845495,0.11360951999269608,9.69594635009765,0.076461256,0.09317129,0.007719183,1.6006843,1.199087,-3.0,0.0,1.0045449,-1.3409861,0.0,-0.085576974,0.11360765,9.909915,-1.2194667e-09,0.09523752,0.0,0.071605325,0.7335932208354594,0.026336669921875,0.1048736572265625,0.003448486328125
18.702364921569824,1.720755,1.2655585,-3.5106895,0.001352496520137525,nan,nan,nan,nan,8.69922947883606,0.0012421607971191406,0.93107593,-1.464724,-0.00042629373,-0.11143279294849698,0.12093227629688119,9.696214370727533,0.077893734,0.08700806,0.006605244,1.6879642,1.0727426,-3.0,0.0,0.89869875,-1.4141057,0.0,-0.07659725,0.11983134,9.909915,7.0778854e-09,0.10057718,0.0,0.06410723,0.7336034981688403,0.0713653564453125,0.0754547119140625,0.001068115234375
18.802159309387207,1.8103392,1.1224403,-3.5108056,0.00134848918547862,nan,nan,nan,nan,8.798949241638184,0.0009124279022216797,0.8050715,-1.5365833,-0.00042744237,-0.10326011897402076,0.12843650742977997,9.696531219482416,0.09593133,0.06999641,0.006103546,1.7715915,0.9281505,-3.0,0.0,0.77756554,-1.4841651,0.0,-0.06630549,0.12579894,9.909915,3.1983933e-09,0.10571573,0.0,0.055507265,0.7336156476484597,0.083343505859375,0.065155029296875,-6.103515625e-05
18.905717372894287,1.8938991,0.9592826,-3.5107253,0.0015236294222814653,nan,nan,nan,nan,8.903267860412598,0.0010457038879394531,0.6637887,-1.6048467,9.145598e-05,-0.09265426269992058,0.13493451767677356,9.696879119873044,0.10741117,0.05892578,0.004358507,1.8458418,0.76997924,-3.0,0.0,0.6450563,-1.5463688,0.0,-0.05503114,0.13110118,9.909915,1.5456337e-09,0.110297434,0.0,0.046079516,0.7336289875660021,0.0999603271484375,0.054656982421875,-0.001312255859375
19.00303840637207,1.9583642,0.8024554,-3.5106041,0.0017895454030409236,nan,nan,nan,nan,9.000250101089478,0.0014238357543945312,0.52967316,-1.6571913,-5.4444467e-05,-0.08127792078159048,0.1396524815414295,9.69723831176757,0.12917572,0.04139536,0.002075529,1.9022428,0.6176345,-3.0,0.0,0.5174283,-1.5936192,0.0,-0.044158805,0.13513125,9.909915,1.0339041e-09,0.11379039,0.0,0.036982372,0.7336427601947046,0.1087646484375,0.0491180419921875,-0.002166748046875
19.100942611694336,2.0101511,0.6407868,-3.5110788,0.0021594531858710603,nan,nan,nan,nan,9.097663879394531,0.0006799697875976562,0.3937937,-1.6979529,-0.0008959118,-0.06821747452778536,0.14297853672426886,9.697381515502924,0.14109224,0.032970507,0.0017113753,1.9462606,0.46051055,-3.0,0.0,0.38579643,-1.6304955,0.0,-0.032934472,0.13827804,9.909915,3.3967426e-10,0.116524346,0.0,0.027586136,0.7336482510377907,0.1090087890625,0.04974365234375,-0.002410888671875
19.20208168029785,2.051412,0.46113303,-3.5120337,0.0025693144911711763,nan,nan,nan,nan,9.198972463607788,0.0008449554443359375,0.24482019,-1.7280713,-0.0020996055,-0.0537206430949179,0.14634594905100307,9.697197799682609,0.14047416,0.029169638,9.478017e-05,1.9782926,0.29386768,-3.0,0.0,0.24619001,-1.6573305,0.0,-0.02102113,0.14056884,9.909915,2.2381599e-09,0.11851829,0.0,0.017609326,0.7336412068374922,0.112274169921875,0.0390167236328125,-0.003662109375
19.30138611793518,2.0754397,0.29242083,-3.5131562,0.0029478592146745045,nan,nan,nan,nan,9.29811978340149,0.0007336139678955078,0.10606497,-1.7431364,-0.0032267123,-0.04035573635279512,0.14855940386606492,9.696728439331046,0.13903512,0.018832276,-0.0010868112,1.9958532,0.12872402,-3.0,0.0,0.10783959,-1.6720421,0.0,-0.009209064,0.141825,9.909915,-4.0182774e-10,0.11961306,0.0,0.007714859,0.7336232098898654,0.1074371337890625,0.0392303466796875,-0.004669189453125
19.40105175971985,2.0860007,0.12222477,-3.5141764,0.0032952878603677606,nan,nan,nan,nan,9.397776365280151,0.0007674694061279297,-0.033254866,-1.7460053,-0.003933979,-0.027194762933596912,0.15014554250592305,9.696095733642572,0.13389565,0.020695109,-0.0017092165,1.9996359,-0.038161546,-3.0,0.0,-0.031970143,-1.6752111,0.0,0.0027301915,0.14209563,9.909915,-1.0549842e-10,0.11984902,0.0,-0.002287237,0.7335989490108975,0.1029052734375,0.038787841796875,-0.006256103515625
19.503167390823364,2.082873,-0.04789779,-3.5151703,0.003516709865136132,nan,nan,nan,nan,9.50097918510437,0.002454519271850586,-0.17248438,-1.7370657,-0.0053343144,-0.014826166975549417,0.15175645498259005,9.695304718017576,0.12667102,0.014200817,-0.002372309,1.9888715,-0.21069053,-3.0,0.0,-0.17650768,-1.6661931,0.0,0.015072327,0.14132555,9.909915,-1.8024476e-09,0.11917766,0.0,-0.012626486,0.7335686166791797,0.0993499755859375,0.039886474609375,-0.00836181640625
19.601028442382812,2.065567,-0.21601008,-3.5163915,0.003546438865452559,nan,nan,nan,nan,9.597763776779175,0.0011448860168457031,-0.31244278,-1.7163548,-0.0066594426,-0.002924303955175321,0.15264968008191881,9.694375686645508,0.12210512,0.009943262,-0.0046912287,1.9652728,-0.3710831,-3.0,0.0,-0.31087786,-1.6464231,0.0,0.02654223,0.13963762,9.909915,-1.962808e-09,0.117707364,0.0,-0.022233356,0.7335329904074106,0.1019744873046875,0.0225982666015625,-0.010467529296875
19.702279567718506,2.030971,-0.3944815,-3.517456,0.0032942750108184006,nan,nan,nan,nan,9.699403524398804,0.00164031982421875,-0.46303654,-1.6805085,-0.007144519,0.009478621723315971,0.15269456914641166,9.693433990478514,0.11831768,-0.003674191,-0.005187817,1.9265931,-0.536879,-3.0,0.0,-0.4497747,-1.6140189,0.0,0.038391154,0.13687184,9.909915,-3.5804355e-09,0.115301915,0.0,-0.0321546,0.7334968767269529,0.1049957275390625,-0.0072479248046875,-0.012664794921875
19.811365842819214,1.9807005,-0.5681076,-3.5184062,0.002739230401812927,nan,nan,nan,nan,9.808620691299438,0.0012280941009521484,-0.6111231,-1.6324421,-0.007463873,0.02168609918244862,0.15024429188681498,9.692515640258788,0.11915135,-0.033425495,-0.007778457,1.8694797,-0.7106657,-3.0,0.0,-0.59536594,-1.5661716,0.0,0.050799537,0.13278991,9.909915,-1.6170238e-09,0.11175999,0.0,-0.042539418,0.7334616566649327,0.104736328125,-0.01361083984375,-0.01348876953125
19.90091037750244,1.921404,-0.72289467,-3.5196552,0.001872399117677323,nan,nan,nan,nan,9.897660493850708,0.0007195472717285156,-0.74206036,-1.5768566,-0.007948729,0.032786854588201866,0.14599564958809408,9.691780700683594,0.115939796,-0.05485286,-0.009674536,1.8113191,-0.8480113,-3.0,0.0,-0.7104283,-1.5174472,0.0,0.06059515,0.12863547,9.909915,-1.125113e-08,0.108164854,0.0,-0.050733015,0.7334334694650073,0.10504150390625,-0.0374755859375,-0.01287841796875
20.005972623825073,1.8499421,-0.8720772,-3.5207007,0.0007643774925423785,nan,nan,nan,nan,10.00303602218628,0.0009949207305908203,-0.866762,-1.5113897,-0.008808513,0.043573458194533336,0.14030766615063306,9.690849151611328,0.11229857,-0.06511397,-0.010591423,1.7295005,-1.0044042,-3.0,0.0,-0.8414477,-1.448903,0.0,0.071734965,0.122794785,9.909915,5.900862e-09,0.103126615,0.0,-0.060045015,0.7333977401484675,0.104278564453125,-0.01873779296875,-0.011627197265625
20.100812196731567,1.7590667,-1.0269476,-3.5217087,-0.0005660601187801144,nan,nan,nan,nan,10.097523212432861,0.0005583763122558594,-0.9942673,-1.4307072,-0.009319531,0.05487382317191905,0.13395785483165734,9.689880447387697,0.1097307,-0.0671284,-0.011357679,1.6446625,-1.1380181,-3.0,0.0,-0.95338386,-1.3778293,0.0,0.08123824,0.11674305,9.909915,-4.2921724e-09,0.09792516,0.0,-0.06798316,0.7333605839345696,0.101837158203125,-0.0457611083984375,-0.010284423828125
20.2007737159729,1.6541923,-1.1739237,-3.5227761,-0.0019341614325831674,nan,nan,nan,nan,10.19752049446106,0.0007119178771972656,-1.1140407,-1.3403741,-0.0099318195,0.06574238803765663,0.12699270868433854,9.688918609619147,0.104788624,-0.07310653,-0.01108766,1.5436704,-1.2716453,-3.0,0.0,-1.0653311,-1.2932223,0.0,0.09072778,0.10954456,9.909915,-5.771388e-09,0.091761716,0.0,-0.0759037,0.7333236892570268,0.0992889404296875,-0.062347412109375,-0.0091552734375
20.302541494369507,1.5450976,-1.3012953,-3.524138,-0.0032997920543262962,nan,nan,nan,nan,10.299487352371216,0.0010330677032470703,-1.2174083,-1.2485147,-0.0105789285,0.07530133251037935,0.11968662708749833,9.687963943481453,0.100844644,-0.078686826,-0.011483173,1.4295453,-1.3987138,-3.0,0.0,-1.1717838,-1.1976131,0.0,0.09973639,0.10141682,9.909915,-3.0126563e-09,0.084831566,0.0,-0.08341652,0.733287067861745,0.1016082763671875,-0.057861328125,-0.008392333984375
20.40097427368164,1.425269,-1.4203515,-3.525946,-0.004643723948159428,nan,nan,nan,nan,10.397690057754517,0.0007257461547851562,-1.3135376,-1.1495501,-0.011588285,0.08474842171428093,0.11248896452339818,9.686923294067391,0.10244602,-0.07603794,-0.011430698,1.3097683,-1.5114586,-3.0,0.0,-1.2662367,-1.0972689,0.0,0.107716,0.092893764,9.909915,2.1584559e-09,0.07759479,0.0,-0.09006555,0.7332471460562437,0.1010589599609375,-0.0683441162109375,-0.008392333984375
20.501293897628784,1.2959869,-1.5300833,-3.5281923,-0.006006606844091794,nan,nan,nan,nan,10.49820351600647,0.0007796287536621094,-1.4018483,-1.0428832,-0.012531121,0.09429788844722203,0.10507572074141391,9.68576278686524,0.10107556,-0.082604624,-0.010766541,1.178003,-1.6162639,-3.0,0.0,-1.3540381,-0.9868815,0.0,0.115121365,0.083525434,9.909915,-4.5160276e-09,0.06967305,0.0,-0.09623098,0.7332026236896043,0.0986785888671875,-0.078399658203125,-0.008697509765625
20.60116457939148,1.1461492,-1.6372371,-3.53078,-0.007667428350744722,nan,nan,nan,nan,10.597986459732056,0.0008611679077148438,-1.4881045,-0.9187116,-0.013127738,0.10405239270083055,0.09553562004393346,9.684487152099614,0.091770306,-0.106344454,-0.010518215,1.0389379,-1.7089787,-3.0,0.0,-1.4317106,-0.8703786,0.0,0.12166192,0.07364607,9.909915,3.9184065e-09,0.061352495,0.0,-0.101671994,0.7331536814254379,0.0842132568359375,-0.103759765625,-0.00750732421875
20.702078104019165,0.9995503,-1.7247297,-3.532758,-0.009476223719447355,nan,nan,nan,nan,10.69917607307434,0.0015377998352050781,-1.5573474,-0.79710937,-0.013105157,0.11196386671247985,0.08492168298174452,9.683267822265627,0.080813006,-0.11585218,-0.009185596,0.8905051,-1.7908101,-3.0,0.0,-1.5002656,-0.7460278,0.0,0.12742603,0.06310911,9.909915,1.2527729e-09,0.052511238,0.0,-0.10646353,0.7331068963987837,0.0820770263671875,-0.102691650390625,-0.00592041015625
20.800957202911377,0.8327256,-1.8060604,-3.5345263,-0.011500315938305417,nan,nan,nan,nan,10.797683715820312,0.0006299018859863281,-1.6204816,-0.6592649,-0.012799184,0.11979487135389263,0.07300380432978293,9.682146377563477,0.074772745,-0.12119518,-0.008800728,0.73985505,-1.8581213,-3.0,0.0,-1.5566561,-0.6198195,0.0,0.132161,0.052421916,9.909915,2.8425846e-09,0.043573823,0.0,-0.110396914,0.7330638645712538,0.0628814697265625,-0.1215057373046875,-0.003143310546875
20.912720918655396,0.67265195,-1.867437,-3.5358124,-0.013575792731259098,nan,nan,nan,nan,10.909809827804565,0.0009293556213378906,-1.6664882,-0.5258792,-0.012343494,0.12558962262314727,0.06065696839608359,9.681105117797852,0.05493515,-0.1339771,-0.007192905,0.56230724,-1.9193256,-3.0,0.0,-1.6079305,-0.4710774,0.0,0.13646124,0.039834175,9.909915,-5.8712124e-10,0.033078663,0.0,-0.11396703,0.7330239073510891,0.077423095703125,-0.09747314453125,-0.000762939453125
21.00067710876465,0.50783765,-1.9153473,-3.5367517,-0.015676921153835843,nan,nan,nan,nan,10.99736738204956,0.0006959438323974609,-1.7007034,-0.38921532,-0.01156805,0.13020382732835373,0.04807888619119849,9.6804460144043,0.044811025,-0.13278434,-0.0065806382,0.4201353,-1.9553738,-3.0,0.0,-1.6381302,-0.35197172,0.0,0.13899162,0.029759154,9.909915,-5.3317137e-09,0.02469783,0.0,-0.11606681,0.7329986138588421,0.053619384765625,-0.1111602783203125,0.002960205078125
21.10112953186035,0.32614636,-1.9525578,-3.5374644,-0.017788838632740382,nan,nan,nan,nan,11.097867488861084,0.0008585453033447266,-1.7235887,-0.23905438,-0.010426367,0.1337169647588981,0.034518311592994566,9.67998718261719,0.030411389,-0.13242224,-0.0030555944,0.25420853,-1.9837787,-3.0,0.0,-1.6619266,-0.21296525,0.0,0.14098425,0.018004496,9.909915,8.0468543e-10,0.014935369,0.0,-0.1177198,0.7329810054025263,0.05419921875,-0.105224609375,0.005584716796875
21.20139718055725,0.17111447,-1.9726241,-3.5380385,-0.019325008597165183,nan,nan,nan,nan,11.198199272155762,0.000629425048828125,-1.7318592,-0.11200008,-0.009822412,0.13582525771777826,0.02327036677702843,9.679726943969731,0.023432273,-0.12693842,-0.0012665597,0.08676471,-1.9981171,-3.0,0.0,-1.6739388,-0.072687835,0.0,0.14198966,0.006144876,9.909915,-4.67437e-10,0.005096177,0.0,-0.11855369,0.7329710181128825,0.057586669921875,-0.1005859375,0.00762939453125
21.30150866508484,-0.012955045,-1.9824823,-3.5386457,-0.02079545237673898,nan,nan,nan,nan,11.298325300216675,0.0008029937744140625,-1.7293321,0.038095016,-0.008780559,0.13801818426819673,0.01050535296558075,9.679633407592775,0.017883325,-0.124325395,0.00055076263,-0.0809506,-1.9983611,-3.0,0.0,-1.6741432,0.06781702,0.0,0.14200675,-0.005733103,9.909915,-9.659449e-11,-0.004754659,0.0,-0.11856787,0.7329674283946237,0.0417938232421875,-0.1078033447265625,0.00970458984375
21.40403437614441,-0.18248889,-1.9778984,-3.538966,-0.021799416703378045,nan,nan,nan,nan,11.401087045669556,0.001146078109741211,-1.7159296,0.17649318,-0.0076182936,0.13968836661429404,-0.00095624478763634,9.67979057312012,0.0168992,-0.12142036,0.0028981261,-0.25247556,-1.984,-3.0,0.0,-1.662112,0.21151343,0.0,0.14099976,-0.01788174,9.909915,2.0830313e-09,-0.014833484,0.0,-0.117732674,0.7329734600483436,0.0442047119140625,-0.108123779296875,0.009796142578125
21.501012086868286,-0.36426464,-1.9582912,-3.5392222,-0.02261335505639645,nan,nan,nan,nan,11.49771499633789,0.0005972385406494141,-1.689607,0.3256555,-0.0060794507,0.14090471983823613,-0.013522982896229108,9.680183868408207,0.008464523,-0.12261908,0.0057019936,-0.4120797,-1.9570872,-3.0,0.0,-1.6395656,0.3452231,0.0,0.13911186,-0.029188396,9.909915,1.309715e-09,-0.024223465,0.0,-0.11616656,0.7329885536079987,0.0126800537109375,-0.11749267578125,0.01129150390625
21.600975036621094,-0.5296391,-1.9260824,-3.5393276,-0.02322848013274275,nan,nan,nan,nan,11.597764730453491,0.0006101131439208984,-1.6546845,0.4625269,-0.0045875367,0.14069058244824925,-0.025409532572735705,9.680779647827151,-0.010439747,-0.12623894,0.00732293,-0.57447916,-1.9157176,-3.0,0.0,-1.6049079,0.48127455,0.0,0.13620788,-0.040696915,9.909915,3.6865038e-09,-0.033797048,0.0,-0.11375675,0.7330114173512912,0.0062103271484375,-0.117919921875,0.012176513671875
21.701056003570557,-0.7048903,-1.8757342,-3.5394552,-0.023728190351584917,nan,nan,nan,nan,11.69786262512207,0.0006051063537597656,-1.6051211,0.6086235,-0.0036811894,0.13913166696713195,-0.038391650980611036,9.681467590332034,-0.02635687,-0.12681118,0.008434333,-0.7329196,-1.8608677,-3.0,0.0,-1.558957,0.61400926,0.0,0.13235408,-0.051930055,9.909915,9.2935487e-10,-0.04316314,0.0,-0.110557266,0.7330378170873463,-0.0204620361328125,-0.1191253662109375,0.013946533203125
21.800755739212036,-0.86222607,-1.8150234,-3.53978,-0.024030406880944467,nan,nan,nan,nan,11.79747462272644,0.0006728172302246094,-1.5487146,0.7400414,-0.0021736708,0.13539452195103815,-0.05040718377170372,9.682221145629883,-0.045739185,-0.124942325,0.010698757,-0.8854806,-1.7932998,-3.0,0.0,-1.5023514,0.7418185,0.0,0.12760128,-0.06275256,9.909915,6.2944503e-09,-0.052212603,0.0,-0.10660914,0.7330667336324593,-0.02362060546875,-0.116943359375,0.0152587890625
21.900745153427124,-1.0262046,-1.7340064,-3.540046,-0.024127631125092537,nan,nan,nan,nan,11.897483110427856,0.0005819797515869141,-1.4762626,0.87639314,-0.0010024679,0.12950949957935715,-0.06316554667063623,9.683012924194335,-0.06380763,-0.12103529,0.012185378,-1.0324454,-1.7129087,-3.0,0.0,-1.4350032,0.8649395,0.0,0.12193894,-0.07318501,9.909915,-5.4378857e-10,-0.06096496,0.0,-0.10190236,0.7330971157253231,-0.0410919189453125,-0.11285400390625,0.017059326171875
22.001001834869385,-1.1703337,-1.6459138,-3.5403166,-0.023935926101008823,nan,nan,nan,nan,11.997764587402344,0.0007009506225585938,-1.3989363,0.99573994,-0.00013815865,0.12307069577931425,-0.07441919354290882,9.683796386718749,-0.07082183,-0.114687614,0.013761845,-1.1725398,-1.6202315,-3.0,0.0,-1.357362,0.9823047,0.0,0.11540148,-0.083137184,9.909915,-1.966769e-09,-0.06934543,0.0,-0.09646408,0.7331271774928138,-0.03936767578125,-0.1096038818359375,0.017822265625
22.102980613708496,-1.3173746,-1.5370842,-3.5403569,-0.02343875667737204,nan,nan,nan,nan,12.100096940994263,0.0011582374572753906,-1.3043342,1.1162137,0.0008022842,0.11516334936495275,-0.08596809715596554,9.684544677734376,-0.07577128,-0.109353766,0.01583135,-1.3069654,-1.5138829,-3.0,0.0,-1.2682676,1.0949208,0.0,0.10788743,-0.0926944,9.909915,-5.627726e-10,-0.07742585,0.0,-0.09020832,0.7331558885801944,-0.0499114990234375,-0.1020660400390625,0.019134521484375
22.202102184295654,-1.4436734,-1.4254361,-3.540186,-0.02277516417086768,nan,nan,nan,nan,12.1991286277771,0.0010879039764404297,-1.2077264,1.2194483,0.0013255519,0.10819408368187268,-0.09626277925939708,9.68525909423828,-0.073879845,-0.10244724,0.016332123,-1.427925,-1.4003679,-3.0,0.0,-1.1731695,1.1962557,0.0,0.09985356,-0.10130146,9.909915,-5.596002e-10,-0.08473342,0.0,-0.083514184,0.7331832989055338,-0.019500732421875,-0.10882568359375,0.018768310546875
22.310975074768066,-1.5599494,-1.3044536,-3.5400789,-0.021796180167582994,nan,nan,nan,nan,12.30820083618164,0.0009510517120361328,-1.1026883,1.3141164,0.001624048,0.1006270393433045,-0.10579762983870444,9.685929107666015,-0.0804456,-0.09632619,0.018171491,-1.5497503,-1.2642286,-3.0,0.0,-1.0591177,1.2983159,0.0,0.09020148,-0.10997777,9.909915,-1.6038758e-09,-0.09213194,0.0,-0.0754646,0.7332090046803217,-0.040771484375,-0.0976409912109375,0.01959228515625
22.41241693496704,-1.6654786,-1.1750957,-3.5404003,-0.02058538040536128,nan,nan,nan,nan,12.40962839126587,0.0009286403656005859,-0.99017656,1.4002177,0.002125554,0.0926913968969818,-0.11464464606051816,9.6864249420166,-0.08484666,-0.088255756,0.019029217,-1.651453,-1.1281413,-3.0,0.0,-0.9451095,1.3835181,0.0,0.08053623,-0.11722728,9.909915,3.1638951e-09,-0.09834066,0.0,-0.06739696,0.7332280273179081,-0.04388427734375,-0.0941314697265625,0.019622802734375
22.50081157684326,-1.7671161,-1.0260412,-3.5405574,-0.018977009578672516,nan,nan,nan,nan,12.497492790222168,0.0009179115295410156,-0.8616282,1.4835341,0.0024947566,0.08283275043135013,-0.12298561947122799,9.686790466308594,-0.09961355,-0.07414788,0.019966165,-1.7299478,-1.0036337,-3.0,0.0,-0.84080225,1.4492778,0.0,0.07168013,-0.12282672,9.909915,3.223124e-09,-0.10315409,0.0,-0.05999919,0.7332420503107694,-0.087066650390625,-0.0655975341796875,0.020355224609375
22.602070331573486,-1.8486549,-0.88134086,-3.539907,-0.017236611961654113,nan,nan,nan,nan,12.599023342132568,0.0008983612060546875,-0.73766035,1.5499051,0.0031937286,0.07229722782605495,-0.12941529726195244,9.687241210937504,-0.11449322,-0.05943784,0.021174746,-1.8089579,-0.85303646,-3.0,0.0,-0.7146382,1.5154691,0.0,0.060953334,-0.12846683,9.909915,8.571166e-09,-0.10801914,0.0,-0.05103254,0.7332593423367622,-0.0820465087890625,-0.066619873046875,0.0191650390625
22.700941801071167,-1.9235969,-0.7178592,-3.538704,-0.015159582598900996,nan,nan,nan,nan,12.697670698165894,0.0005960464477539062,-0.59908944,1.6095858,0.0035192305,0.06015669108009828,-0.13551303352999988,9.68771911621094,-0.114359446,-0.05670806,0.020046694,-1.8732009,-0.7007983,-3.0,0.0,-0.58709943,1.5692892,0.0,0.050095387,-0.13305582,9.909915,2.1012387e-09,-0.11199041,0.0,-0.041950263,0.7332776758937936,-0.0940704345703125,-0.05230712890625,0.01824951171875
22.800706386566162,-1.9798363,-0.5619208,-3.537073,-0.013159804476320487,nan,nan,nan,nan,12.797421216964722,0.0009684562683105469,-0.46786687,1.6531273,0.004098601,0.04859089308159648,-0.14030822706674528,9.688315582275393,-0.119102426,-0.043483395,0.02062818,-1.9251593,-0.54199773,-3.0,0.0,-0.45406297,1.6128178,0.0,0.03875682,-0.13676937,9.909915,-2.3033462e-09,-0.11521287,0.0,-0.032460712,0.7333005570839373,-0.0894927978515625,-0.0529327392578125,0.01708984375
