time,x,y,z,yaw,platform,trajectory,controller,feedforward,traj_time,comp_time,vx,vy,vz,roll,pitch,f,p,q,r,x_ref,y_ref,z_ref,yaw_ref,vx_ref,vy_ref,vz_ref,roll_ref,pitch_ref,f_ref,u_ff_df,u_ff_dphi,u_ff_dpsi,u_ff_dth,throttle,p_cmd,q_cmd,r_cmd
10.003439664840698,-0.03670936,-0.034596417,-2.6558373,0.0029559849304093585,SIM,fig8_heading,contraction,1.0,3.0994415283203125e-06,0.003253459930419922,-0.00091559073,0.03667992,-0.17512481,0.001993161183832536,-0.006562586324133424,9.809233271852136,-0.005865117,-0.00075398816,-0.017226906,1.9474369e-06,1.9474369e-06,-3.0,0.7853982,0.62831855,0.62831855,0.0,-1.393258e-07,3.483145e-08,9.81,6.5279615e-08,-0.0449519,-8.1574046e-07,0.011237975,0.737924657341984,0.8341376781463623,-0.9068370461463928,0.7770702838897705
10.1158127784729,-0.03874927,-0.031001098,-2.6718278,0.0015714457789104265,nan,nan,nan,nan,0.11218714714050293,0.003227710723876953,0.001118809,0.03783045,-0.17148744,0.0020424035969427916,-0.007653660200482637,9.805161788836118,0.06785918,-0.12921908,-0.013151946,0.07046333,0.07038554,-3.0,0.78373885,0.6276249,0.6255455,0.0,-0.0050355624,0.0012602761,9.810133,0.0023495464,-0.044752374,-0.029635394,0.011225125,0.7377694220393373,0.8931196331977844,-0.9559609889984131,0.7532524466514587
10.206775426864624,-0.040834624,-0.026714878,-2.6909668,0.002781867543577331,nan,nan,nan,nan,0.19642424583435059,0.002407550811767578,0.015526254,0.04729349,-0.20200744,0.023984167491674223,-0.03602951937802201,9.796879173815247,0.37494975,-0.44683853,0.04368152,0.1232778,0.12286076,-3.0,0.78029215,0.626193,0.6198307,0.0,-0.008789623,0.0022048329,9.810403,0.004065861,-0.04434123,-0.052284054,0.011198613,0.7374535274690341,0.7961100339889526,-0.8124161958694458,0.7503459453582764
10.30406904220581,-0.038314182,-0.018240439,-2.7161171,0.010358850032858816,nan,nan,nan,nan,0.30036234855651855,0.0018184185028076172,0.08662277,0.10492932,-0.23990141,0.09705453180787581,-0.11340986798754948,9.788629669174547,0.8584579,-0.6877533,0.18863584,0.18822575,0.18673794,-3.0,0.77336776,0.6233521,0.6085313,0.0,-0.01335903,0.0033662536,9.810931,0.006073493,-0.043528493,-0.081171244,0.011146068,0.7371387629489632,0.4697032570838928,-0.22395342588424683,0.7816175222396851
10.407791376113892,-0.025224002,-0.0023011507,-2.7404745,0.02890396828205266,nan,nan,nan,nan,0.4040360450744629,0.0017592906951904297,0.2052111,0.22443356,-0.26080352,0.16489686308235837,-0.15401773015220788,9.78507534777745,0.6893475,-0.030326089,0.34070256,0.25265318,0.24904343,-3.0,0.7633932,0.61934155,0.5926671,0.0,-0.017815474,0.0045181545,9.811658,0.007900981,-0.042387836,-0.111562595,0.011072019,0.7370031049207451,0.18584012985229492,0.36928829550743103,0.7970716953277588
10.510727882385254,0.008330551,0.035587955,-2.7709422,0.07815388948910675,nan,nan,nan,nan,0.5074326992034912,0.0036728382110595703,0.34791723,0.43108535,-0.27181453,0.20720443123012666,-0.1334873769561522,9.779763285666698,0.26092178,0.53289294,0.5068004,0.3164341,0.30931294,-3.0,0.75019914,0.6141786,0.5723951,0.0,-0.022125617,0.0056582293,9.812559,0.009497382,-0.04093092,-0.14407356,0.010976907,0.736800313146355,-0.3043195903301239,0.5872578620910645,0.6801159977912903
10.616784572601318,0.063123025,0.10533242,-2.804414,0.1618958635706278,nan,nan,nan,nan,0.613471508026123,0.0035185813903808594,0.43842465,0.6766633,-0.27924114,0.19196684101412814,-0.07758029444958914,9.76045769780874,-0.4131594,0.6551641,0.6226919,0.38122737,0.36870953,-3.0,0.7330241,0.60768735,0.5471486,0.0,-0.026372535,0.006816077,9.813641,0.010852663,-0.039117526,-0.18044458,0.010857652,0.7360628443146614,-0.7922353148460388,0.43159472942352295,0.4360421895980835
10.7044837474823,0.10797197,0.1730167,-2.8284526,0.23528853246584994,nan,nan,nan,nan,0.7011642456054688,0.003013134002685547,0.45297793,0.82337916,-0.28804487,0.13861073122386494,-0.039913249577056664,9.73487285405397,-0.84632945,0.46408638,0.6438754,0.43424797,0.4156528,-3.0,0.71577454,0.60141295,0.5230005,0.0,-0.02972836,0.007763282,9.814632,0.011729415,-0.037384056,-0.21346056,0.010742717,0.7350843847497904,-0.9999414682388306,0.17401307821273804,0.25130340456962585
10.807476043701172,0.15758894,0.2591093,-2.855549,0.3185930667373109,nan,nan,nan,nan,0.8041894435882568,0.00289154052734375,0.44080737,0.9184876,-0.30382586,0.048940014982469776,-0.014266603290223001,9.693805736303327,-1.1377524,0.16439597,0.606206,0.49578515,0.46792093,-3.0,0.6916101,0.59300566,0.4910363,0.0,-0.03346405,0.008862316,9.815881,0.01245215,-0.035090968,-0.25647387,0.010589196,0.733511133243791,-0.8969436287879944,-0.08737809956073761,0.07598504424095154
10.903712749481201,0.21946302,0.3722141,-2.8917778,0.40799524552609007,nan,nan,nan,nan,0.9004683494567871,0.003538846969604492,0.44460967,0.90988123,-0.32510656,-0.07734967902759066,-0.010099337003482978,9.671879894435403,-1.0534813,-0.1336696,0.48847112,0.5524605,0.51362485,-3.0,0.664783,0.58415043,0.45785567,0.0,-0.036729824,0.009874209,9.8171,0.0128116,-0.032712277,-0.3016964,0.010428061,0.7326698054614118,-0.430642306804657,-0.1725725531578064,-0.05259561538696289
11.008140563964844,0.28174445,0.46448958,-2.9270916,0.45505172843411423,nan,nan,nan,nan,1.0043833255767822,0.0027434825897216797,0.5184792,0.78785837,-0.33589756,-0.1673606253843198,-0.024548810472567517,9.651958301365372,-0.6155062,-0.19898644,0.3468036,0.61262,0.5591978,-3.0,0.63061726,0.57352734,0.41870967,0.0,-0.03998546,0.010948,9.818437,0.01284824,-0.029907947,-0.35712972,0.010235465,0.7319045565010389,0.08260757476091385,-0.04653575271368027,-0.14800024032592773
11.109473943710327,0.3455735,0.5236216,-2.9572332,0.45972361504790815,nan,nan,nan,nan,1.1057991981506348,0.002126455307006836,0.63160264,0.63358885,-0.3355401,-0.20220682763588946,-0.03691830835069987,9.637224243581294,-0.1606015,-0.08461244,0.22005853,0.6702146,0.5995934,-3.0,0.5913249,0.562112,0.37744486,0.0,-0.042870536,0.011975734,9.819726,0.012533456,-0.026954005,-0.41916755,0.010029296,0.7313380683753855,0.43842488527297974,0.12047942727804184,-0.24739481508731842
11.20736050605774,0.43031412,0.5644141,-2.9898307,0.4297171932152797,nan,nan,nan,nan,1.2037692070007324,0.0019338130950927734,0.7660583,0.44686043,-0.33095875,-0.1919423770974067,-0.03459303185924956,9.619682071655985,0.34859857,0.12824367,0.08881135,0.724705,0.6345118,-3.0,0.5469701,0.5501211,0.33499303,0.0,-0.045363847,0.012947866,9.820927,0.011910734,-0.02391718,-0.48784944,0.009813526,0.7306630501927326,0.6429598331451416,0.22664494812488556,-0.34247052669525146
11.301536798477173,0.5191895,0.58085775,-3.0193336,0.38254857841784345,nan,nan,nan,nan,1.2977890968322754,0.0018627643585205078,0.85694796,0.2847981,-0.32947308,-0.14974949212020977,-0.01658244465808978,9.59438733980059,0.6012471,0.24066299,-0.026856313,0.775852,0.66400796,-3.0,0.4976457,0.53774244,0.2921283,0.0,-0.04746955,0.01386021,9.822007,0.011035643,-0.020852726,-0.5629673,0.00959154,0.7296886310249295,0.636260986328125,0.22348295152187347,-0.4373999238014221
11.401773929595947,0.64170885,0.57771456,-3.0589893,0.3106416551940423,nan,nan,nan,nan,1.3980586528778076,0.0017850399017333984,0.89779645,0.115831524,-0.33468825,-0.07727922979469454,0.016741716556985864,9.562074909061188,0.63986635,0.23568007,-0.17025265,0.82907104,0.6909238,-3.0,0.43673345,0.5236224,0.24442491,0.0,-0.049390685,0.014809429,9.823055,0.009829002,-0.01744431,-0.65391314,0.009339162,0.7284420013749566,0.4644875228404999,0.12329989671707153,-0.5429679155349731
11.506297826766968,0.7318703,0.56135315,-3.090063,0.2559474016254967,nan,nan,nan,nan,1.5029916763305664,0.0021452903747558594,0.87558395,0.031090688,-0.34139457,-0.029478306635821433,0.03694740796347262,9.541025706976647,0.5069228,0.19193181,-0.2757663,0.88319796,0.71387106,-3.0,0.36259118,0.50785714,0.19266275,0.0,-0.05102826,0.015774824,9.824009,0.008301707,-0.013747845,-0.76122993,0.0090582725,0.7276287794218473,0.28884458541870117,0.10141953080892563,-0.6921634674072266
11.607380867004395,0.82817614,0.5351396,-3.1276498,0.19130047918541968,nan,nan,nan,nan,1.6035983562469482,0.0018897056579589844,0.81142056,-0.020971298,-0.3482179,0.010180380060587302,0.05466362400624725,9.524973064959045,0.30786455,0.13118225,-0.40360186,0.93349254,0.73069715,-3.0,0.2803892,0.49182028,0.1416323,0.0,-0.052228853,0.016671943,9.824761,0.0066272556,-0.010105209,-0.87431055,0.008773353,0.7270079931547743,0.1077771931886673,0.031021099537611008,-0.8320698738098145
11.705122470855713,0.89822125,0.51457554,-3.1598914,0.13449706975241021,nan,nan,nan,nan,1.7013752460479736,0.0017375946044921875,0.74114156,-0.030526333,-0.35307062,0.026900788286701227,0.06220699528807616,9.511144427955147,0.1252378,0.06257801,-0.51307076,0.98078495,0.74208003,-3.0,0.18927383,0.47539744,0.09107042,0.0,-0.053040963,0.017515656,9.825323,0.004849056,-0.006497154,-0.98987603,0.008482258,0.7264727938518821,-0.01353980042040348,0.0012916279956698418,-0.9823482036590576
11.804178953170776,0.96844614,0.49533665,-3.1982217,0.06067608413137371,nan,nan,nan,nan,1.8005926609039307,0.004544496536254883,0.65410274,-0.019487526,-0.35838142,0.02886712951769553,0.06542169417808363,9.492855156809087,-0.03397444,0.0057032676,-0.6513988,1.0270921,0.7485433,-3.0,0.08526882,0.4579177,0.039141007,0.0,-0.05350206,0.018342016,9.82571,0.0029424154,-0.0027922639,-1.1055566,0.008173009,0.725764360066301,-0.09415457397699356,-0.04690525680780411,-1.1255524158477783
11.907710552215576,1.0224073,0.4836411,-3.2335443,-0.01806492792067155,nan,nan,nan,nan,1.9040765762329102,0.002220630645751953,0.57728374,-0.0030768067,-0.36314324,0.01675436640941781,0.06280558214594101,9.471713669002053,-0.13929655,-0.037632916,-0.78570974,1.0734997,0.7497775,-3.0,-0.034858994,0.4388442,-0.015303867,0.0,-0.0535901,0.019170482,9.82591,0.0009008041,0.0010917459,-1.2126038,0.00783605,0.7249445949193748,-0.11813984811306,-0.07037725299596786,-1.2686692476272583
12.006913185119629,1.0639688,0.47744924,-3.2662964,-0.10126110433399507,nan,nan,nan,nan,2.003624439239502,0.003573894500732422,0.51213944,0.0066819494,-0.368244,-0.0010444178894157483,0.057212686132875,9.451194095760583,-0.17942022,-0.06319066,-0.9159017,1.1162398,0.74564993,-3.0,-0.15962963,0.41971776,-0.06757433,0.0,-0.05329565,0.01993385,9.825901,-0.001058014,0.0048207627,-1.288579,0.0074984725,0.7241480692543583,-0.10902567207813263,-0.08378462493419647,-1.379279613494873
12.11751389503479,1.1098307,0.47390562,-3.3116739,-0.2329830044986163,nan,nan,nan,nan,2.1142477989196777,0.0036368370056152344,0.4311379,0.0033839971,-0.37330237,-0.02669807020121269,0.04544330134617236,9.42897211164236,-0.15168199,-0.08448727,-1.0902271,1.1614556,0.7349855,-3.0,-0.30481037,0.39760882,-0.12509362,0.0,-0.052534815,0.02074192,9.825667,-0.0031622665,0.008924917,-1.3272365,0.0071084145,0.7232844837905498,-0.05308593809604645,-0.08607500791549683,-1.4200692176818848
12.212495565414429,1.1371031,0.47256646,-3.3455935,-0.3421044097954392,nan,nan,nan,nan,2.2092208862304688,0.0032873153686523438,0.37684444,-0.011186747,-0.37475687,-0.04159936534804476,0.03413732357782284,9.410967755019664,-0.11231372,-0.08828265,-1.2029955,1.1982889,0.7207923,-3.0,-0.43066382,0.3779449,-0.17363723,0.0,-0.05152213,0.021400642,9.825285,-0.00485549,0.012389611,-1.3162565,0.0067614513,0.7225840562369282,-0.02905551716685295,-0.07651753723621368,-1.4133901596069336
12.302644729614258,1.1602337,0.47047105,-3.3798416,-0.45930420917593145,nan,nan,nan,nan,2.2990620136260986,0.0021560192108154297,0.32663926,-0.034751397,-0.37345445,-0.052051000493081034,0.021653727596880223,9.390714429914949,-0.06232103,-0.08421318,-1.2921927,1.2313875,0.70316666,-3.0,-0.5471063,0.35879254,-0.21855159,0.0,-0.050264403,0.021992976,9.824782,-0.006320417,0.015596404,-1.2707732,0.0064233346,0.7217953353074482,0.005778583697974682,-0.06705323606729507,-1.3545610904693604
12.414214372634888,1.1825293,0.4654455,-3.4206598,-0.6044320082066978,nan,nan,nan,nan,2.4105749130249023,0.004099369049072266,0.2725149,-0.07047426,-0.36722162,-0.05646639158752442,0.006178036577650481,9.365337139219042,0.013500735,-0.077013955,-1.3600799,1.2700398,0.67576456,-3.0,-0.68397015,0.33431658,-0.27255127,0.0,-0.048308726,0.022685278,9.823986,-0.007904276,0.019453712,-1.178674,0.0059907967,0.7208058713777793,0.05144398659467697,-0.06539559364318848,-1.2380894422531128
12.510103702545166,1.2010208,0.45482162,-3.4638803,-0.7625571250918041,nan,nan,nan,nan,2.5064351558685303,0.002068758010864258,0.2226925,-0.11325534,-0.35447678,-0.051113446989449085,-0.009597556738498492,9.350808042585845,0.08158504,-0.06556423,-1.3738155,1.3010552,0.6474879,-3.0,-0.79238,0.31269127,-0.31708837,0.0,-0.04629024,0.023241293,9.823173,-0.009020183,0.022636933,-1.0814933,0.005608086,0.7202387764480933,0.05702009052038193,-0.037021663039922714,-1.0771753787994385
12.609222412109375,1.2116296,0.4432514,-3.4936187,-0.8728421443255697,nan,nan,nan,nan,2.60548996925354,0.0021538734436035156,0.19506864,-0.1441591,-0.34273648,-0.04229663768976466,-0.0193765665380059,9.336216991692776,0.11366929,-0.058323067,-1.3489007,1.3309001,0.6138866,-3.0,-0.8942863,0.28981614,-0.36095923,0.0,-0.04389119,0.0237768,9.822233,-0.009903508,0.025774453,-0.97607404,0.005202578,0.7196688197737886,0.06206245720386505,-0.031895712018013,-0.954283595085144
12.703547477722168,1.2228253,0.42524168,-3.527492,-0.9990771511887431,nan,nan,nan,nan,2.700120687484741,0.002942323684692383,0.17334487,-0.18023005,-0.32786143,-0.027124136812335886,-0.028283646178124622,9.324095307886594,0.14590488,-0.03852446,-1.2829959,1.357273,0.5778365,-3.0,-0.98199904,0.26749623,-0.40055433,0.0,-0.041316733,0.024250433,9.821267,-0.010470348,0.028608037,-0.87877136,0.0048061577,0.7191949829131269,0.04077935963869095,-0.012472692877054214,-0.8120522499084473
12.809715747833252,1.2351092,0.40134576,-3.5613496,-1.1254426999741107,nan,nan,nan,nan,2.8060827255249023,0.0022513866424560547,0.16533846,-0.21590236,-0.31062362,-0.008637614534223403,-0.03336179777392645,9.312260077521199,0.14122318,-0.009185068,-1.1777216,1.3842714,0.5331734,-3.0,-1.0697529,0.24200654,-0.4418935,0.0,-0.03812643,0.024735752,9.820139,-0.010767738,0.031568527,-0.7795868,0.004352461,0.7187320462597657,-0.0015238747000694275,0.0033218669705092907,-0.6723975539207458
12.907287120819092,1.2459674,0.3804728,-3.585412,-1.2139950782610152,nan,nan,nan,nan,2.9041967391967773,0.0026640892028808594,0.17000864,-0.23974846,-0.2968891,0.0040195517974948025,-0.03393115221996945,9.30540220245718,0.10634201,0.0039252685,-1.0804664,1.40684,0.4880662,-3.0,-1.1422136,0.21797863,-0.47707462,0.0,-0.034903623,0.025141824,9.819082,-0.010719209,0.03408987,-0.6994534,0.003923798,0.7184636649152188,-0.033502548933029175,-0.0004113968461751938,-0.5784507393836975
13.007211685180664,1.2633482,0.3502156,-3.6149473,-1.3168805700446375,nan,nan,nan,nan,3.0034635066986084,0.00177764892578125,0.1868421,-0.26766455,-0.27867362,0.015998459538329124,-0.03207887417694355,9.30174837831407,0.05628969,0.016186876,-0.94787925,1.4272559,0.43907636,-3.0,-1.2081199,0.19329388,-0.50938994,0.0,-0.03140259,0.025509482,9.818033,-0.010356162,0.036407452,-0.6304054,0.0034824235,0.7183206329752357,-0.0939873456954956,0.0013276261743158102,-0.47679927945137024
13.112541437149048,1.2869524,0.3139173,-3.6451108,-1.4124305835016029,nan,nan,nan,nan,3.1092660427093506,0.0033223628997802734,0.21309595,-0.2948304,-0.2586335,0.021346228174061732,-0.02924774244288675,9.298175958283238,-0.018955983,0.013664897,-0.8067745,1.4462987,0.38352847,-3.0,-1.2714887,0.1666171,-0.53995174,0.0,-0.027431963,0.025852706,9.816973,-0.009635102,0.0386008,-0.569577,0.0030043372,0.7181807605029928,-0.13881853222846985,0.0018400498665869236,-0.3881088197231293
13.204344987869263,1.3089553,0.2838136,-3.667974,-1.4774493122084178,nan,nan,nan,nan,3.200644016265869,0.002700328826904297,0.23329662,-0.3143097,-0.24263197,0.0188276076848799,-0.027230053416811062,9.29655609749257,-0.07274415,0.0032870376,-0.7018228,1.4604608,0.33311373,-3.0,-1.3215152,0.14331199,-0.56294304,0.0,-0.023827504,0.026108153,9.816131,-0.008753604,0.04025187,-0.52678627,0.0025858083,0.7181173285543262,-0.1454530507326126,-0.012154122814536095,-0.3320261240005493
13.302613019943237,1.3333671,0.25265178,-3.690034,-1.5340791713462925,nan,nan,nan,nan,3.2988762855529785,0.0019731521606445312,0.24926196,-0.33333194,-0.22654745,0.012555664609470107,-0.02676613725371202,9.296237624981435,-0.10278164,-0.017406005,-0.60517085,1.4732984,0.27674955,-3.0,-1.3713764,0.11802556,-0.5839779,0.0,-0.019796954,0.026339855,9.815328,-0.0075651975,0.041763257,-0.4898729,0.0021308735,0.7181048568746228,-0.14572225511074066,-0.035128407180309296,-0.28793469071388245
13.408740758895874,1.363788,0.21444862,-3.7148805,-1.5913956712003432,nan,nan,nan,nan,3.405198335647583,0.002080678939819336,0.25836012,-0.35658005,-0.20742065,0.0022759634812542506,-0.02921122665194331,9.297328857392996,-0.12305237,-0.04038703,-0.50297713,1.4843822,0.21364471,-3.0,-1.4217604,0.09043287,-0.6022868,0.0,-0.015283632,0.02654002,9.814603,-0.006036919,0.043079447,-0.45945624,0.0016336032,0.7181475896626534,-0.12423373758792877,-0.04203970357775688,-0.24652108550071716
13.507655143737793,1.3921319,0.17725556,-3.7362025,-1.6360454857300841,nan,nan,nan,nan,3.5043575763702393,0.0037212371826171875,0.2556847,-0.38064003,-0.18889679,-0.007554361738116633,-0.033836302365291004,9.300157195706843,-0.107842766,-0.046906877,-0.42427114,1.4920666,0.15325433,-3.0,-1.4662521,0.064536355,-0.6150611,0.0,-0.010963863,0.026678858,9.814082,-0.0044289683,0.043998133,-0.4391589,0.0011662573,0.7182583360477361,-0.08718426525592804,-0.03854205831885338,-0.21926988661289215
13.603667974472046,1.4215261,0.13462909,-3.7568972,-1.6765114537220798,nan,nan,nan,nan,3.6004176139831543,0.00356292724609375,0.241452,-0.4102637,-0.1682513,-0.015915888694250535,-0.03978008600526728,9.30368598562199,-0.079500705,-0.054102458,-0.35234022,1.4970565,0.093739286,-3.0,-1.5077693,0.039342623,-0.6233916,0.0,-0.006706306,0.026769046,9.813737,-0.0027483061,0.044597413,-0.4263235,0.00071115664,0.7183964856988853,-0.04652710631489754,-0.009866938926279545,-0.1998635083436966
13.707910299301147,1.4468497,0.09232886,-3.7737815,-1.7077023773760516,nan,nan,nan,nan,3.7042596340179443,0.003518819808959961,0.2204237,-0.4414618,-0.14834742,-0.020733410586515566,-0.04418898484177469,9.309674406466069,-0.048408967,-0.029432133,-0.30288884,1.4997247,0.028732233,-3.0,-1.5516262,0.01203754,-0.6278573,0.0,-0.0020555924,0.026817279,9.81355,-0.00084884546,0.044918716,-0.41957137,0.00021762068,0.7186308682342972,-0.017055988311767578,0.011380169540643692,-0.20047912001609802
13.803776025772095,1.4679412,0.0507436,-3.78776,-1.7319737169724212,nan,nan,nan,nan,3.800490617752075,0.001928091049194336,0.19722435,-0.47161478,-0.13011663,-0.022496388641576104,-0.04574195024876526,9.317154623907987,-0.020804338,0.007863413,-0.2660954,1.4996645,-0.03171488,-3.0,-1.5919601,-0.01328767,-0.62775654,0.0,0.0022689793,0.026816191,9.813554,0.000936802,0.044911463,-0.41972277,-0.00024022041,0.7189235327633665,-0.003795664757490158,0.030548052862286568,-0.2144119292497635
13.901782989501953,1.4916152,-0.0054521323,-3.803519,-1.758698604294171,nan,nan,nan,nan,3.898174524307251,0.005966901779174805,0.16603635,-0.50794613,-0.10747081,-0.022401270222033642,-0.043620410830192524,9.328887174767441,-0.004511411,0.039976973,-0.23401722,1.4971117,-0.09286205,-3.0,-1.6332235,-0.03897301,-0.6234837,0.0,0.006643548,0.026770044,9.813733,0.0027230168,0.044604037,-0.4261833,-0.00070447754,0.7193823338758829,-0.0036194361746311188,0.06281175464391708,-0.23771633207798004
14.004137754440308,1.5066327,-0.047443453,-3.8133066,-1.775971595077924,nan,nan,nan,nan,4.000511884689331,0.0032358169555664062,0.14450301,-0.53039545,-0.092225276,-0.022054934517972247,-0.039616900585593307,9.337915864479728,-0.011117796,0.06499879,-0.22293018,1.4917492,-0.15624884,-3.0,-1.6774815,-0.06581136,-0.6145321,0.0,0.011178073,0.026673121,9.814104,0.004511349,0.043960087,-0.4399846,-0.0011892789,0.7197352041624416,-0.013719193637371063,0.05632747337222099,-0.28163400292396545
14.112619400024414,1.5238053,-0.10393942,-3.8240674,-1.797658649945213,nan,nan,nan,nan,4.110025405883789,0.0037016868591308594,0.11709955,-0.5532755,-0.07330519,-0.022822758090076056,-0.033343512307337786,9.348623048109003,-0.02364304,0.068343446,-0.22191088,1.4829752,-0.22279674,-3.0,-1.7268559,-0.09439627,-0.599955,0.0,0.015938235,0.026514605,9.814696,0.006269392,0.042911783,-0.4632427,-0.0017050788,0.720153454361187,-0.025456488132476807,0.05898448824882507,-0.3379974365234375
14.20296835899353,1.5384024,-0.16207293,-3.8326046,-1.8200829188182719,nan,nan,nan,nan,4.199289083480835,0.0032510757446289062,0.08962735,-0.5682746,-0.055411823,-0.025332581588585756,-0.026712328733454305,9.360282356184907,-0.040173095,0.070618466,-0.23734142,1.4735144,-0.2756784,-3.0,-1.7693185,-0.117551506,-0.58433336,0.0,0.01972035,0.026343755,9.815314,0.0075408453,0.041788805,-0.4892673,-0.002122337,0.7206086246768924,-0.02450229600071907,0.06515797227621078,-0.388784259557724
14.303158521652222,1.5494164,-0.21651936,-3.8381164,-1.8429170924335763,nan,nan,nan,nan,4.2994468212127686,0.003689289093017578,0.06305295,-0.5749774,-0.04013435,-0.028889771801929087,-0.02056355377144259,9.372380913239903,-0.048496485,0.069938265,-0.2676063,1.4604475,-0.33316544,-3.0,-1.8201258,-0.14333552,-0.5629216,0.0,0.0238312,0.026107917,9.816132,0.008754604,0.040250327,-0.5268251,-0.002586231,0.7210806433267614,-0.02123532071709633,0.06060627102851868,-0.45818713307380676
14.408448457717896,1.5574855,-0.2707145,-3.8412735,-1.8693201826313477,nan,nan,nan,nan,4.4047157764434814,0.0030202865600585938,0.03444941,-0.57415646,-0.02552183,-0.032872978999818114,-0.014887790184000771,9.383755712849089,-0.047415532,0.06671236,-0.3072654,1.4439442,-0.3910517,-3.0,-1.8781188,-0.17016242,-0.5361511,0.0,0.027969787,0.025810253,9.817109,0.009749394,0.03832795,-0.5768972,-0.0030679372,0.7215241471852822,-0.014675240963697433,0.05375396087765694,-0.5435714721679688
14.514233112335205,1.5619193,-0.32438308,-3.8427017,-1.9005203842008644,nan,nan,nan,nan,4.510936260223389,0.0036668777465820312,0.0033921085,-0.56653255,-0.01239533,-0.036723637467508397,-0.010160117042315564,9.397368490290834,-0.042150006,0.05839033,-0.3584031,1.4244463,-0.44637972,-3.0,-1.9426173,-0.19689661,-0.5049153,0.0,0.03192457,0.02545887,9.818183,0.0104280505,0.036086436,-0.6396834,-0.0035469036,0.7220545566955333,-0.00396357849240303,0.0501142181456089,-0.6424286961555481
14.604177236557007,1.5619555,-0.3811973,-3.8430407,-1.9410575832806316,nan,nan,nan,nan,4.60089373588562,0.004423379898071289,-0.032872505,-0.55118394,9.301926e-06,-0.040162350926845725,-0.0059526226071400234,9.407842173916292,-0.033847548,0.052984424,-0.4278989,1.4057269,-0.4904908,-3.0,-2.0029502,-0.21923494,-0.47532624,0.0,0.03507687,0.02512179,9.819137,0.010729379,0.033964522,-0.70332026,-0.003946236,0.7224623928175727,0.020083606243133545,0.05109716206789017,-0.7288364171981812
14.708931684494019,1.5582007,-0.42795077,-3.8430073,-1.9816053753533023,nan,nan,nan,nan,4.70529317855835,0.0024182796478271484,-0.06457581,-0.53345907,0.008848781,-0.04205841084274731,-0.003145873660384657,9.421919052493765,-0.016927097,0.04810224,-0.493589,1.3815024,-0.5381764,-3.0,-2.080766,-0.24476701,-0.43761626,0.0,0.038483836,0.024685957,9.820261,0.01075318,0.03126211,-0.78963417,-0.0044016475,0.7230101767765699,0.027386361733078957,0.049007855355739594,-0.8540629148483276
14.806898355484009,1.5498661,-0.48055232,-3.8423169,-2.0379509822080575,nan,nan,nan,nan,4.803676605224609,0.003372669219970703,-0.10129205,-0.5072043,0.01653115,-0.04257992371641328,-0.0005628305989915372,9.433740932536317,0.0024317945,0.044079803,-0.5857747,1.3562553,-0.5793549,-3.0,-2.1629384,-0.2684004,-0.39901206,0.0,0.04142518,0.024232145,9.821307,0.010453007,0.02849763,-0.8825424,-0.004822232,0.7234698942619848,0.03769337013363838,0.04970990866422653,-0.974934458732605
14.903271198272705,1.5394816,-0.52230597,-3.8410327,-2.0936947445824323,nan,nan,nan,nan,4.900010347366333,0.0031442642211914062,-0.13053377,-0.48136196,0.021115199,-0.04195368196052551,0.0011170172792340782,9.443372684014038,0.010127294,0.046659384,-0.6720029,1.3293023,-0.61586577,-3.0,-2.2526917,-0.2911,-0.3585853,0.0,0.04403251,0.023748118,9.822288,0.009862061,0.02560462,-0.981896,-0.0052253567,0.723844231308531,0.035326533019542694,0.042370397597551346,-1.1092029809951782
15.01387619972229,1.5197787,-0.57422984,-3.8388093,-2.1831384077732343,nan,nan,nan,nan,5.010594844818115,0.0038347244262695312,-0.16714254,-0.44165048,0.024253458,-0.040707244264744036,0.002139340673522838,9.45375508714934,0.012519607,0.032131553,-0.8026379,1.2956967,-0.6528221,-3.0,-2.3677843,-0.31657118,-0.30931693,0.0,0.046671048,0.023145193,9.823325,0.008839957,0.022081349,-1.0993998,-0.0056767934,0.7242475286197951,0.036165282130241394,0.04047078266739845,-1.253203272819519
15.110153198242188,1.4977444,-0.61473507,-3.837139,-2.27427472668282,nan,nan,nan,nan,5.1070568561553955,0.005735158920288086,-0.19646916,-0.40481952,0.023204865,-0.03979502735596796,0.0013923777395499215,9.460246802014307,0.009333165,0.014162588,-0.9269137,1.2641104,-0.68049634,-3.0,-2.4785516,-0.33823666,-0.2641592,0.0,0.04864646,0.022579035,9.824123,0.007673178,0.0188541,-1.1951734,-0.0060601137,0.7244995823044024,0.04074205458164215,0.027088651433587074,-1.3676435947418213
15.210867881774902,1.4759566,-0.6459197,-3.83582,-2.36174500346275,nan,nan,nan,nan,5.197098255157471,0.003315448760986328,-0.21963936,-0.3733295,0.021229165,-0.03882360575951749,-0.0008152891423831576,9.464851194215017,0.009044926,0.013681337,-1.0374615,1.2327632,-0.70232403,-3.0,-2.5896132,-0.35796267,-0.22044493,0.0,0.05020427,0.022017607,9.824758,0.0063795266,0.015731612,-1.2681743,-0.0064086784,0.7246783045309676,0.035626109689474106,0.017933113500475883,-1.4618791341781616
15.310917854309082,1.4513024,-0.67461747,-3.834675,-2.4587820907887856,nan,nan,nan,nan,5.307491779327393,0.0018603801727294922,-0.24215771,-0.34271726,0.017618136,-0.038289064257974736,-0.004252649143688059,9.472286652815537,0.0023722968,-0.0050337478,-1.1502693,1.1919427,-0.72362363,-3.0,-2.7329705,-0.38144964,-0.16516545,0.0,0.05172416,0.021287113,9.825364,0.0045671877,0.011784875,-1.3211219,-0.006823302,0.724966824528657,0.009829048998653889,0.018670037388801575,-1.558319330215454
15.402669668197632,1.4190394,-0.70539063,-3.8340142,-2.5858573654324952,nan,nan,nan,nan,5.399049282073975,0.002972841262817383,-0.26874366,-0.30753472,0.012518686,-0.03784958876720168,-0.009471830964402628,9.478104705889717,-0.00888881,-0.0080086915,-1.2802136,1.1561503,-0.7366034,-3.0,-2.8544211,-0.40031263,-0.11822634,0.0,0.05265024,0.020647075,9.825707,0.0029156257,0.008434862,-1.3254807,-0.0071561146,0.7251925049657033,0.00584062933921814,0.024352911859750748,-1.5531193017959595
15.502713441848755,1.386227,-0.7307457,-3.8341863,-2.7141080730232674,nan,nan,nan,nan,5.499002456665039,0.002063751220703125,-0.29398742,-0.27519608,0.008046677,-0.0374630954725963,-0.015003472985426702,9.48188295618166,-0.009746956,-0.021933468,-1.383408,1.1151364,-0.74582565,-3.0,-2.9853468,-0.42023215,-0.0661991,0.0,0.053308185,0.019914133,9.825904,0.0010068452,0.004722648,-1.2870272,-0.007507549,0.725339025004023,-0.008816361427307129,0.012788830325007439,-1.5128710269927979
15.60189700126648,1.350694,-0.7534459,-3.8347952,-2.850505097583989,nan,nan,nan,nan,5.5982794761657715,0.0019037723541259766,-0.32067794,-0.24335144,0.0057453844,-0.035994274116963654,-0.021980403536460136,9.484248920665129,-0.007191716,-0.03121702,-1.4566394,1.0724647,-0.7498121,-3.0,-3.1095893,-0.43928796,-0.0140635045,0.0,0.053592574,0.019152,9.825908,-0.00094746915,0.0010032606,-1.2104279,-0.007843886,0.7254307619252721,-0.029017044231295586,0.0060104988515377045,-1.4188587665557861
15.702581882476807,1.3092003,-0.77563655,-3.835705,-3.0035222572481253,nan,nan,nan,nan,5.698934078216553,0.002236604690551758,-0.35164106,-0.21056683,0.0062185354,-0.0326957761059441,-0.030122519529379943,9.48570730695036,-0.003722553,-0.038287885,-1.4897962,1.0273086,-0.7485618,-3.0,3.0568464,-0.4578325,0.0388927,0.0,0.05350338,0.01834588,9.825711,-0.00293317,-0.0027745496,-1.1060876,-0.008171503,0.7254873030872585,-0.055020369589328766,0.0004425002261996269,-1.2729524374008179
15.806617736816406,1.2679718,-0.7943584,-3.8365653,-3.144945944721672,nan,nan,nan,nan,5.802964687347412,0.003376007080078125,-0.38242632,-0.1818466,0.008774738,-0.02846882320960642,-0.038037753276768616,9.486909324484884,-0.0039212364,-0.06350209,-1.4715186,0.97871983,-0.7416798,-3.0,2.9480336,-0.4761436,0.09333044,0.0,0.05301241,0.01747881,9.825302,-0.004930485,-0.0066584093,-0.9847126,-0.0084954705,0.7255339016486977,-0.08940190821886063,-0.025531461462378502,-1.1141151189804077
15.910670518875122,1.2238894,-0.81149304,-3.8374655,-3.2823549771957063,nan,nan,nan,nan,5.897729158401489,0.002033233642578125,-0.41744035,-0.15386692,0.012016798,-0.02421625591967369,-0.047813236957490624,9.48767707844731,-0.01897737,-0.08326231,-1.4156008,0.9328393,-0.7305086,-3.0,2.8600435,-0.4920377,0.14231324,0.0,0.0522154,0.016660294,9.824752,-0.006650492,-0.010153807,-0.8727671,-0.008777212,0.7255636635882021,-0.11982271820306778,-0.06729258596897125,-0.9823554754257202
16.00506567955017,1.1743573,-0.8271513,-3.838278,-3.41767610565909,nan,nan,nan,nan,6.001322269439697,0.002177000045776367,-0.46038082,-0.123032026,0.0154567715,-0.01974935302447367,-0.05937844086311994,9.489354032310665,-0.034842055,-0.089491054,-1.3223209,0.8810053,-0.7130351,-3.0,2.775727,-0.50852495,0.19482328,0.0,0.050968613,0.015735717,9.823973,-0.008369259,-0.013902098,-0.7565846,-0.009070154,0.725628666423787,-0.1423523873090744,-0.022635038942098618,-0.774534285068512
16.106857776641846,1.1264907,-0.83823276,-3.8389266,-3.527538010129926,nan,nan,nan,nan,6.103565216064453,0.004817008972167969,-0.50394,-0.091930754,0.016872987,-0.016993185078319817,-0.06850394348758249,9.490955041698186,-0.047836974,-0.09003629,-1.2131474,0.82822025,-0.69052607,-3.0,2.7037983,-0.5238586,0.24521242,0.0,0.049362294,0.014794254,9.823039,-0.009850629,-0.01750056,-0.6523481,-0.009343377,0.7256907201064979,-0.16061054170131683,-0.036508701741695404,-0.6293926239013672
16.205687999725342,1.0688924,-0.84649366,-3.8400195,-3.635318816769084,nan,nan,nan,nan,6.202088832855225,0.0026497840881347656,-0.55683404,-0.05111736,0.01734251,-0.015411163700864927,-0.07689031534411073,9.492124019986953,-0.07713508,-0.056448556,-1.0740618,0.7759172,-0.6640434,-3.0,2.6440153,-0.53772587,0.29207176,0.0,0.047472082,0.013861372,9.822008,-0.011034349,-0.020848688,-0.56307036,-0.009591246,0.725736025346891,-0.17092303931713104,-0.017316991463303566,-0.48935672640800476
16.30989980697632,0.9945286,-0.8494258,-3.8414443,-3.7433588889981966,nan,nan,nan,nan,6.306174278259277,0.0019321441650390625,-0.6198005,0.007434678,0.017150346,-0.01600495313912975,-0.08354954871307285,9.493096983111467,-0.08373033,-0.03628413,-0.8990382,0.71922827,-0.6311586,-3.0,2.5898082,-0.5513808,0.3394097,0.0,0.04512444,0.012850165,9.820807,-0.01198775,-0.024233038,-0.48044962,-0.009836157,0.7257737316430574,-0.16428938508033752,0.020427923649549484,-0.35113298892974854
16.407758712768555,0.92468786,-0.845472,-3.842559,-3.820215049420632,nan,nan,nan,nan,6.404536724090576,0.0029773712158203125,-0.6717244,0.06614549,0.016806304,-0.018326118709227623,-0.08682148651987842,9.49367387100589,-0.09620575,-0.014450632,-0.75049335,0.66439795,-0.59566945,-3.0,2.5459697,-0.5633223,0.38178053,0.0,0.042590313,0.011871952,9.819596,-0.012581148,-0.027264277,-0.4124452,-0.010051119,0.7257960874933801,-0.1466013789176941,0.026861678808927536,-0.24877002835273743
16.505659580230713,0.8496128,-0.83543175,-3.8434827,-3.882694651148728,nan,nan,nan,nan,6.502386808395386,0.003726959228515625,-0.71946883,0.1312208,0.0168719,-0.02144776511715385,-0.08874543848460559,9.493858846141961,-0.08805767,-0.0066521834,-0.60659534,0.608734,-0.55635357,-3.0,2.5085702,-0.5742529,0.4213604,0.0,0.039782304,0.010878646,9.81835,-0.012856991,-0.030097779,-0.3532823,-0.010248595,0.7258032555992312,-0.13951988518238068,0.049161262810230255,-0.16429227590560913
16.603299379348755,0.77011544,-0.81917804,-3.8441017,-3.9316907802910173,nan,nan,nan,nan,6.599632501602173,0.0022346973419189453,-0.76135445,0.20096128,0.017853085,-0.025590431712219308,-0.08809002485161344,9.493751452784055,-0.09478861,0.026029535,-0.4753832,0.5524014,-0.51357853,-3.0,2.476779,-0.5841602,0.45789215,0.0,0.036726516,0.009873155,9.817099,-0.012811387,-0.032714892,-0.3016459,-0.01042824,0.725799093929718,-0.13347844779491425,0.06818956881761551,-0.09745362401008606
16.709972620010376,0.6938307,-0.7980338,-3.8447301,-3.9660282943077627,nan,nan,nan,nan,6.706552505493164,0.0035092830657958984,-0.79296815,0.2675178,0.019089442,-0.03084491251090138,-0.08529044373683026,9.493553881463594,-0.09861193,0.056470565,-0.36778265,0.48940971,-0.46262705,-3.0,2.4472528,-0.5939342,0.4945443,0.0,0.03308573,0.008748467,9.815748,-0.012392878,-0.03534255,-0.25174758,-0.010606123,0.725791437654133,-0.13249564170837402,0.05820469558238983,-0.04569543898105621
16.823415756225586,0.58573306,-0.75888103,-3.8457506,-3.9986665477242074,nan,nan,nan,nan,6.820852518081665,0.0021877288818359375,-0.82243454,0.3608441,0.022618715,-0.0400884888659887,-0.07892005888808784,9.49339037539903,-0.106464006,0.06922278,-0.24028295,0.42098826,-0.40406772,-3.0,2.4212132,-0.6030649,0.529334,0.0,0.02890024,0.007526423,9.814377,-0.011531233,-0.037838615,-0.20488754,-0.010772946,0.7257851014136786,-0.10781629383563995,0.08815470337867737,0.002260267734527588
16.90711736679077,0.4976492,-0.71939677,-3.846547,-4.0150759394447295,nan,nan,nan,nan,6.903777360916138,0.003729104995727539,-0.83297724,0.43598396,0.02604659,-0.04895819550192382,-0.07294089890814193,9.493426064536905,-0.10393342,0.08525053,-0.15729304,0.37073538,-0.3592335,-3.0,2.4055092,-0.60882527,0.5515549,0.0,0.025695048,0.00662861,9.813456,-0.010653397,-0.039433945,-0.17428444,-0.010878533,0.7257864844554693,-0.07003083825111389,0.11264291405677795,0.029638484120368958
17.011925220489502,0.4100327,-0.672846,-3.8471735,-4.024890663709697,nan,nan,nan,nan,7.008372068405151,0.002496004104614258,-0.8314364,0.51043606,0.03071165,-0.05685620493686816,-0.06428684302746301,9.493965687914754,-0.07895689,0.10009044,-0.08865473,0.30671978,-0.30023903,-3.0,2.389157,-0.6150426,0.57577604,0.0,0.021476751,0.0054846057,9.812411,-0.009269864,-0.041173846,-0.1389342,-0.010992808,0.7258073958705556,-0.03632371500134468,0.10152272880077362,0.05299490690231323
17.112507104873657,0.31713453,-0.61449057,-3.8479164,-4.029525919574721,nan,nan,nan,nan,7.108767747879028,0.0019397735595703125,-0.8164158,0.58707947,0.03595688,-0.06250826244862995,-0.05391812628310455,9.494844124200757,-0.044081584,0.1017191,-0.028586905,0.24471943,-0.24144065,-3.0,2.3767958,-0.6199003,0.594871,0.0,0.017271712,0.0043763206,9.811558,-0.0076865708,-0.042546265,-0.10770304,-0.011082327,0.7258414356483864,0.003767766058444977,0.09842521697282791,0.06892343610525131
17.20331883430481,0.25463194,-0.56922895,-3.8482578,-4.029806593751832,nan,nan,nan,nan,7.2001354694366455,0.0036611557006835938,-0.79947233,0.6369089,0.039648212,-0.06444671235624488,-0.04666097198712582,9.496261709169488,-0.012275523,0.10266933,0.005279182,0.187915,-0.18643457,-3.0,2.3681846,-0.62336856,0.6085966,0.0,0.013337331,0.003360697,9.810928,-0.0060642394,-0.043533187,-0.0810294,-0.011146374,0.7258963643451246,0.0219794400036335,0.07280313223600388,0.08253492414951324
17.309560537338257,0.16827735,-0.49734902,-3.84816,-4.02692621458972,nan,nan,nan,nan,7.3062825202941895,0.0034723281860351562,-0.7675884,0.7020001,0.045295738,-0.06373875465959933,-0.03655242100500633,9.497767552086154,0.022917088,0.0883115,0.044587046,0.121582136,-0.121182084,-3.0,2.36116,-0.62625116,0.6200626,0.0,0.008669534,0.0021745076,9.810392,-0.004011723,-0.044357914,-0.051547345,-0.011199689,0.7259547083774848,0.05597199127078056,0.059423960745334625,0.09383635222911835
17.410333156585693,0.08735433,-0.41975367,-3.847247,-4.021432865271502,nan,nan,nan,nan,7.407060861587524,0.004140615463256836,-0.7307505,0.7569772,0.051064074,-0.059622562423162995,-0.027809136055402917,9.499361776323061,0.05714662,0.07792254,0.072311595,0.058380388,-0.058336154,-3.0,2.3573327,-0.6278425,0.626415,0.0,0.0041735293,0.00104417,9.810091,-0.0019498802,-0.044814937,-0.024522375,-0.011229156,0.726016471712747,0.08185262233018875,0.05436764657497406,0.10319183766841888
17.503313779830933,0.023541102,-0.35039565,-3.8453372,-4.015306552031218,nan,nan,nan,nan,7.499584197998047,0.0023872852325439453,-0.6975249,0.79479736,0.05576285,-0.05366481361877762,-0.020960458551185335,9.501790828914382,0.08212647,0.06752492,0.092545785,0.0002609372,-0.0002609372,-3.0,2.3561945,-0.62831855,0.6283185,0.0,1.8668276e-05,4.667069e-06,9.81,-8.746821e-06,-0.044951897,-0.00010930114,-0.011237975,0.7261105679523107,0.09559725224971771,0.04029872640967369,0.1136104092001915
17.60299301147461,-0.047215436,-0.2646298,-3.842109,-4.006445055954183,nan,nan,nan,nan,7.599248170852661,0.00213623046875,-0.6598347,0.8289092,0.061185084,-0.04418524098951271,-0.01427735355512727,9.504932027128525,0.10135485,0.05031311,0.10914983,-0.062341742,0.06228788,-3.0,2.3574927,-0.62777567,0.6261479,0.0,-0.004456243,-0.0011150201,9.810103,0.0020811278,-0.044795718,0.026196547,-0.011227919,0.7262322333399904,0.10185690224170685,0.03253839164972305,0.1247464045882225
17.720293283462524,-0.119345434,-0.1685221,-3.8377073,-3.9948711288911225,nan,nan,nan,nan,7.716651678085327,0.0020835399627685547,-0.6252845,0.85324925,0.06616826,-0.032397092059053056,-0.008971817532800852,9.508874850799327,0.110091306,0.039130505,0.125332,-0.1359401,0.13538072,-3.0,2.362414,-0.625733,0.6179975,0.0,-0.009685263,-0.002431278,9.81049,0.0044676866,-0.04420936,0.057809886,-0.011190099,0.7263849189611767,0.10005778074264526,0.030339930206537247,0.14299820363521576
17.80873966217041,-0.16934428,-0.09865813,-3.8343499,-3.9851035047013523,nan,nan,nan,nan,7.796762943267822,0.0022783279418945312,-0.60550976,0.86280084,0.06893266,-0.023869357617766207,-0.006148960949865279,9.511991995763964,0.10607382,0.028146397,0.13531607,-0.18598245,0.18454735,-3.0,2.3679347,-0.62347025,0.60900015,0.0,-0.013202336,-0.0033261413,9.81091,0.006006602,-0.043562204,0.08014816,-0.011148252,0.7265056078171807,0.08835051953792572,0.009554117918014526,0.16234973073005676
17.902479887008667,-0.22382535,-0.02137906,-3.830157,-3.972779025394658,nan,nan,nan,nan,7.898882627487183,0.0020873546600341797,-0.5893336,0.8667014,0.0723947,-0.015096442091058648,-0.003799010445144191,9.516279405844395,0.09620032,0.0215219,0.14895082,-0.24946159,0.24598758,-3.0,2.3776286,-0.6195685,0.5935622,0.0,-0.017596917,-0.0044610985,9.811617,0.007815118,-0.042452175,0.11000558,-0.011076207,0.7266715744109981,0.07068805396556854,0.028387121856212616,0.18145881593227386
18.002119779586792,-0.2779219,0.0556475,-3.82558,-3.958885024396576,nan,nan,nan,nan,7.9984331130981445,0.002380847930908203,-0.57835037,0.86416227,0.07537471,-0.007216209908607718,-0.0014936641778475757,9.521262930822557,0.08364094,0.025938805,0.16159093,-0.31090492,0.30415326,-3.0,2.3901103,-0.61467385,0.57433236,0.0,-0.021756656,-0.005559408,9.812474,0.009368614,-0.041070115,0.14113931,-0.010986021,0.7268644407887559,0.05290859565138817,0.03167024254798889,0.20791569352149963
18.107553243637085,-0.34123772,0.14602813,-3.8198292,-3.940443000812016,nan,nan,nan,nan,8.103948593139648,0.0022509098052978516,-0.5695868,0.8541081,0.07794699,0.0002947740657575082,0.0017483323994591515,9.527993061882443,0.05990538,0.038087737,0.18297127,-0.37543786,0.36348784,-3.0,2.4068666,-0.6083194,0.54959524,0.0,-0.025999215,-0.0067126346,9.813538,0.010743718,-0.039293215,0.17703135,-0.01086925,0.7271248221189662,0.034228742122650146,0.04176649451255798,0.23776888847351074
18.208557605743408,-0.3949386,0.22133076,-3.8146708,-3.923034812950708,nan,nan,nan,nan,8.204872131347656,0.001997232437133789,-0.5644722,0.8400264,0.07973502,0.005126356718235803,0.005116016799606271,9.534459186014717,0.047114097,0.040677283,0.20241234,-0.43647784,0.41759035,-3.0,2.4266124,-0.60112965,0.5219161,0.0,-0.029866856,-0.0078031127,9.814676,0.011761312,-0.037306238,0.21492457,-0.0107375365,0.7273749027068149,0.024735871702432632,0.04187837243080139,0.2740577459335327
18.31033945083618,-0.45311543,0.30183303,-3.8088114,-3.9020787207008514,nan,nan,nan,nan,8.306605100631714,0.0023794174194335938,-0.55886066,0.8192168,0.08145893,0.009201622971899193,0.008937793844221442,9.540549856466237,0.035432078,0.043426882,0.22512661,-0.497218,0.46910667,-3.0,2.4506037,-0.59279513,0.49024162,0.0,-0.03354879,-0.008887901,9.815911,0.012464959,-0.03503398,0.25754544,-0.010585358,0.7276103848897214,0.017568763345479965,0.04423390328884125,0.31502801179885864
18.402122974395752,-0.5170135,0.38922444,-3.8016622,-3.8758712011990477,nan,nan,nan,nan,8.398421049118042,0.0034661293029785156,-0.5512898,0.79028136,0.08254311,0.012884641706332856,0.013246325592103592,9.547683902797289,0.029388102,0.044917934,0.2562565,-0.551265,0.5126872,-3.0,2.4761934,-0.58434856,0.45859262,0.0,-0.036662836,-0.009852867,9.817074,0.012807205,-0.03276509,0.3006779,-0.010431659,0.7278861113101314,0.011549003422260284,0.051239144057035446,0.35241734981536865
18.511454582214355,-0.5776732,0.46967822,-3.7944648,-3.8474728486106864,nan,nan,nan,nan,8.508184909820557,0.0034682750701904297,-0.5422249,0.7569053,0.08267567,0.01603358474108596,0.01773816435884923,9.554077259567567,0.025162596,0.045755737,0.29203704,-0.6147996,0.5607867,-3.0,2.5123372,-0.573118,0.41721553,0.0,-0.040098958,-0.010986897,9.818485,0.012842649,-0.029800951,0.35930514,-0.010228059,0.7281331230319568,0.013618048280477524,0.04337259382009506,0.4133685231208801
18.610711336135864,-0.6190465,0.52286196,-3.7893555,-3.8257265900597455,nan,nan,nan,nan,8.60708498954773,0.002014636993408203,-0.53480875,0.73056966,0.08215509,0.01842993114087954,0.020404320962778222,9.560544395563191,0.028804619,0.03975203,0.31857404,-0.6709379,0.6000788,-3.0,2.5508077,-0.5619606,0.37690306,0.0,-0.0429052,-0.011988639,9.819742,0.012527275,-0.026915234,0.4200112,-0.010026566,0.7283829011958657,0.02359817549586296,0.03181081265211105,0.48716312646865845
18.702031135559082,-0.66832495,0.5846243,-3.782594,-3.7963835447165275,nan,nan,nan,nan,8.698711395263672,0.0030455589294433594,-0.5245542,0.6951033,0.08141249,0.02194509972079861,0.022894261269956084,9.566034752097911,0.037636034,0.030162541,0.3594753,-0.72192127,0.63281196,-3.0,2.592165,-0.55076295,0.33724213,0.0,-0.04524248,-0.012898208,9.820866,0.011950283,-0.024078023,0.4840735,-0.009825057,0.7285948872169071,0.024017605930566788,0.028557099401950836,0.5597141981124878
18.80599355697632,-0.72063076,0.6475133,-3.7751167,-3.7601489360671243,nan,nan,nan,nan,8.80229139328003,0.003221273422241211,-0.5131484,0.6520961,0.079575375,0.026477811536496754,0.024630495349371007,9.57137926470954,0.042924333,0.02289884,0.41017038,-0.7782725,0.66531897,-3.0,2.646491,-0.5371284,0.29002732,0.0,-0.047563132,-0.013903384,9.822057,0.010987274,-0.020702569,0.5668076,-0.009580549,0.728801183691456,0.023868108168244362,0.026025820523500443,0.6577754020690918
18.911860466003418,-0.77952814,0.71393853,-3.7665231,-3.7110435209502293,nan,nan,nan,nan,8.908251762390137,0.0027320384979248047,-0.5001238,0.59610206,0.07610572,0.03288315483301307,0.025430306870180663,9.577125308257527,0.047147766,0.0156111,0.48481926,-0.83440125,0.6933902,-3.0,2.7115755,-0.5221348,0.23947287,0.0,-0.0495667,-0.014904496,9.823154,0.009691807,-0.01709059,0.6638021,-0.0093126185,0.7290229148920708,0.010815931484103203,0.025846581906080246,0.7690803408622742
19.013126850128174,-0.8245594,0.7610166,-3.760288,-3.666064925301722,nan,nan,nan,nan,9.010087251663208,0.003626585006713867,-0.49067682,0.5479912,0.07197408,0.038331696255690106,0.025250143138492387,9.582801550072617,0.049360607,0.011544958,0.5568785,-0.88679785,0.7152256,-3.0,2.7844305,-0.5067553,0.1891041,0.0,-0.051124923,-0.015839035,9.824067,0.008189792,-0.013493776,0.7689103,-0.009038673,0.7292418872485377,0.010936617851257324,0.021786317229270935,0.9012576341629028
19.114908456802368,-0.8768649,0.81061727,-3.7534902,-3.604233312994247,nan,nan,nan,nan,9.111679315567017,0.00501704216003418,-0.48145726,0.48662707,0.065353446,0.04463750736337668,0.024089070817576275,9.584903797549194,0.041829523,0.015040503,0.6524067,-0.9374619,0.73182505,-3.0,2.8683074,-0.49049377,0.1374846,0.0,-0.052309327,-0.016742753,9.824814,0.0064852675,-0.009809195,0.88372546,-0.008749818,0.7293229691827432,-0.004280111752450466,0.026872584596276283,1.0390942096710205
19.208634853363037,-0.91280955,0.8411757,-3.7493336,-3.555270257866723,nan,nan,nan,nan,9.20546555519104,0.0033843517303466797,-0.47565868,0.44198516,0.059582774,0.049049339236683975,0.022649670377441034,9.587027007979339,0.0384251,0.017710682,0.7253218,-0.9827281,0.7424482,-3.0,2.956378,-0.47469276,0.0889394,0.0,-0.05306723,-0.017550327,9.825343,0.004772132,-0.006345105,0.99474,-0.008469779,0.7294048506158606,0.006279881577938795,0.02486279234290123,1.189871072769165
19.313658237457275,-0.9723334,0.8847811,-3.7442315,-3.4608671820538577,nan,nan,nan,nan,9.310407638549805,0.0035393238067626953,-0.46725282,0.3632803,0.046106573,0.05611480680918057,0.0189948684791188,9.588467555660753,0.039915312,0.01010052,0.86727476,-1.0315782,0.7489022,-3.0,3.0672295,-0.45614493,0.033983044,0.0,-0.05352766,-0.018422084,9.825738,0.00275017,-0.0024242955,1.1165247,-0.008141673,0.7294604000543355,-0.02407611906528473,0.04438362270593643,1.3319363594055176
19.413804531097412,-1.0194749,0.91244525,-3.742051,-3.3721386848682284,nan,nan,nan,nan,9.410509824752808,0.003595113754272461,-0.46071747,0.29661095,0.032699853,0.06126221321697911,0.015685693849421423,9.588197390066924,0.041716225,0.01209746,0.9988397,-1.0763195,0.7496681,-3.0,-3.0989125,-0.43763068,-0.01868955,0.0,-0.0535823,-0.019220833,9.825914,0.00077343447,0.0013332744,1.2184671,-0.007814625,0.7294499824269001,-0.022961914539337158,0.03717061132192612,1.464644432067871
19.50472855567932,-1.0582588,0.9306013,-3.7416694,-3.2883325036250532,nan,nan,nan,nan,9.501456022262573,0.0037469863891601562,-0.45494416,0.23909053,0.019858297,0.0655825137590611,0.0115064455365399,9.586174086148386,0.036257662,0.01590926,1.1126126,-1.1153297,0.74579513,-3.0,-2.9847543,-0.42014202,-0.066440046,0.0,-0.05330601,-0.019917587,9.825904,-0.0010158125,0.004739838,1.2873012,-0.0075059584,0.729371958846293,-0.016507279127836227,0.03492722287774086,1.5668892860412598
19.612014293670654,-1.111582,0.9485273,-3.7433116,-3.155448425033952,nan,nan,nan,nan,9.608317613601685,0.0021486282348632812,-0.44557926,0.1559607,0.0016075812,0.07022040931097862,0.0037266184161193205,9.58109456375474,0.025421744,0.012631025,1.2714021,-1.1590945,0.7357182,-3.0,-2.8446503,-0.39881596,-0.1220334,0.0,-0.052587084,-0.02069971,9.8256855,-0.0030525436,0.008706535,1.3265543,-0.0071297097,0.7291760436651089,-0.02632010355591774,0.054979849606752396,1.6207764148712158
19.719007968902588,-1.1566734,0.9566401,-3.7464197,-3.0279599014544623,nan,nan,nan,nan,9.715390920639038,0.0024802684783935547,-0.43622148,0.08316082,-0.012887158,0.07223622592572432,-0.003929130272088077,9.571796539279164,0.020622905,-0.0043393443,1.3945946,-1.2006171,0.7197112,-3.0,-2.7028127,-0.37664622,-0.1767566,0.0,-0.051444992,-0.02144229,9.825255,-0.004960776,0.01261229,1.3141568,-0.0067385314,0.7288172879318966,-0.001130758784711361,0.04229643568396568,1.6281564235687256
19.80723810195923,-1.1935478,0.9583241,-3.749986,-2.9133215397122485,nan,nan,nan,nan,9.804479598999023,0.0036487579345703125,-0.4276019,0.022273231,-0.022943944,0.07313951092378401,-0.011975900930640826,9.565201648625079,0.022102654,-0.0007762972,1.4822487,-1.2333282,0.7019753,-3.0,-2.5876112,-0.357621,-0.22122322,0.0,-0.05017938,-0.022027725,9.824748,-0.006403757,0.015787194,1.2670912,-0.0064026434,0.728562724498538,0.02159755863249302,0.025347480550408363,1.5873053073883057
19.90357732772827,-1.2412258,0.9533771,-3.7557814,-2.7491765465819347,nan,nan,nan,nan,9.899965524673462,0.0027828216552734375,-0.41500732,-0.06035614,-0.032385845,0.07257365110985625,-0.025408735660145343,9.55344338134164,0.020167362,-0.016116116,1.5611986,-1.2664807,0.6786293,-3.0,-2.47018,-0.33667737,-0.26750904,0.0,-0.048513196,-0.022621503,9.824069,-0.0077661495,0.019093439,1.1886704,-0.0060325433,0.7281086364037501,0.022978946566581726,0.04569987952709198,1.4744462966918945
20.0105140209198,-1.2846943,0.94094366,-3.7616746,-2.5849677955852264,nan,nan,nan,nan,10.007254838943481,0.00442194938659668,-0.4021858,-0.13977185,-0.036698002,0.06851679951099898,-0.03763192486992728,9.540538897069633,0.008728978,-0.023931805,1.5869948,-1.3013114,0.6472278,-3.0,-2.3483267,-0.31250417,-0.31746075,0.0,-0.04627168,-0.023245884,9.823166,-0.009028653,0.022663554,1.0806273,-0.005604772,0.7276099612366201,0.05211767554283142,0.028391586616635323,1.3340481519699097
20.110804557800293,-1.3195897,0.92488015,-3.7662594,-2.4453874950111425,nan,nan,nan,nan,10.107537984848022,0.0038094520568847656,-0.39065167,-0.20587818,-0.03686134,0.0632457213621278,-0.04729673035843662,9.531859299915373,0.00038655117,-0.014829964,1.5680073,-1.3314934,0.61314607,-3.0,-2.2453086,-0.28933758,-0.3618415,0.0,-0.043838315,-0.02378745,9.822213,-0.00991871,0.025837572,0.97390884,-0.0051940857,0.72727436100699,0.0809495598077774,-0.00558489840477705,1.197623610496521
20.209948539733887,-1.3585594,0.8990367,-3.7708313,-2.2844530295299417,nan,nan,nan,nan,10.206687450408936,0.0035483837127685547,-0.3770871,-0.2837625,-0.03502668,0.05571010866080739,-0.05948678011225894,9.523753504606423,0.009640439,-0.034767024,1.5041646,-1.3590246,0.57519704,-3.0,-2.1538434,-0.26593113,-0.4032118,0.0,-0.04112822,-0.024281904,9.821198,-0.01049926,0.028798284,0.872282,-0.004778331,0.7269608090580459,0.0923389121890068,0.007366875186562538,1.0381971597671509
20.320749282836914,-1.3873125,0.87370014,-3.7738674,-2.1661986807050915,nan,nan,nan,nan,10.31702470779419,0.0018954277038574219,-0.36769623,-0.34473786,-0.033145074,0.04962183705421097,-0.06749179857467147,9.517415836381256,0.018037952,-0.009891248,1.4301317,-1.386905,0.52831554,-3.0,-2.0633612,-0.23934619,-0.44596964,0.0,-0.03777938,-0.02478312,9.820022,-0.010777778,0.031860564,0.77006793,-0.0043050474,0.7267155596201735,0.12295077741146088,-0.022666199132800102,0.9156492352485657
20.40363574028015,-1.423681,0.8333589,-3.777643,-2.0227774652530637,nan,nan,nan,nan,10.400156259536743,0.0021708011627197266,-0.3554916,-0.42592922,-0.030744975,0.04158101406817771,-0.07653292904082032,9.5104282114678,0.030402243,-0.021737428,1.3097932,-1.4059573,0.48999068,-3.0,-2.0022109,-0.21897551,-0.4756881,0.0,-0.035041135,-0.025125936,9.819126,-0.010727345,0.03399047,0.7025189,-0.0039416016,0.726445064071734,0.11109176278114319,0.029826218262314796,0.7756624221801758
20.508644580841064,-1.4613682,0.7799121,-3.7813232,-1.8835770833330396,nan,nan,nan,nan,10.505093336105347,0.0022711753845214844,-0.3406352,-0.5151991,-0.027910816,0.03419669013933091,-0.08171532852006336,9.503317865359126,0.024806704,0.0029705411,1.1618569,-1.4275708,0.438245,-3.0,-1.9324452,-0.19288534,-0.50989217,0.0,-0.031343173,-0.025515158,9.818017,-0.010347611,0.03644348,0.62937,-0.0034751098,0.7261697158816935,0.10460571944713593,0.06968756765127182,0.6384825706481934
20.60584855079651,-1.4872022,0.73568654,-3.7838814,-1.7946516821592624,nan,nan,nan,nan,10.60216474533081,0.0021615028381347656,-0.32829806,-0.57785875,-0.026183505,0.02931637779464391,-0.08240919294572602,9.4984193466627,0.024961045,0.029554503,1.0510876,-1.4451094,0.38735506,-3.0,-1.8741606,-0.16841798,-0.5380312,0.0,-0.027705519,-0.025831262,9.817041,-0.009693839,0.038462922,0.5732674,-0.0030366455,0.7259799607883972,0.11593754589557648,0.06522905826568604,0.5526749491691589
20.70741891860962,-1.5236745,0.6600392,-3.7878182,-1.677808163858443,nan,nan,nan,nan,10.703751802444458,0.0018372535705566406,-0.30588984,-0.6673108,-0.023775436,0.024296000078938174,-0.07988858769042428,9.492246088462412,0.052778084,0.06581141,0.8879526,-1.460905,0.33136302,-3.0,-1.8184422,-0.14251545,-0.5636677,0.0,-0.023702322,-0.026116164,9.816104,-0.008719673,0.040303927,0.5254791,-0.0025714901,0.7257407561050452,0.12032569944858551,0.12701807916164398,0.4427642226219177
20.803219318389893,-1.5483112,0.5977351,-3.790829,-1.604225356746046,nan,nan,nan,nan,10.79946780204773,0.002282381057739258,-0.2843716,-0.72674245,-0.021424644,0.024421442653381198,-0.07374514892052053,9.486126793103754,0.07032055,0.09258188,0.77528995,-1.4733684,0.27640337,-3.0,-1.769926,-0.117872335,-0.5840929,0.0,-0.019772198,-0.02634112,9.815323,-0.007557335,0.041771527,0.48967683,-0.0021281145,0.7255035656240806,0.12257170677185059,0.11935427039861679,0.37581026554107666
20.903619050979614,-1.5710319,0.5306622,-3.7939117,-1.540292338641767,nan,nan,nan,nan,10.900339603424072,0.002813100814819336,-0.25795162,-0.7782043,-0.018634267,0.026985129806930908,-0.06597157063195858,9.480694595503152,0.08544652,0.11254526,0.66946304,-1.4839396,0.2165694,-3.0,-1.7220675,-0.09169818,-0.60155326,0.0,-0.015492823,-0.026532024,9.814632,-0.0061115697,0.043026704,0.4606447,-0.0016564233,0.7252929436840891,0.13107244670391083,0.10869204252958298,0.3235827088356018
21.005481481552124,-1.596013,0.4394819,-3.7981946,-1.4716028671717218,nan,nan,nan,nan,11.001834869384766,0.001840353012084961,-0.21541922,-0.8298328,-0.014713164,0.033465389844062665,-0.05491825460707456,9.477562779600262,0.10304284,0.11178292,0.5483891,-1.4919031,0.1548049,-3.0,-1.6764483,-0.065196455,-0.61478853,0.0,-0.011074781,-0.026675902,9.814094,-0.004471655,0.043978527,0.43958423,-0.0011781763,0.7251714867424478,0.10886795818805695,0.10826398432254791,0.2679949700832367
21.107707738876343,-1.6124996,0.35770187,-3.8009694,-1.4224210764475793,nan,nan,nan,nan,11.104472637176514,0.0036559104919433594,-0.17039432,-0.8613255,-0.010070488,0.04098073820345893,-0.04641227212384691,9.47562350582564,0.10478876,0.095044956,0.4599408,-1.497214,0.0912105,-3.0,-1.6320951,-0.03827726,-0.62365484,0.0,-0.006525397,-0.026771892,9.813726,-0.0026753736,0.04461635,0.4259231,-0.0006919047,0.7250962684740286,0.09280169010162354,0.09018001705408096,0.24012808501720428
21.203659296035767,-1.6230567,0.27408448,-3.8029263,-1.3806413692637618,nan,nan,nan,nan,11.200439929962158,0.002086162567138672,-0.11709979,-0.881851,-0.004654398,0.04882272682036115,-0.03930639258522084,9.47540810693055,0.09058833,0.08806364,0.3876662,-1.4996768,0.03113041,-3.0,-1.5915693,-0.0130426865,-0.62777704,0.0,-0.0022271646,-0.026816413,9.813553,-0.00091956987,0.044912938,0.41969192,-0.00023579164,0.7250879133603118,0.06000235676765442,0.0843726322054863,0.2249106466770172
21.310829401016235,-1.6270647,0.18956356,-3.8045905,-1.344745324634692,nan,nan,nan,nan,11.307207107543945,0.0021491050720214844,-0.057127327,-0.89184165,0.0013930869,0.055213897862346206,-0.032814727967173773,9.477011347813528,0.0645966,0.08183142,0.32936788,-1.4995693,-0.03593144,-3.0,-1.5468122,0.015055248,-0.62759703,0.0,0.0025706433,-0.026814472,9.8135605,0.0010610634,0.04489999,0.4199624,0.00027217407,0.7251500992384617,0.044076427817344666,0.06463295966386795,0.22741709649562836
21.41131019592285,-1.6242675,0.10529508,-3.805556,-1.3134393575127046,nan,nan,nan,nan,11.407563924789429,0.001988649368286133,0.0066198143,-0.89259994,0.008167734,0.05884941157861934,-0.02696869483856612,9.479257087623695,0.034962438,0.07359597,0.28503695,-1.496734,-0.098714165,-3.0,-1.5043623,0.041439522,-0.62285244,0.0,0.007062207,-0.026763216,9.81376,0.002891484,0.04455862,0.42714483,0.00074904744,0.7252371972691466,8.497387170791626e-06,0.07470772415399551,0.24053478240966797
21.515992879867554,-1.6153351,0.029350258,-3.8058178,-1.2874829291662258,nan,nan,nan,nan,11.512630224227905,0.0031480789184570312,0.0665503,-0.8856603,0.014447505,0.06035200936449736,-0.021830961723407594,9.483161867884919,0.013487592,0.072161466,0.25812387,-1.4909325,-0.16368778,-3.0,-1.4587665,0.068982385,-0.6131715,0.0,0.011710208,-0.026658362,9.81416,0.0047149276,0.04386222,0.44211408,0.0012465303,0.7253886144146979,-0.017573237419128418,0.07266808301210403,0.2708001136779785
21.609140872955322,-1.5973059,-0.057997514,-3.8048851,-1.2586928031323563,nan,nan,nan,nan,11.606160640716553,0.00403594970703125,0.13589343,-0.86929655,0.0220774,0.05961701213319048,-0.015236424591593911,9.485183193413539,-0.011393696,0.07603716,0.24443288,-1.4833379,-0.22047772,-3.0,-1.4165246,0.093390875,-0.600556,0.0,0.015772369,-0.026521156,9.814672,0.006210801,0.042954996,0.46226442,0.0016869489,0.7254669838762553,-0.0522659569978714,0.0823618695139885,0.29969125986099243
21.717521905899048,-1.5738059,-0.13585293,-3.803004,-1.2327126455347241,nan,nan,nan,nan,11.714253187179565,0.003660440444946289,0.1959423,-0.8463646,0.028705755,0.057797326073314226,-0.008974517864942522,9.490279403356833,-0.030101426,0.08378373,0.24365042,-1.4717263,-0.28440112,-3.0,-1.3649148,0.1214183,-0.58139205,0.0,0.020344151,-0.026311474,9.815428,0.007737376,0.041577417,0.49429646,0.0021919594,0.7256645336109263,-0.06509801745414734,0.08206437528133392,0.35284319519996643
21.810716152191162,-1.5472828,-0.20450214,-3.800897,-1.208493541381206,nan,nan,nan,nan,11.807465076446533,0.0036864280700683594,0.24576664,-0.81989217,0.03430427,0.05388885818110645,-0.0024978982650205594,9.495946569172666,-0.05163906,0.08664085,0.25444654,-1.4592901,-0.33767122,-3.0,-1.3172292,0.14538924,-0.5610341,0.0,0.024153374,-0.026087033,9.816202,0.008840957,0.040114745,0.53024167,0.002623144,0.7258841536295252,-0.06675517559051514,0.07883048057556152,0.4076122045516968
21.907272338867188,-1.5083379,-0.28739414,-3.7982605,-1.1757039971113512,nan,nan,nan,nan,11.903583288192749,0.0029227733612060547,0.299118,-0.7790768,0.040108953,0.047805310991033356,0.005585476387754751,9.501393059445546,-0.055687636,0.08143712,0.28537515,-1.4441366,-0.39044482,-3.0,-1.2641264,0.1698757,-0.5364615,0.0,0.027926398,-0.025813721,9.817098,0.009740354,0.038350232,0.5762969,0.0030627945,0.7260951600476683,-0.07332433760166168,0.07334832102060318,0.46803018450737
22.01042890548706,-1.4742869,-0.34861213,-3.7964427,-1.1472729505362593,nan,nan,nan,nan,12.00670337677002,0.002255678176879883,0.33282703,-0.74223596,0.043024343,0.043563825938636835,0.011436214254525456,9.507975254682822,-0.045922223,0.07810685,0.32065806,-1.4252775,-0.44423985,-3.0,-1.2016768,0.19583845,-0.5062381,0.0,0.031771634,-0.025473842,9.818139,0.010407589,0.036181338,0.6369309,0.0035279668,0.7263500849407278,-0.05387973040342331,0.06531770527362823,0.5579289793968201
22.110597133636475,-1.4379469,-0.40624234,-3.7946727,-1.115422950631399,nan,nan,nan,nan,12.10694408416748,0.0021123886108398438,0.360398,-0.70177585,0.044801414,0.04059813060388506,0.016600230049451214,9.514453366873784,-0.033172242,0.0667274,0.3668989,-1.4043959,-0.49336046,-3.0,-1.134373,0.22072661,-0.47323725,0.0,0.035281923,-0.025097834,9.819201,0.01074038,0.033814766,0.7079572,0.0039728717,0.7266008926096866,-0.03825712203979492,0.05615907907485962,0.6599639654159546
22.208364725112915,-1.3856323,-0.47804216,-3.7921293,-1.0647021012156213,nan,nan,nan,nan,12.19654130935669,0.0022051334381103516,0.38964626,-0.6408903,0.045677755,0.038829399244081686,0.022093910804018124,9.52062665211968,-0.016531283,0.054366544,0.44677725,-1.3836352,-0.5343323,-3.0,-1.067703,0.24264409,-0.44090995,0.0,0.038209226,-0.024724312,9.820168,0.010764751,0.031498067,0.781892,0.0043638223,0.7268398191084575,-0.042857833206653595,0.04597288742661476,0.7534456253051758
