time,x,y,z,yaw,platform,trajectory,controller,feedforward,traj_time,comp_time,vx,vy,vz,roll,pitch,f,p,q,r,x_ref,y_ref,z_ref,yaw_ref,vx_ref,vy_ref,vz_ref,roll_ref,pitch_ref,f_ref,u_ff_df,u_ff_dphi,u_ff_dpsi,u_ff_dth,throttle,p_cmd,q_cmd,r_cmd
10.003100633621216,0.006742131,-0.092725776,-2.6438777,0.06484178630374277,SIM,fig8_heading,contraction,0.0,1.9073486328125e-06,0.032691001892089844,0.03531291,0.035807453,-0.19083233,0.011779155038323524,0.0029703738519957223,9.808999517261983,-0.0049003176,0.009396762,-0.07972476,1.1984226e-06,1.1984226e-06,-3.0,0.7853982,0.62831855,0.62831855,0.0,-8.573896e-08,2.143474e-08,9.81,4.0172072e-08,-0.0449519,-5.019941e-07,0.011237975,0.7379157457452022,0.8807594776153564,-0.8786778450012207,0.707983136177063
10.11803674697876,0.013910891,-0.09042392,-2.6588695,0.05645600425476201,nan,nan,nan,nan,0.11519765853881836,0.0032052993774414062,0.032513164,0.04400098,-0.1855177,0.011482244775923838,0.0034629799104173298,9.812291786968709,0.030575246,-0.04777046,-0.08360058,0.072352745,0.07226852,-3.0,0.78364843,0.6275872,0.6253948,0.0,-0.0051702736,0.0012940682,9.81014,0.0024118545,-0.044741534,-0.030436743,0.011224426,0.7380412495628798,1.0028456449508667,-1.1225472688674927,2.872176170349121
10.201021671295166,0.021960575,-0.086823605,-2.677822,0.05470141376984326,nan,nan,nan,nan,0.19789791107177734,0.002084970474243164,0.044601567,0.06572828,-0.22984855,0.052644140359168895,-0.04717691890275577,9.805249299127608,0.8660209,-0.97939134,0.15828905,0.12420058,0.1237741,-3.0,0.7802148,0.62616104,0.6197032,0.0,-0.00885496,0.0022213352,9.81041,0.004095291,-0.044332057,-0.052685294,0.01119802,0.7377727589232915,0.792660653591156,-0.8310939073562622,2.913808584213257
10.301293849945068,0.03534501,-0.07753431,-2.6994677,0.09116853100635391,nan,nan,nan,nan,0.29758477210998535,0.0009815692901611328,0.13094443,0.16251336,-0.1748292,0.1462776546911121,-0.1403443675540903,9.810998816359788,0.8773604,-0.56949115,0.7025706,0.1864942,0.1850472,-3.0,0.7735921,0.6234434,0.6088937,0.0,-0.013238091,0.0033352925,9.810914,0.0060218805,-0.043554552,-0.08038137,0.011147756,0.7379919630539277,0.24933657050132751,-0.04017859697341919,2.847383737564087
10.40113878250122,0.054292828,-0.060646016,-2.7089448,0.15935330766490086,nan,nan,nan,nan,0.39758849143981934,0.001619100570678711,0.22913806,0.2922139,-0.07414183,0.1917622053017664,-0.1726830735272109,9.872610446084291,0.47749874,0.12502234,1.094307,0.24865904,0.24521859,-3.0,0.76410633,0.6196251,0.59378546,0.0,-0.017541917,0.00444675,9.811607,0.007793443,-0.042468227,-0.10961499,0.011077249,0.7403369270711284,-0.20655900239944458,0.5020322799682617,2.593618869781494
10.501100540161133,0.094173476,-0.019855725,-2.7068777,0.30632585350863056,nan,nan,nan,nan,0.4975244998931885,0.0016682147979736328,0.34394115,0.49876636,0.04026323,0.184352058371425,-0.1531343069903126,9.951334305275232,-0.14975715,0.677676,1.5781295,0.31034598,0.30363092,-3.0,0.75161064,0.61472344,0.5745263,0.0,-0.021719303,0.005549418,9.812466,0.00935549,-0.04108405,-0.14084402,0.0109869335,0.7433225675807865,-0.7060179710388184,0.6283091902732849,1.8722941875457764
10.601220607757568,0.1497845,0.04469963,-2.6991959,0.5039175047118609,nan,nan,nan,nan,0.5976395606994629,0.0014307498931884766,0.4190527,0.70415014,-0.011425304,0.10890486441978109,-0.1120621722631896,9.99201723964885,-0.7833788,0.56868774,1.8624363,0.37159818,0.36001492,-3.0,0.735836,0.60873294,0.55119723,0.0,-0.025750915,0.006644028,9.81347,0.010670089,-0.039408255,-0.17478675,0.010876839,0.744860859454116,-0.8083786368370056,0.37912604212760925,0.9079980850219727
10.701136350631714,0.21070665,0.11891893,-2.699323,0.7018044819445679,nan,nan,nan,nan,0.6975739002227783,0.0015053749084472656,0.46987543,0.8044579,-0.06975257,0.004256521011815784,-0.07932578252731837,9.98826278671622,-0.9749691,0.3043008,1.8123306,0.43208823,0.41377318,-3.0,0.71653837,0.6016858,0.52404547,0.0,-0.029594002,0.0077247033,9.81459,0.011698123,-0.03745905,-0.21204877,0.010747709,0.7447190284417453,-0.511897087097168,0.20252913236618042,0.047193028032779694
10.801128149032593,0.28105995,0.19473551,-2.7078514,0.8762294634156684,nan,nan,nan,nan,0.7975506782531738,0.0016162395477294922,0.5554894,0.8103241,-0.15056273,-0.09011576583725645,-0.044449630658308426,9.960784568935631,-0.7189347,0.2621639,1.4876869,0.4918464,0.46465382,-3.0,0.69330305,0.5935809,0.49320891,0.0,-0.033230573,0.008791979,9.815799,0.012415971,-0.035246782,-0.253546,0.010599684,0.7436801782945782,-0.015080325305461884,0.1851879358291626,-0.7029168605804443
10.900879621505737,0.3720075,0.2660313,-2.7270598,0.9922366290853774,nan,nan,nan,nan,0.897230863571167,0.0010149478912353516,0.6980526,0.73442143,-0.18587072,-0.14484482244067787,-0.0014945458629236352,9.917459043115375,-0.24839026,0.32679942,0.9566474,0.55056876,0.51214063,-3.0,0.6657572,0.5844637,0.45902106,0.0,-0.036623783,0.009840439,9.817059,0.012804579,-0.032795794,-0.30008617,0.010433753,0.742039284707088,0.5063483119010925,0.20235516130924225,-1.2945120334625244
11.001224040985107,0.4817233,0.31714973,-2.744638,1.0125038170064369,nan,nan,nan,nan,0.9976623058319092,0.0016965866088867188,0.8525315,0.60427284,-0.12085983,-0.1492159135883669,0.03927216974409653,9.89134684368968,0.20906875,0.32416818,0.37346017,0.60876286,0.5563748,-3.0,0.63300467,0.57424754,0.4213408,0.0,-0.039783813,0.010879163,9.81835,0.012856934,-0.030096373,-0.3533107,0.0102485,0.7410485902750078,0.9298933744430542,0.09009554982185364,-1.5657479763031006
11.101298570632935,0.5970275,0.34254375,-2.752457,0.9550022405257181,nan,nan,nan,nan,1.0977201461791992,0.0013926029205322266,0.9635241,0.45103523,-0.05631014,-0.11278080706373156,0.06384665046063986,9.8845545142889,0.61729085,0.13403329,-0.14918366,0.66566944,0.5965303,-3.0,0.5946901,0.56305885,0.38083598,0.0,-0.042651787,0.011894637,9.819625,0.012571029,-0.027196677,-0.41390532,0.0100463675,0.7407906756768925,1.0984454154968262,-0.11752361059188843,-1.5360009670257568
11.20125412940979,0.7181272,0.3475146,-2.754954,0.8446153675662709,nan,nan,nan,nan,1.197676420211792,0.0014951229095458984,1.0082202,0.29828984,-0.047233548,-0.042238057096573633,0.06583510660687186,9.889235591758037,0.9026226,-0.14172871,-0.61191773,0.7213509,0.6324625,-3.0,0.54992855,0.5508941,0.33770192,0.0,-0.045217536,0.012888032,9.820853,0.011958286,-0.0241109,-0.48330364,0.009827413,0.7409684324646906,0.9378020763397217,-0.23623435199260712,-1.2915012836456299
11.300875425338745,0.8430486,0.33451664,-2.761896,0.6837998716046529,nan,nan,nan,nan,1.2971997261047363,0.0013165473937988281,0.9646836,0.19384368,-0.1332918,0.05048239200367527,0.05233067755248011,9.88291931577958,0.85234994,-0.26315522,-0.9707283,0.7755351,0.66383576,-3.0,0.4979773,0.5378226,0.29240286,0.0,-0.04745726,0.013854557,9.8220005,0.01104193,-0.020872349,-0.5624665,0.009592978,0.7407285715845804,0.45852309465408325,-0.18562600016593933,-0.8338910937309265
11.40103030204773,0.94250894,0.31791678,-2.7768803,0.5252391320677893,nan,nan,nan,nan,1.397371530532837,0.0010542869567871094,0.86770695,0.1909118,-0.18839212,0.11521367412346209,0.046601316233163326,9.866885618539524,0.49599472,-0.1359196,-1.101592,0.8287113,0.6907557,-3.0,0.43718252,0.52372235,0.24475807,0.0,-0.049378686,0.014803013,9.823049,0.009838158,-0.017468108,-0.65325075,0.009340947,0.7401193467043771,-0.04244411736726761,-0.05085957050323486,-0.40310150384902954
11.500695943832397,1.0294716,0.30929646,-2.7987275,0.3716593422251221,nan,nan,nan,nan,1.4969933032989502,0.0008747577667236328,0.7452753,0.26314044,-0.22237591,0.13851233670457097,0.055194668569851,9.843771708877753,0.027445115,0.028979667,-1.0405651,0.8801489,0.7127064,-3.0,0.36713794,0.50878507,0.1956656,0.0,-0.050945155,0.015720442,9.823958,0.008395513,-0.013962237,-0.7547772,0.009074782,0.7392402265141069,-0.43620532751083374,0.03078465163707733,-0.03214067220687866
11.600870132446289,1.0920099,0.3182398,-2.8224726,0.2632025722134591,nan,nan,nan,nan,1.597160816192627,0.0009143352508544922,0.6369043,0.35500556,-0.25531718,0.11886199122754965,0.06753107699398453,9.80748509374447,-0.3160095,0.08214638,-0.8498005,0.930323,0.7297748,-3.0,0.28599358,0.49287292,0.14493163,0.0,-0.052163042,0.016615406,9.824718,0.006739636,-0.010340681,-0.86683905,0.0087920325,0.7378580076999463,-0.6205556392669678,0.03525957465171814,0.09562678635120392
11.70154333114624,1.1443461,0.34751856,-2.8525054,0.1850849574480054,nan,nan,nan,nan,1.6978600025177002,0.001005411148071289,0.5302772,0.43568182,-0.29421416,0.07104523050713886,0.07515310400640218,9.755268242331221,-0.50763476,0.032153327,-0.59683895,0.97911274,0.7417567,-3.0,0.19274604,0.47600183,0.092900775,0.0,-0.053017892,0.01748582,9.825306,0.0049150167,-0.0066277515,-0.9856947,0.008492961,0.7358644840126503,-0.6293304562568665,-0.029556751251220703,0.03109803795814514
11.801153659820557,1.1789496,0.38395038,-2.8815289,0.1450641690062591,nan,nan,nan,nan,1.7975976467132568,0.0015316009521484375,0.45052093,0.46816862,-0.32405075,0.02204668302790363,0.07328529308218168,9.693655228586865,-0.55697364,-0.045325328,-0.41582012,1.0257199,0.74842376,-3.0,0.08857495,0.45845705,0.040714346,0.0,-0.053493526,0.018317522,9.825702,0.0030009788,-0.0029045062,-1.1021852,0.008182543,0.7335053612797019,-0.5594391822814941,-0.08474215865135193,-0.2300819754600525
11.90073275566101,1.2108074,0.43329337,-2.919551,0.11640131240068574,nan,nan,nan,nan,1.8970253467559814,0.0015819072723388672,0.37187853,0.4551606,-0.3492829,-0.035893427342615504,0.06291972048099193,9.637263976903629,-0.5349419,-0.1084007,-0.30010128,1.0704006,0.7498723,-3.0,-0.026331741,0.44017044,-0.011593133,0.0,-0.053596865,0.019115144,9.825903,0.0010404108,0.0008270293,-1.2060502,0.007859468,0.7313395966055753,-0.38144436478614807,-0.09782566130161285,-0.5762495398521423
12.000741481781006,1.2360352,0.48094898,-2.960247,0.09286900910344287,nan,nan,nan,nan,1.997037649154663,0.0009839534759521484,0.31247944,0.3882078,-0.36504418,-0.08541824484995625,0.049424105697320586,9.580164219113064,-0.40484682,-0.10295542,-0.3186465,1.113471,0.7460837,-3.0,-0.151155,0.4210062,-0.06412632,0.0,-0.053326588,0.019884383,9.825908,-0.0009296675,0.0045747664,-1.284638,0.0075212084,0.7291401550115882,-0.18609292805194855,-0.06411722302436829,-0.9810683727264404
12.100770473480225,1.255538,0.5170093,-2.9993527,0.06232351690086708,nan,nan,nan,nan,2.097081422805786,0.001127004623413086,0.27184334,0.28723687,-0.38039172,-0.11796385418827154,0.03818192484789851,9.529174054833124,-0.26099512,-0.0551123,-0.45557198,1.1546003,0.73705685,-3.0,-0.28204533,0.40109682,-0.11622586,0.0,-0.052682593,0.020619368,9.825719,-0.0028435008,0.00829211,-1.3248173,0.0071699484,0.7271705039450823,-0.03261083737015724,-0.010618852451443672,-1.3835903406143188
12.201074361801147,1.2740538,0.54108155,-3.0439258,0.008854914832679056,nan,nan,nan,nan,2.1974151134490967,0.0010013580322265625,0.236281,0.14684667,-0.40686193,-0.13850827423384351,0.027968626350409087,9.47788343486376,-0.11175003,0.00033418744,-0.7029182,1.1938123,0.72280693,-3.0,-0.41510272,0.38042244,-0.1676565,0.0,-0.051665876,0.021320555,9.825341,-0.0046523116,0.0119626885,-1.3198192,0.006805175,0.7251839231999203,0.12557053565979004,0.039476171135902405,-1.704566240310669
12.301563024520874,1.2893767,0.54660785,-3.087869,-0.0652062423622931,nan,nan,nan,nan,2.2978756427764893,0.0009379386901855469,0.20613943,0.0015724205,-0.43933922,-0.14414541352029014,0.01878109071808942,9.419314727159215,0.029237118,0.043179,-0.9864969,1.2309617,0.7034256,-3.0,-0.5455981,0.35904884,-0.21796596,0.0,-0.05028288,0.021985356,9.82479,-0.0063020852,0.015554583,-1.2715666,0.0064278604,0.7229088636099759,0.2317582070827484,0.07816862314939499,-1.9288355112075806
12.400956869125366,1.3019552,0.537077,-3.131065,-0.15590175352985072,nan,nan,nan,nan,2.3972597122192383,0.0009586811065673828,0.17889653,-0.13165997,-0.4696584,-0.13782331729283984,0.009606200656030017,9.357956060143183,0.1428984,0.06539934,-1.2545906,1.2655686,0.6793515,-3.0,-0.6681922,0.33727857,-0.26621935,0.0,-0.048564747,0.022605158,9.82409,-0.0077304686,0.019001292,-1.1911875,0.0060431734,0.7205178305373279,0.2917732000350952,0.10602858662605286,-2.0498292446136475
12.501222372055054,1.314171,0.5093738,-3.1858153,-0.29020800544351805,nan,nan,nan,nan,2.4976837635040283,0.0015664100646972656,0.14673199,-0.27460256,-0.50003827,-0.11740225317664044,-0.0015872292234471175,9.279298713775345,0.2713637,0.08879216,-1.5425869,1.2983099,0.65024537,-3.0,-0.78287494,0.31468698,-0.31310293,0.0,-0.0464871,0.02319206,9.823252,-0.008928578,0.022352004,-1.0907161,0.0056434292,0.7174412052260726,0.3332715928554535,0.12959983944892883,-1.959490180015564
12.600900173187256,1.3225288,0.4715422,-3.2386987,-0.4370550158210775,nan,nan,nan,nan,2.597196340560913,0.000993967056274414,0.119968645,-0.37797773,-0.51267904,-0.08603613402403004,-0.008839049131503351,9.207323533864685,0.36525595,0.102681234,-1.7379087,1.3284883,0.6168655,-3.0,-0.8861545,0.29175118,-0.35737717,0.0,-0.0441039,0.023733508,9.822315,-0.00984067,0.025518196,-0.98485607,0.005236909,0.7146145026118583,0.31295257806777954,0.1328817754983902,-1.7723383903503418
12.701233863830566,1.328387,0.42624778,-3.291428,-0.5989995868340356,nan,nan,nan,nan,2.697660446166992,0.0014581680297851562,0.10096,-0.44508508,-0.50709844,-0.0475064821219886,-0.010791787719864665,9.13470697638578,0.4056083,0.11215564,-1.8438324,1.3566141,0.57882077,-3.0,-0.9798341,0.268082,-0.39955574,0.0,-0.041387025,0.024238596,9.821293,-0.010459166,0.028536549,-0.8812126,0.0048165717,0.7117513920193627,0.24400097131729126,0.12434646487236023,-1.4928357601165771
12.800716400146484,1.3331357,0.37404308,-3.3459058,-0.7819203231882699,nan,nan,nan,nan,2.7970099449157715,0.0009038448333740234,0.09345208,-0.47485736,-0.48426366,-0.004877899192278989,-0.004264330319278864,9.076624272437762,0.38267535,0.12068537,-1.8426954,1.3820657,0.5371672,-3.0,-1.0626436,0.24420843,-0.43848568,0.0,-0.03841174,0.024696087,9.820236,-0.0107564675,0.031324394,-0.7875871,0.004391696,0.7094531177580977,0.12367017567157745,0.09139017760753632,-1.096807599067688
12.900742530822754,1.3373951,0.32807696,-3.3926747,-0.9483188894384913,nan,nan,nan,nan,2.897033929824829,0.0010650157928466797,0.10079346,-0.4658126,-0.45622635,0.027197520326018243,0.00819238362023067,9.038959384234621,0.30356598,0.10513866,-1.7302461,1.4052724,0.49147463,-3.0,-1.137184,0.21974576,-0.47461247,0.0,-0.035147175,0.025113605,9.8191595,-0.010733278,0.03391335,-0.7049025,0.0039553572,0.707958823684773,0.001169639639556408,0.04092758148908615,-0.7417718172073364
13.00109052658081,1.3441073,0.28479332,-3.439336,-1.1156364415447528,nan,nan,nan,nan,2.9975414276123047,0.001695394515991211,0.12344857,-0.42581013,-0.42858475,0.04877950162665612,0.023623316149848694,9.010014801295478,0.17154245,0.05735058,-1.5138638,1.4261067,0.44208753,-3.0,-1.2043755,0.19477631,-0.50755876,0.0,-0.03161781,0.025488779,9.818095,-0.010386503,0.03627608,-0.6341911,0.0035089576,0.7068083770025341,-0.14675380289554596,-0.04337509721517563,-0.35807061195373535
13.100803852081299,1.3537003,0.25268286,-3.4791434,-1.250926776399184,nan,nan,nan,nan,3.09710955619812,0.0009644031524658203,0.15406956,-0.37332344,-0.41057017,0.053670470999240605,0.032279863491562644,8.98753399980255,0.02879195,-0.02575529,-1.2461642,1.4442544,0.39007246,-3.0,-1.2645261,0.16969985,-0.53665155,0.0,-0.02789978,0.025815843,9.817091,-0.009734791,0.038363874,-0.5759294,0.0030596403,0.7059135676440034,-0.23988327383995056,-0.12268215417861938,-0.06783740967512131
13.200752258300781,1.3689418,0.2276722,-3.5198717,-1.3709187404275416,nan,nan,nan,nan,3.197033166885376,0.0010631084442138672,0.18986967,-0.31457168,-0.3980202,0.04567751280535204,0.029777337795170444,8.965622693570333,-0.09708632,-0.13410194,-0.92136616,1.4599416,0.33514494,-3.0,-1.3196102,0.14423713,-0.56209624,0.0,-0.02397274,0.026098782,9.816163,-0.008792712,0.040191047,-0.52831686,0.0026024368,0.7050403484750392,-0.29461681842803955,-0.19787408411502838,0.1921001523733139
13.301045417785645,1.3882785,0.21083924,-3.5587862,-1.4597300807696278,nan,nan,nan,nan,3.297377347946167,0.001003265380859375,0.2187282,-0.27034378,-0.38686234,0.02898519234008623,0.013406375812482718,8.945421913089232,-0.17450939,-0.23555197,-0.5950332,1.4731212,0.27762467,-3.0,-1.3706417,0.11841302,-0.58368623,0.0,-0.019859541,0.026336657,9.815339,-0.007585049,0.0417423,-0.49037015,0.0021378498,0.7042343521110807,-0.2851802408695221,-0.24004417657852173,0.35675615072250366
13.40077519416809,1.4085526,0.19902684,-3.5930226,-1.5128839580272313,nan,nan,nan,nan,3.3970863819122314,0.001016855239868164,0.23283258,-0.25335687,-0.37264353,0.010801699468555692,-0.01159641275258072,8.925466489912942,-0.19683829,-0.30263802,-0.31765157,1.4836401,0.2185255,-3.0,-1.4180254,0.09254511,-0.60105664,0.0,-0.015632734,0.026526615,9.814652,-0.0061613102,0.04299099,-0.46145082,0.0016716969,0.7034372512831591,-0.24003586173057556,-0.25335049629211426,0.4024822413921356
13.500869750976562,1.4299096,0.1868771,-3.6248467,-1.5398156065798174,nan,nan,nan,nan,3.497196912765503,0.0010728836059570312,0.23247732,-0.2648315,-0.35049635,-0.007173450323525454,-0.0407744720472587,8.912625730903821,-0.1915062,-0.3205601,-0.08561678,1.4915977,0.15765592,-3.0,-1.463103,0.066410765,-0.61427987,0.0,-0.011278727,0.026670389,9.814115,-0.004549975,0.04394194,-0.44037876,0.0012001015,0.702923867858047,-0.17793190479278564,-0.2207871377468109,0.35834139585494995
13.601419925689697,1.4518093,0.16914345,-3.655986,-1.5441312002855332,nan,nan,nan,nan,3.5978381633758545,0.0014743804931640625,0.21473105,-0.30876797,-0.31366596,-0.025572643907706527,-0.07033264422655927,8.911102475756781,-0.16203168,-0.25456315,0.09570112,1.4969542,0.09534712,-3.0,-1.5066693,0.04002017,-0.62322044,0.0,-0.0068213306,0.026767198,9.813744,-0.002794624,0.044585094,-0.4265841,0.0007234001,0.7028629424142757,-0.09957200288772583,-0.12515228986740112,0.23177680373191833
13.701163053512573,1.4680114,0.14717035,-3.6789885,-1.533424653527228,nan,nan,nan,nan,3.6975960731506348,0.0014696121215820312,0.18719341,-0.36726415,-0.27314726,-0.039700178211188764,-0.0879650004666741,8.922315039718523,-0.13798267,-0.17307343,0.18041997,1.4996386,0.03291562,-3.0,-1.5488297,0.013790986,-0.62771314,0.0,-0.0023548834,0.026815724,9.813556,-0.00097219786,0.04490834,-0.41978794,0.0002493192,0.7033112880930175,-0.05067124962806702,-0.05360531806945801,0.03840626776218414
13.80122184753418,1.4829887,0.11041605,-3.7015257,-1.5123173501224323,nan,nan,nan,nan,3.797666549682617,0.0012898445129394531,0.14212845,-0.4528295,-0.21948606,-0.05409471043146519,-0.09705234141419394,8.943879611575975,-0.100657016,-0.031002328,0.20202877,1.499701,-0.02994201,-3.0,-1.5907749,-0.01254458,-0.62781763,0.0,0.0021421432,0.026816849,9.813552,0.0008845266,0.04491586,-0.41963094,-0.0002267869,0.704172778033428,0.02270336076617241,0.0831611156463623,-0.2044576108455658
13.901145935058594,1.4908606,0.06576771,-3.717085,-1.4934809153787787,nan,nan,nan,nan,3.897585391998291,0.0014801025390625,0.09100733,-0.53651863,-0.17039771,-0.06362109064092136,-0.09187949319769051,8.97327421435155,-0.0626253,0.107659616,0.14527813,1.4971346,-0.09249474,-3.0,-1.6329725,-0.038818263,-0.6235221,0.0,0.0066172713,0.02677046,9.813731,0.0027124248,0.044606797,-0.42612502,-0.0007016811,0.705345401423514,0.07575953006744385,0.1754143238067627,-0.45351290702819824
14.000741720199585,1.4914936,0.0071304594,-3.728769,-1.4826234356606798,nan,nan,nan,nan,3.9970531463623047,0.0010724067687988281,0.02761025,-0.61771655,-0.12510543,-0.0681649103675378,-0.07303944321566003,9.005825198078524,-0.008184806,0.23020676,0.015261664,1.4919752,-0.15412238,-3.0,-1.6759605,-0.064905874,-0.6149089,0.0,0.011025957,0.026677208,9.814089,0.004452873,0.043987185,-0.43939638,-0.0011729294,0.7066417018116201,0.1455513834953308,0.23579329252243042,-0.6839985847473145
14.116393327713013,1.4838854,-0.05952923,-3.7366202,-1.488594536605583,nan,nan,nan,nan,4.112838506698608,0.004532575607299805,-0.039064713,-0.67655176,-0.090362795,-0.06494251604099321,-0.04592857670177075,9.04125250467099,0.060062636,0.2913159,-0.16576478,1.4827086,-0.2244839,-3.0,-1.72816,-0.09512819,-0.5995135,0.0,0.01605891,0.026509788,9.814714,0.0063118823,0.04288004,-0.46396255,-0.0017182763,0.7080498884620584,0.22469529509544373,0.2971876859664917,-0.8953741192817688
14.200840950012207,1.4698489,-0.12461192,-3.74118,-1.5123239674899844,nan,nan,nan,nan,4.197138786315918,0.0009527206420898438,-0.097995706,-0.7038714,-0.0656018,-0.054949205452704986,-0.019382950270115273,9.069196362281215,0.13376781,0.29629093,-0.35369515,1.4737667,-0.2744214,-3.0,-1.7682672,-0.116995506,-0.58474845,0.0,0.019630456,0.026348306,9.815298,0.007512191,0.041818645,-0.48856083,-0.0021123246,0.7091586731089562,0.24951514601707458,0.22026783227920532,-0.980918288230896
14.310720443725586,1.4498341,-0.1897599,-3.7435625,-1.5544814744934774,nan,nan,nan,nan,4.3071489334106445,0.001476287841796875,-0.14764091,-0.7040163,-0.044864543,-0.03877043974206251,0.004711194264620078,9.101789651000866,0.20204094,0.25449553,-0.5380989,1.459336,-0.33749402,-3.0,-1.824196,-0.14530839,-0.5611089,0.0,0.024140704,0.026087858,9.8162,0.008837586,0.04012012,-0.5301059,-0.0026216907,0.7104497866423265,0.3086109757423401,0.2035873681306839,-1.0639615058898926
14.400763988494873,1.4238435,-0.25706336,-3.7440555,-1.6192957423647532,nan,nan,nan,nan,4.397053003311157,0.00104522705078125,-0.18203323,-0.6777659,-0.023555448,-0.017153116462012452,0.024791505236033906,9.12854949035681,0.23818882,0.17524745,-0.71257436,1.4452406,-0.38693538,-3.0,-1.8737137,-0.16822019,-0.5382431,0.0,0.027675517,0.025833631,9.817034,0.009687459,0.038478136,-0.5728593,-0.003033098,0.7115080933944339,0.2318601906299591,0.09248831868171692,-1.0184776782989502
14.500782012939453,1.3968543,-0.31729713,-3.7417817,-1.7006141421206014,nan,nan,nan,nan,4.497100114822388,0.0011432170867919922,-0.19095835,-0.6320957,0.00048017123,0.004034799896906915,0.037469166911881846,9.159119117045769,0.22707015,0.08721033,-0.8423535,1.4271467,-0.43936372,-3.0,-1.9338285,-0.19343519,-0.509216,0.0,0.031423133,0.025507515,9.81804,0.010359098,0.03639497,-0.63076437,-0.0034849527,0.7127151744593474,0.16775640845298767,0.021457478404045105,-0.9463024139404297
14.600853681564331,1.3741872,-0.3656135,-3.7367148,-1.7860800096706366,nan,nan,nan,nan,4.597182035446167,0.0010709762573242188,-0.17694618,-0.5821119,0.025504846,0.0198018112823497,0.04276300495974006,9.191980891013513,0.1794155,0.0032208741,-0.91406286,1.4065391,-0.48872405,-3.0,-2.0003448,-0.21831913,-0.47660175,0.0,0.034950633,0.025136407,9.819097,0.010722048,0.034055967,-0.70049804,-0.0039298804,0.7140105194479,0.08411696553230286,-0.03966107964515686,-0.8740259408950806
14.700777292251587,1.3574562,-0.40384716,-3.7294867,-1.869393173567505,nan,nan,nan,nan,4.697092533111572,0.0010440349578857422,-0.14882112,-0.5369373,0.05010297,0.028647614603993787,0.04248459756541201,9.219892388666043,0.111978374,-0.05724182,-0.94176835,1.3835015,-0.5345749,-3.0,-2.0743203,-0.24277772,-0.44070345,0.0,0.038226556,0.024721907,9.820173,0.010764096,0.03148327,-0.7823763,-0.004366203,0.7151089171061714,-0.004124779254198074,-0.09045463055372238,-0.8338474631309509
14.800775289535522,1.343763,-0.44213673,-3.7173982,-1.9701354288515218,nan,nan,nan,nan,4.797101974487305,0.0009675025939941406,-0.105554745,-0.4903012,0.07992576,0.031234090483115318,0.03644394549530938,9.257844522083174,0.012289064,-0.1225257,-0.9403862,1.3580148,-0.57672274,-3.0,-2.1571574,-0.26683483,-0.40167928,0.0,0.041237183,0.02426376,9.8212385,0.010482737,0.028688572,-0.87602305,-0.0047943983,0.7165997787978189,-0.09925353527069092,-0.1281507909297943,-0.753445565700531
14.900842905044556,1.336929,-0.47287005,-3.7038364,-2.0625983277958015,nan,nan,nan,nan,4.897143840789795,0.0009899139404296875,-0.06679565,-0.4572652,0.1047517,0.024802742749945095,0.02556815021451664,9.29250650682486,-0.07910951,-0.16767994,-0.9152032,1.3301357,-0.6148361,-3.0,-2.2498817,-0.29043123,-0.35982323,0.0,0.043958988,0.023763075,9.82226,0.009883771,0.025693184,-0.97886086,-0.005213491,0.7179587269023463,-0.15315543115139008,-0.14757372438907623,-0.7434723377227783
15.001719236373901,1.3355097,-0.5029414,-3.6873317,-2.1596813658880616,nan,nan,nan,nan,4.998307943344116,0.0017850399017333984,-0.03699703,-0.43226138,0.12891263,0.010927652300842361,0.009179707926334268,9.332203151965508,-0.14807798,-0.184951,-0.87962526,1.2995691,-0.64898705,-3.0,-2.3543553,-0.31377366,-0.31493002,0.0,0.04639727,0.023214642,9.8232155,0.008970791,0.022482626,-1.0864981,-0.0056272554,0.7195119527819177,-0.17608371376991272,-0.1317267119884491,-0.7575386166572571
15.100745677947998,1.337593,-0.5294475,-3.6708772,-2.2458762211102474,nan,nan,nan,nan,5.09709095954895,0.0010576248168945312,-0.027832141,-0.41637504,0.1468212,-0.004900511866192003,-0.007319378114952979,9.369364301646124,-0.17955089,-0.18139027,-0.8503377,1.2674702,-0.6778401,-3.0,-2.4666867,-0.3360233,-0.2689096,0.0,0.048456874,0.022639235,9.824046,0.007804738,0.019193508,-1.1859185,-0.0060209776,0.7209629803843861,-0.17612506449222565,-0.10819306969642639,-0.8481857776641846
15.200784683227539,1.3402619,-0.5584811,-3.6522338,-2.336584752477145,nan,nan,nan,nan,5.197119474411011,0.0011153221130371094,-0.041381024,-0.40309513,0.16205631,-0.0224712693246365,-0.024077422079540334,9.411462929034602,-0.18457493,-0.1311793,-0.84246004,1.2327557,-0.7023287,-3.0,-2.58964,-0.35796723,-0.22043456,0.0,0.050204605,0.022017473,9.824758,0.0063792043,0.01573087,-1.2681887,-0.0064087585,0.72260332905914,-0.15083247423171997,-0.05282428860664368,-0.9638092517852783
15.30073595046997,1.3399029,-0.58598536,-3.6344085,-2.42019279083501,nan,nan,nan,nan,5.29705286026001,0.0010211467742919922,-0.074666984,-0.38912272,0.17160675,-0.03715012022308839,-0.035789663229730095,9.453223862433804,-0.1688785,-0.07974437,-0.8651502,1.1959132,-0.7218719,-3.0,-2.7191942,-0.37926286,-0.17046058,0.0,0.05159916,0.021358142,9.825315,0.0047477847,0.01216285,-1.3182249,-0.006784711,0.7242268989382292,-0.12406069040298462,-0.00958096981048584,-1.1398138999938965
15.4007248878479,1.3342744,-0.61381584,-3.616733,-2.506825562509669,nan,nan,nan,nan,5.397069215774536,0.0009603500366210938,-0.124287926,-0.36942342,0.17515269,-0.04947918365797932,-0.044122616486542476,9.49255911835469,-0.15720853,-0.03264551,-0.92555326,1.1569426,-0.7363682,-3.0,-2.8517962,-0.39991078,-0.11924989,0.0,0.052633464,0.020661239,9.825702,0.0029524816,0.008507902,-1.3257937,-0.007149025,0.7257528874251123,-0.08998124301433563,0.04074281454086304,-1.318650484085083
15.501126766204834,1.3215806,-0.64081246,-3.599666,-2.6002451285601538,nan,nan,nan,nan,5.4975621700286865,0.0014312267303466797,-0.18564951,-0.34071732,0.17243226,-0.059086906191240685,-0.04886779053174983,9.526939670527351,-0.12710167,0.024068624,-1.0231507,1.1157413,-0.7457298,-3.0,-2.9834929,-0.41995028,-0.06695284,0.0,0.053301346,0.01992494,9.825903,0.0010348931,0.004776423,-1.2878809,-0.007502575,0.7270840736437711,-0.05146919935941696,0.08180117607116699,-1.4696134328842163
15.601465940475464,1.2990097,-0.6666811,-3.582016,-2.7125582662775276,nan,nan,nan,nan,5.597918748855591,0.0014581680297851562,-0.2575048,-0.29692537,0.16441222,-0.0643588429280586,-0.05006563350035309,9.554571611369026,-0.0785614,0.06764736,-1.1520225,1.0726235,-0.749807,-3.0,-3.1091518,-0.43921995,-0.014253707,0.0,0.0535922,0.019154835,9.825908,-0.0009403136,0.0010168293,-1.2107625,-0.007842686,0.7281522192099088,-0.005863029509782791,0.10761576890945435,-1.5221123695373535
15.701013326644897,1.2699834,-0.6862344,-3.5666432,-2.827677603042929,nan,nan,nan,nan,5.6973817348480225,0.0010390281677246094,-0.32189706,-0.24717537,0.15497541,-0.06378637066589454,-0.049856174480062965,9.573710573101414,-0.030469509,0.06793216,-1.2719483,1.028019,-0.7486215,-3.0,3.0585647,-0.4575526,0.03807721,0.0,0.05350764,0.018358558,9.825716,-0.0029027972,-0.0027163725,-1.1078295,-0.008166555,0.7288911534066164,0.01945120468735695,0.10270994901657104,-1.5218055248260498
15.801497220993042,1.2310456,-0.70185316,-3.5511253,-2.9639606394144016,nan,nan,nan,nan,5.797796964645386,0.0009784698486328125,-0.38492873,-0.18860066,0.14378339,-0.0575608706424624,-0.050260791048119424,9.588444008463993,0.017076012,0.066714324,-1.3804919,0.98117805,-0.7421552,-3.0,2.9531379,-0.47525504,0.09063963,0.0,0.053046327,0.01752267,9.825327,-0.004833516,-0.006466416,-0.99085987,-0.008479737,0.7294594920765943,0.03003058210015297,0.096975177526474,-1.3970463275909424
15.900793552398682,1.1898022,-0.7100375,-3.537875,-3.0975792486490663,nan,nan,nan,nan,5.897100925445557,0.0010514259338378906,-0.4350418,-0.13436045,0.13438943,-0.04742226721998066,-0.05108960006873331,9.597333658793938,0.058029905,0.045137737,-1.4336858,0.93314815,-0.73059785,-3.0,2.8605917,-0.49193496,0.14199135,0.0,0.052221768,0.016665798,9.824757,-0.00663951,-0.010130834,-0.8734966,-0.008775387,0.7298021969722726,0.016943980008363724,0.06279170513153076,-1.2309850454330444
16.000855684280396,1.1445711,-0.71287537,-3.5258524,-3.2338868205553037,nan,nan,nan,nan,5.997176647186279,0.0013818740844726562,-0.47875747,-0.08501495,0.1261986,-0.03414066803312599,-0.05295704178310956,9.602105475822462,0.07653476,0.0131704,-1.4312176,0.8831122,-0.7138385,-3.0,2.778873,-0.5078833,0.19274732,0.0,0.051025942,0.015773296,9.824007,-0.008304357,-0.013753884,-0.7610478,-0.009058738,0.7299860898194819,-0.022363871335983276,0.02913188934326172,-1.0128206014633179
16.100948572158813,1.0917956,-0.7108812,-3.514293,-3.3778818815567444,nan,nan,nan,nan,6.097381830215454,0.0011179447174072266,-0.5229351,-0.03902738,0.11739787,-0.019500873316305567,-0.05680223756958225,9.603684164034199,0.062733755,-0.016892118,-1.3593817,0.8314568,-0.69203305,-3.0,2.7078505,-0.5229583,0.24221234,0.0,0.04946985,0.01485198,9.8231,-0.009767957,-0.017286265,-0.6583213,-0.00932731,0.7300469181090331,-0.07113803178071976,0.01410377025604248,-0.7238336801528931
16.200729370117188,1.0398134,-0.705258,-3.505248,-3.5014455150336032,nan,nan,nan,nan,6.19701361656189,0.0010933876037597656,-0.5643923,-0.0024293552,0.10590235,-0.00790593376011639,-0.06041664149914294,9.602158756740389,0.03830537,-0.036683246,-1.2289432,0.7786443,-0.6655196,-3.0,2.6468837,-0.5370338,0.289704,0.0,0.04757746,0.013910015,9.822064,-0.010979789,-0.020679463,-0.5674,-0.009578856,0.7299881428631358,-0.11731742322444916,-0.01457512378692627,-0.4779043197631836
16.300832748413086,0.9793241,-0.69599056,-3.4978611,-3.618702400130772,nan,nan,nan,nan,6.2971251010894775,0.0010256767272949219,-0.6124418,0.033962492,0.08819056,0.0005260124357326923,-0.06489835594365068,9.59649715889245,-0.006445365,-0.050714996,-1.0344963,0.72421277,-0.6342119,-3.0,2.5941863,-0.55023485,0.33539134,0.0,0.045342434,0.012939084,9.820915,-0.011917788,-0.023945663,-0.48717955,-0.009815571,0.7297699558325957,-0.1646752804517746,-0.010723412036895752,-0.22493958473205566
16.400737047195435,0.91926116,-0.68523055,-3.4933276,-3.7074937973555526,nan,nan,nan,nan,6.397037029266357,0.0010497570037841797,-0.6588573,0.06838727,0.06835036,0.0031328337419911367,-0.06869505307844892,9.586396293900902,-0.045347344,-0.05697979,-0.825731,0.6686193,-0.5985208,-3.0,2.549081,-0.5624452,0.37863773,0.0,0.042793933,0.011947268,9.819691,-0.012546892,-0.027039366,-0.4173129,-0.0100353025,0.7293805281267848,-0.19424062967300415,-0.020345032215118408,-0.05501526594161987
16.501673460006714,0.8548351,-0.67228794,-3.4909735,-3.775821712966657,nan,nan,nan,nan,6.498119592666626,0.0019838809967041016,-0.70534295,0.10764378,0.048035562,0.0004058236021420303,-0.07266660953529014,9.571939975284034,-0.09566721,-0.04448858,-0.60977644,0.61118376,-0.55814826,-3.0,2.5100832,-0.57379615,0.41969132,0.0,0.039910495,0.010922367,9.818404,-0.012851657,-0.029978247,-0.35570318,-0.01024033,0.7288228236013328,-0.2136831283569336,-0.015282690525054932,0.05980915576219559
16.600749015808105,0.7862508,-0.65605754,-3.4905348,-3.8238059803276996,nan,nan,nan,nan,6.5970447063446045,0.000990152359008789,-0.74841607,0.15513188,0.0292025,-0.0076039896096808945,-0.07553704006781081,9.55446086224168,-0.13359581,-0.025958978,-0.40521416,0.5539122,-0.51476187,-3.0,2.477561,-0.58390915,0.45695862,0.0,0.036811065,0.009900124,9.817132,-0.012816751,-0.03264799,-0.3029372,-0.010423677,0.7281479411556775,-0.21052539348602295,-0.0019351840019226074,0.12122378498315811
16.70067548751831,0.70785296,-0.6327177,-3.4915993,-3.85516179076455,nan,nan,nan,nan,6.696947813034058,0.0009560585021972656,-0.7863167,0.21828245,0.013740952,-0.02080611533043264,-0.07668378044316637,9.537803105972701,-0.15905748,-0.0017915281,-0.21662049,0.49511012,-0.4673618,-3.0,2.4496908,-0.5931046,0.49140987,0.0,0.033424094,0.00885026,9.815867,-0.01244605,-0.03511776,-0.25597024,-0.010590999,0.7275041972189251,-0.17845794558525085,0.0319443941116333,0.13702216744422913
16.800668001174927,0.63269186,-0.604596,-3.493577,-3.8686859822885067,nan,nan,nan,nan,6.796949863433838,0.0008909702301025391,-0.810948,0.28695017,0.004928443,-0.03515445966007902,-0.07555433567631487,9.520498212240629,-0.15727244,0.03149979,-0.08215357,0.43538153,-0.41663817,-3.0,2.4262214,-0.6012691,0.5224499,0.0,0.029798793,0.0077835307,9.814654,-0.011745682,-0.037344545,-0.21420398,-0.0107400855,0.7268348488507269,-0.13433299958705902,0.05350542068481445,0.10029202699661255
16.901092529296875,0.54985625,-0.5658961,-3.4956791,-3.8715276155570857,nan,nan,nan,nan,6.897529363632202,0.001621246337890625,-0.82333994,0.370267,0.0022250104,-0.05036978305160633,-0.07077589184409905,9.505665673278264,-0.13885704,0.060056508,0.013740522,0.37453765,-0.3626743,-3.0,2.406605,-0.6084168,0.5499723,0.0,0.025941052,0.006696549,9.813522,-0.010726553,-0.03932029,-0.17650378,-0.010871037,0.726260646142917,-0.06485120207071304,0.08648967742919922,0.034957148134708405
17.00102472305298,0.4741292,-0.52151567,-3.4968202,-3.868177666393008,nan,nan,nan,nan,6.9974565505981445,0.0016319751739501953,-0.8204655,0.45218363,0.00441303,-0.06159854672284526,-0.06311156000420715,9.494462903626253,-0.09224972,0.09479392,0.05680321,0.3134302,-0.30651143,-3.0,2.390693,-0.6144488,0.5734518,0.0,0.021925285,0.0056045423,9.812512,-0.009427666,-0.041006844,-0.14247647,-0.010981878,0.7258266633832,0.0032950229942798615,0.09643331170082092,-0.041593872010707855
17.100767850875854,0.40037736,-0.46888942,-3.4969833,-3.8631877910588464,nan,nan,nan,nan,7.097101926803589,0.0010280609130859375,-0.8048146,0.53391653,0.00911562,-0.06747161743950736,-0.05250022330601989,9.48654465880244,-0.026240805,0.114721335,0.06167116,0.25194785,-0.24836841,-3.0,2.3780725,-0.619392,0.59286594,0.0,0.017767197,0.0045055463,9.811648,-0.007882051,-0.04240212,-0.111218,-0.01107295,0.7255197649820219,0.06986632198095322,0.08872941136360168,-0.1145893782377243
17.20081853866577,0.32442603,-0.40272292,-3.4956043,-3.8594815419786133,nan,nan,nan,nan,7.197110176086426,0.0009069442749023438,-0.77640945,0.6165571,0.015912915,-0.06670277358368626,-0.04064187279558129,9.481811553314321,0.0412443,0.10715692,0.03658008,0.18980066,-0.18827511,-3.0,2.368431,-0.6232683,0.6081988,0.0,0.013468985,0.0033944147,9.810946,-0.0061203362,-0.043504577,-0.08189077,-0.011144521,0.7253362562810836,0.13607540726661682,0.08021444082260132,-0.17318466305732727
17.30074644088745,0.25348538,-0.32786456,-3.492901,-3.860085401078313,nan,nan,nan,nan,7.297110557556152,0.0010256767272949219,-0.7412945,0.6879259,0.023149054,-0.058319888105201834,-0.030250639772055665,9.478720931373529,0.12033145,0.09368412,-0.008997867,0.12732542,-0.1268659,-3.0,2.3616443,-0.6260509,0.6192642,0.0,0.009076139,0.0022772187,9.81043,-0.004194784,-0.044300478,-0.054045685,-0.011195982,0.7252164040999509,0.18056456744670868,0.06541205942630768,-0.20481395721435547
17.400693893432617,0.19258964,-0.2531036,-3.4895566,-3.865385584627198,nan,nan,nan,nan,7.397027492523193,0.0009660720825195312,-0.708667,0.739344,0.029652696,-0.044755030823965924,-0.023225632602923874,9.47764554063323,0.16149463,0.057497002,-0.058637608,0.06467898,-0.064618826,-3.0,2.357592,-0.6277342,0.6259821,0.0,0.004623003,0.0011568221,9.810112,-0.0021584686,-0.044783786,-0.02718526,-0.01122715,0.7251746966087519,0.19344229996204376,0.0418965220451355,-0.2056559920310974
17.50106692314148,0.1354379,-0.17509758,-3.4851968,-3.8751305789597836,nan,nan,nan,nan,7.497364044189453,0.0009431838989257812,-0.68062055,0.77501726,0.0357846,-0.02789966690209611,-0.01886265555982125,9.478830431555386,0.18739314,0.035800446,-0.099929154,0.0016556855,-0.0016556846,-3.0,2.3561954,-0.6283182,0.628317,0.0,0.00011845292,2.961325e-05,9.81,-5.549972e-05,-0.044951793,-0.00069353357,-0.01123797,0.7252206507751104,0.18163618445396423,0.02194157987833023,-0.17787209153175354
17.602012395858765,0.07573129,-0.08927041,-3.479354,-3.8894467614095034,nan,nan,nan,nan,7.598430633544922,0.0018045902252197266,-0.66060346,0.7957004,0.04157338,-0.008298492627244691,-0.016489087760926058,9.482465635393737,0.18481849,0.015248554,-0.12958647,-0.06182863,0.06177608,-3.0,2.3574712,-0.62778455,0.6261835,0.0,-0.004419628,-0.0011058428,9.810102,0.0020641391,-0.04479828,0.025979577,-0.011228084,0.725361618627218,0.14127382636070251,0.021125435829162598,-0.12107405066490173
17.700870990753174,0.025549058,-0.017597469,-3.4737327,-3.9030149433288015,nan,nan,nan,nan,7.697213888168335,0.0009875297546386719,-0.6533508,0.79918283,0.04601113,0.006976642493445651,-0.014848031532349593,9.487961883177041,0.16151372,0.014614973,-0.13778974,-0.12377301,0.12335092,-3.0,2.361342,-0.6261758,0.61976236,0.0,-0.008824687,-0.0022136883,9.810407,0.0040816567,-0.044336315,0.052499358,-0.011198294,0.7255747037214479,0.0925724059343338,0.008361726999282837,-0.055661022663116455
17.80083918571472,-0.035079565,0.06459046,-3.4665873,-3.91849842241792,nan,nan,nan,nan,7.7971274852752686,0.0009641647338867188,-0.65573394,0.7895172,0.051341046,0.021103195717931955,-0.013274033350057834,9.496449896921394,0.10555288,0.017650038,-0.12438116,-0.18620956,0.18476918,-3.0,2.3679638,-0.6234583,0.60895294,0.0,-0.0132182045,-0.0033302023,9.810912,0.0060133846,-0.043558814,0.08025164,-0.011148031,0.725903655951053,0.022319301962852478,0.021324802190065384,0.028209630399942398
17.90076231956482,-0.093338855,0.13728055,-3.4594235,-3.9300350194591593,nan,nan,nan,nan,7.89704442024231,0.00090789794921875,-0.6651806,0.77114123,0.055509374,0.028148847279493516,-0.010762257730930092,9.505566999544381,0.044692356,0.02735703,-0.0903024,-0.24832213,0.2448957,-3.0,2.3774269,-0.6196488,0.593879,0.0,-0.017518824,-0.0044407276,9.811603,0.0077843345,-0.042474948,0.10945112,-0.011077687,0.7262568247495449,-0.03146670386195183,0.024969618767499924,0.10764922946691513
18.000765562057495,-0.15951237,0.21171223,-3.4513278,-3.9376061851682103,nan,nan,nan,nan,7.997064113616943,0.0010828971862792969,-0.6784865,0.7448837,0.058792412,0.02941870151292414,-0.00755080437088429,9.516514209811568,-0.019751,0.03836442,-0.03645205,-0.31006345,0.30336684,-3.0,2.3899174,-0.6147484,0.5746242,0.0,-0.021700421,-0.005544368,9.812462,0.009348847,-0.04109108,0.14069489,-0.010987392,0.7266806626446357,-0.07622356712818146,0.03815443813800812,0.18389253318309784
18.101208686828613,-0.22884673,0.28220513,-3.4434204,-3.938504923140017,nan,nan,nan,nan,8.097628116607666,0.001546621322631836,-0.6891847,0.71704894,0.060641564,0.024752900758168384,-0.003360674509393924,9.527319159065366,-0.06630977,0.045976758,0.0299296,-0.3715915,0.3600089,-3.0,2.4057548,-0.60873365,0.5512,0.0,-0.025750486,-0.0066439086,9.81347,0.010669962,-0.039408457,0.17478286,-0.010876854,0.7270987537079756,-0.09485538303852081,0.04633960872888565,0.2461976408958435
18.200674533843994,-0.2940944,0.34421623,-3.4359438,-3.9328187688222354,nan,nan,nan,nan,8.197025299072266,0.0010499954223632812,-0.69238305,0.69234765,0.061352108,0.017507564374123374,0.0010162440126733063,9.536704044644715,-0.083645895,0.043098997,0.095877886,-0.43175858,0.41348603,-3.0,2.4249382,-0.60172737,0.5242045,0.0,-0.02957348,-0.0077188145,9.814585,0.011693313,-0.037470464,0.21183385,-0.010748468,0.7274617039065011,-0.09070506691932678,0.04433988034725189,0.29542276263237
18.30095911026001,-0.36485457,0.4082157,-3.4280953,-3.9196579263839193,nan,nan,nan,nan,8.297292470932007,0.00093841552734375,-0.687222,0.66813797,0.060991373,0.008906044007728209,0.005539514719046679,9.546431611482975,-0.080973856,0.04255063,0.16555896,-0.49169356,0.46452686,-3.0,2.4482243,-0.5936031,0.49329284,0.0,-0.033221498,-0.008789252,9.815795,0.012414538,-0.0352528,0.25343296,-0.010600088,0.727837718491543,-0.0677960216999054,0.04591523855924606,0.330272376537323
18.401341199874878,-0.4290061,0.46504313,-3.4213367,-3.901456118613977,nan,nan,nan,nan,8.39780879020691,0.001529693603515625,-0.673831,0.64831036,0.060263824,0.0023168484318205618,0.00962916497886468,9.555284011890167,-0.061550066,0.04163706,0.22373079,-0.5509071,0.5124063,-3.0,2.4760094,-0.5844078,0.45881295,0.0,-0.036642767,-0.009846478,9.817066,0.012805861,-0.03278088,0.3003736,-0.010432735,0.7281797374621763,-0.03490540385246277,0.03954257816076279,0.36292046308517456
18.501047372817993,-0.49148175,0.5197711,-3.4154148,-3.8780860226844496,nan,nan,nan,nan,8.497352838516235,0.0010657310485839844,-0.65422374,0.62951255,0.058579363,-0.001537546899302633,0.013382831861466604,9.563120905910603,-0.027826738,0.036755323,0.27597535,-0.60858554,0.5562446,-3.0,2.5084789,-0.5742805,0.42146137,0.0,-0.039774515,-0.010875997,9.818346,0.0128572965,-0.03010501,0.35313603,-0.010249096,0.7284823894126972,0.0003856811672449112,0.032939642667770386,0.39324960112571716
18.610966682434082,-0.5518625,0.57243377,-3.4102252,-3.8502262374515475,nan,nan,nan,nan,8.607275485992432,0.0008227825164794922,-0.6306653,0.61031884,0.05715807,-0.0019379661679690408,0.016572306010550486,9.570732818474047,0.0068293368,0.025901316,0.32157186,-0.6710444,0.6001502,-3.0,2.5508873,-0.5619383,0.37682325,0.0,-0.042910296,-0.011990539,9.819745,0.012526358,-0.026909523,0.42013556,-0.010026164,0.7287762341363722,0.0387883335351944,0.017465293407440186,0.445101797580719
18.70076084136963,-0.6095505,0.6235059,-3.4051836,-3.8183149690860114,nan,nan,nan,nan,8.69705581665039,0.0009753704071044922,-0.60535514,0.58962286,0.055235565,0.001173082600385511,0.01889631692978866,9.576216890630299,0.04244029,0.021087313,0.36199772,-0.7210095,0.63225317,-3.0,2.5913649,-0.55097246,0.3379769,0.0,-0.045202587,-0.012881942,9.820847,0.011963056,-0.024130568,0.48284343,-0.00982882,0.728987864846174,0.05649891495704651,0.023943036794662476,0.475574254989624
18.800702333450317,-0.6649295,0.67278886,-3.400286,-3.7825987963547205,nan,nan,nan,nan,8.797029972076416,0.0010037422180175781,-0.5810322,0.565221,0.053030953,0.007441199492167705,0.020783152135256833,9.58178584665524,0.06951901,0.01922428,0.40234327,-0.7754439,0.6637862,-3.0,2.6435199,-0.5378457,0.29248187,0.0,-0.04745372,-0.01385293,9.821999,0.011043738,-0.020877996,0.56232244,-0.00959339,0.7292027092271429,0.07050566375255585,0.021667644381523132,0.5374035835266113
18.90111255645752,-0.7232431,0.7231065,-3.3951275,-3.739735871234571,nan,nan,nan,nan,8.897552251815796,0.0017380714416503906,-0.55813813,0.53237194,0.04957126,0.01659426904613981,0.022214710315713093,9.58689261295366,0.08824093,0.015475782,0.44656247,-0.82880634,0.69080013,-3.0,2.7045288,-0.52369595,0.24467008,0.0,-0.049381852,-0.014804708,9.8230505,0.009835741,-0.017461821,0.65342563,-0.009340475,0.7293996679517215,0.06707614660263062,0.024100124835968018,0.6072269082069397
19.001251220703125,-0.77632546,0.7658969,-3.390678,-3.695962664465174,nan,nan,nan,nan,8.997725248336792,0.0015377998352050781,-0.54155815,0.49476346,0.045679756,0.02603887928449855,0.023002374658440017,9.591570211057542,0.088208474,0.014453783,0.4919197,-0.8805218,0.7128497,-3.0,2.7750082,-0.5086719,0.19529898,0.0,-0.050955378,-0.015727092,9.823965,0.008384091,-0.013936061,0.7555637,-0.0090727685,0.729580028410997,0.05885506421327591,0.025954827666282654,0.7128653526306152
19.101147651672363,-0.83327967,0.80756277,-3.386055,-3.6430308416731974,nan,nan,nan,nan,9.09757375717163,0.0014820098876953125,-0.5277612,0.44573572,0.039762907,0.03630548089438301,0.023127466932641116,9.595578133729282,0.08010358,0.018897368,0.5557447,-0.93052715,0.72983474,-3.0,2.8559582,-0.49280527,0.14471944,0.0,-0.052167326,-0.016619045,9.82472,0.0067324247,-0.010325537,0.8673191,-0.008790834,0.7297345323092489,0.03294484317302704,0.03438165783882141,0.8249658942222595
19.20081615447998,-0.8852518,0.8409476,-3.3820524,-3.587782524688139,nan,nan,nan,nan,9.197172403335571,0.0011436939239501953,-0.51776963,0.3929708,0.032717567,0.044647859970556425,0.023003199554378684,9.598629083936096,0.06914732,0.020849686,0.6272374,-0.97878563,0.7416927,-3.0,2.9481695,-0.47611988,0.093258515,0.0,-0.053013336,-0.017479982,9.825303,0.004927896,-0.0066532763,0.9848772,-0.00849505,0.7298521236531199,0.015890836715698242,0.03729371726512909,0.9735286235809326
19.301231861114502,-0.9408356,0.8699929,-3.378447,-3.5192086056762024,nan,nan,nan,nan,9.297675132751465,0.0015721321105957031,-0.5081706,0.32819164,0.022551833,0.05228289818946341,0.022106454745025816,9.599686250961378,0.048293352,0.024153484,0.7258815,-1.0257556,0.7484269,-3.0,3.0531037,-0.45844302,0.040673353,0.0,-0.053493753,-0.01831816,9.825702,0.0029994533,-0.0029015816,1.1022732,-0.008182295,0.7298928651864764,-0.012874456122517586,0.0430368036031723,1.1208610534667969
19.400755405426025,-0.9921383,0.89024335,-3.3763702,-3.4461520363980434,nan,nan,nan,nan,9.397092342376709,0.0010464191436767578,-0.4999093,0.2635105,0.011261798,0.0574446970200142,0.020445810924726082,9.5980605250271,0.027782029,0.02021246,0.8344336,-1.0704306,0.7498715,-3.0,-3.1151786,-0.4401576,-0.01162904,0.0,-0.05359681,-0.019115679,9.825903,0.0010390598,0.0008295908,1.2061143,-0.007859242,0.7298302113705496,-0.024785181507468224,0.04475553333759308,1.290419101715088
19.51150131225586,-1.0473881,0.90507114,-3.3751082,-3.35463823477896,nan,nan,nan,nan,9.50805115699768,0.0013990402221679688,-0.49009323,0.19061948,-0.0034542826,0.06151122282311672,0.017277206540465828,9.592482743826688,0.019621572,0.02022081,0.9680444,-1.1180961,0.7453456,-3.0,-2.9762523,-0.41884992,-0.06989079,0.0,-0.053273935,-0.019967012,9.825896,-0.001144136,0.0049860314,1.2911314,-0.0074831597,0.7296152090407126,-0.00545547716319561,-0.0018712282180786133,1.479452133178711
19.60076332092285,-1.0977632,0.91185194,-3.375314,-3.257163628855823,nan,nan,nan,nan,9.597052574157715,0.0009582042694091797,-0.47986326,0.12192036,-0.018962625,0.06463311601727062,0.013251404533651368,9.58462047275621,0.01890862,0.014585434,1.1063156,-1.1545888,0.7370601,-3.0,-2.859585,-0.40110257,-0.116211176,0.0,-0.052682832,-0.020619163,9.825719,-0.002842971,0.008291062,1.324812,-0.0071700504,0.7293120420999271,-0.03841051459312439,0.051189884543418884,1.5633344650268555
19.700877904891968,-1.1510203,0.9113869,-3.377772,-3.136571852196794,nan,nan,nan,nan,9.697160005569458,0.0010275840759277344,-0.4671546,0.04660262,-0.036444154,0.06717927927632328,0.007219054283572834,9.571839738902632,0.010812016,0.015794858,1.2570698,-1.1937156,0.72284955,-3.0,-2.7268255,-0.3804757,-0.16752754,0.0,-0.051668927,-0.021318827,9.825342,-0.004647913,0.011953483,1.3198892,-0.0068061147,0.7288189551524913,-0.04183061048388481,0.056691303849220276,1.6174063682556152
19.816362619400024,-1.1989274,0.9042342,-3.3822038,-3.011964130219546,nan,nan,nan,nan,9.812814950942993,0.0014472007751464844,-0.45414564,-0.022561815,-0.05105037,0.0680606600775504,0.0004102830241787814,9.554267996666017,0.005583487,0.003471012,1.3824539,-1.2363015,0.70011425,-3.0,-2.577074,-0.35581508,-0.22532427,0.0,-0.050046574,-0.022080958,9.824694,-0.0065307673,0.016080072,1.2612427,-0.006370747,0.7281404910207044,0.014568433165550232,-0.03654177114367485,1.7168030738830566
19.912519454956055,-1.2490041,0.8887929,-3.3888838,-2.8647460231127546,nan,nan,nan,nan,9.909573554992676,0.003971099853515625,-0.4390554,-0.096685,-0.06356779,0.06787870700903098,-0.008722362418337681,9.535982632902444,0.007184014,-5.6420686e-06,1.4919202,-1.269705,0.67603713,-3.0,-2.458803,-0.33453965,-0.27207643,0.0,-0.048328184,-0.022679279,9.823995,-0.0078913625,0.019419782,1.1796259,-0.005994742,0.7274338104334672,0.01968376152217388,-0.050909705460071564,1.608477234840393
20.000709056854248,-1.2935872,0.86777776,-3.395773,-2.720527446024903,nan,nan,nan,nan,9.997026205062866,0.001117706298828125,-0.42480814,-0.16362111,-0.07042929,0.06649597475278379,-0.018010138119600283,9.521069606062948,0.01164172,-0.019340295,1.5589148,-1.2981031,0.65045106,-3.0,-2.3594346,-0.31483668,-0.31280297,0.0,-0.04650179,-0.023188347,9.823257,-0.008921613,0.02233056,1.0914071,-0.0056460802,0.7268569599080662,0.018227197229862213,0.0369267575442791,1.443324089050293
20.101094484329224,-1.337878,0.84051526,-3.4025702,-2.5722238760198373,nan,nan,nan,nan,10.097464561462402,0.0013318061828613281,-0.4119948,-0.23058255,-0.072465055,0.06433289532913,-0.02960728082141717,9.503494569924651,0.01427889,-0.024653431,1.5815973,-1.328567,0.6167692,-3.0,-2.255173,-0.29168835,-0.3574938,0.0,-0.04409702,-0.023734918,9.822312,-0.009842742,0.025526538,0.9845703,-0.0052357954,0.7261765600148135,0.04427367076277733,0.04635342210531235,1.278603434562683
20.200697898864746,-1.3817544,0.8071615,-3.4092293,-2.424251079244413,nan,nan,nan,nan,10.196983098983765,0.0009171962738037109,-0.40091148,-0.2978994,-0.07086528,0.06013815556888247,-0.04007904522158601,9.488214050051747,0.012848562,-0.02231193,1.551974,-1.3564327,0.57909095,-3.0,-2.162355,-0.268243,-0.39928082,0.0,-0.04140633,-0.024235334,9.8213005,-0.010456056,0.02851687,0.88188493,-0.004819433,0.7255844785468529,0.07719320058822632,0.05464614927768707,1.070377230644226
20.300774097442627,-1.4288683,0.7641452,-3.4160025,-2.2700677648930974,nan,nan,nan,nan,10.297063827514648,0.0010223388671875,-0.3897391,-0.3707298,-0.068230785,0.054609743123956056,-0.048507422842507975,9.475407345858395,0.013427955,0.013387813,1.4589773,-1.3820789,0.53714335,-3.0,-2.078906,-0.24419525,-0.4385062,0.0,-0.038410038,-0.024696322,9.820236,-0.010756543,0.03132586,0.7875389,-0.0043914607,0.7250878838388943,0.10370396822690964,0.07189607620239258,0.7988686561584473
20.400802850723267,-1.4758786,0.71370465,-3.4227467,-2.1290965786843596,nan,nan,nan,nan,10.397157192230225,0.0010950565338134766,-0.3778408,-0.44250733,-0.06798633,0.04883273755297668,-0.05330988601339093,9.465117779490528,0.01911617,0.01177368,1.304468,-1.4052997,0.49141547,-3.0,-2.0043206,-0.21971503,-0.47465542,0.0,-0.035142943,-0.025114099,9.819158,-0.010733046,0.033916432,0.7048072,-0.003954808,0.7246886508657977,0.13289262354373932,0.07923518121242523,0.5409454703330994
20.500714540481567,-1.5185316,0.66086316,-3.4290628,-2.015196508597321,nan,nan,nan,nan,10.49699592590332,0.0010447502136230469,-0.36468497,-0.5069229,-0.06966991,0.045929583083937575,-0.055990442067866075,9.45393147077876,0.04702847,0.028727017,1.125214,-1.4260006,0.44236416,-3.0,-1.937563,-0.19491269,-0.50738955,0.0,-0.03163758,-0.025486866,9.818101,-0.01038924,0.03626394,0.63454163,-0.003511399,0.7242543782070079,0.1594659388065338,0.08161446452140808,0.35704857110977173
20.601119995117188,-1.5636942,0.59729457,-3.4360528,-1.9122955164265223,nan,nan,nan,nan,10.59754228591919,0.001697540283203125,-0.34513348,-0.5741327,-0.0737585,0.04636460132708231,-0.055822812607106975,9.442561336350618,0.07559828,0.049184307,0.91074795,-1.4443278,0.38984004,-3.0,-1.8768171,-0.1695901,-0.5367701,0.0,-0.027883165,-0.025817173,9.817086,-0.009731315,0.038372383,0.57570034,-0.0030576717,0.7238127057290751,0.17069149017333984,0.09947045147418976,0.19047901034355164
20.701948404312134,-1.6037652,0.53315365,-3.4429295,-1.837184041087177,nan,nan,nan,nan,10.698395729064941,0.001516580581665039,-0.319749,-0.63259655,-0.07716738,0.050449713248057804,-0.05321458359210607,9.433119428497728,0.09663969,0.059478544,0.712733,-1.4601378,0.3343787,-3.0,-1.8212628,-0.143888,-0.56241643,0.0,-0.02391795,-0.026102327,9.816151,-0.008777992,0.040214047,0.52773774,-0.0025961623,0.7234457330086171,0.17392884194850922,0.09832490980625153,0.10998798161745071
20.801306009292603,-1.6378441,0.46983197,-3.4497418,-1.7841828328035771,nan,nan,nan,nan,10.797733068466187,0.0012350082397460938,-0.2879765,-0.6824414,-0.07848172,0.057232452233540676,-0.0498545708410032,9.42155720580834,0.12122778,0.078000315,0.54916406,-1.4731635,0.2774164,-3.0,-1.7707759,-0.1183208,-0.5837558,0.0,-0.019844644,-0.026337424,9.815336,-0.0075803273,0.041747294,0.49025163,-0.0021361897,0.7229961010958081,0.16609083116054535,0.09773503243923187,0.09575890004634857
20.901320219039917,-1.6707231,0.39614403,-3.4575908,-1.7412941234313597,nan,nan,nan,nan,10.8977792263031,0.0015227794647216797,-0.24190672,-0.73159945,-0.07645187,0.06680049814542743,-0.04372102820793855,9.411658274200736,0.12055946,0.10176957,0.39785334,-1.4837041,0.2181083,-3.0,-1.723247,-0.09236444,-0.6011629,0.0,-0.015602893,-0.026527774,9.814648,-0.006150714,0.042998634,0.46127814,-0.0016684388,0.7226109320097923,0.1269245594739914,0.1053306832909584,0.1070597842335701
21.000847816467285,-1.7001702,0.31214416,-3.466549,-1.708693645083483,nan,nan,nan,nan,10.997150897979736,0.001279592514038086,-0.17925338,-0.77528566,-0.07023172,0.07672755922731955,-0.034657186482802915,9.404554316145358,0.09693443,0.11696591,0.27429736,-1.4915947,0.1576843,-3.0,-1.67851,-0.06642285,-0.61427474,0.0,-0.011280756,-0.026670333,9.814115,-0.0045507527,0.043941572,0.44038683,-0.0012003197,0.7223343909564677,0.06383845210075378,0.1139303669333458,0.14542615413665771
21.10073447227478,-1.7216591,0.22503358,-3.474834,-1.685847401672182,nan,nan,nan,nan,11.097017288208008,0.0009725093841552734,-0.10541637,-0.8070768,-0.05963672,0.08392581728918136,-0.02431235269159715,9.401235842411394,0.06581216,0.114201196,0.19790918,-1.4969213,0.09585814,-3.0,-1.6352732,-0.04023554,-0.6231654,0.0,-0.006857888,-0.026766598,9.813746,-0.0028093366,0.044581138,0.42666787,-0.0007272919,0.7222051744737491,-0.004525125026702881,0.11654991656541824,0.21574611961841583
21.201144695281982,-1.7331733,0.14321706,-3.4810562,-1.6689710507509592,nan,nan,nan,nan,11.197582006454468,0.0016984939575195312,-0.030217608,-0.8250673,-0.04749087,0.08704263652048838,-0.014290265444383055,9.400827806950534,0.010050304,0.124226965,0.17293948,-1.4996384,0.032924064,-3.0,-1.5927687,-0.0137945255,-0.62771285,0.0,-0.0023554873,-0.026815718,9.813556,-0.0009724467,0.04490832,0.4197884,-0.00024938324,0.7221892845991268,-0.062230341136455536,0.10683762282133102,0.3075387477874756
21.301071882247925,-1.735712,0.054385416,-3.4855235,-1.6507853111861386,nan,nan,nan,nan,11.297510385513306,0.0016398429870605469,0.053345278,-0.83145034,-0.033282187,0.08429011782048101,-0.003624263557075791,9.403487887126385,-0.049929447,0.11092593,0.18419673,-1.4997029,-0.029844051,-3.0,-1.5508832,0.012503522,-0.6278209,0.0,0.0021351348,-0.026816886,9.813551,0.0008816377,0.044916093,0.41962606,0.00022604468,0.7222928682664507,-0.1171271950006485,0.09318306297063828,0.39217692613601685
21.40067148208618,-1.7297273,-0.026372375,-3.4874735,-1.6311597567549185,nan,nan,nan,nan,11.396955251693726,0.0009593963623046875,0.12689163,-0.8255526,-0.02089089,0.07720276932659031,0.004614124153714316,9.40817442719358,-0.090896234,0.09166752,0.22238904,-1.497159,-0.09210216,-3.0,-1.5088884,0.038652875,-0.6235629,0.0,0.0065891854,-0.0267709,9.81373,0.002701101,0.04460973,0.42606294,0.00069869246,0.7224753267548856,-0.14458304643630981,0.07370302081108093,0.47298216819763184
21.501142740249634,-1.7148914,-0.1110574,-3.4876466,-1.604429453760082,nan,nan,nan,nan,11.497581958770752,0.0016937255859375,0.19793142,-0.80763656,-0.008437301,0.06609409599926686,0.01114906240065916,9.414790083435355,-0.123493105,0.06845794,0.28492987,-1.4919409,-0.15444799,-3.0,-1.4653994,0.06504449,-0.61485153,0.0,0.011049249,-0.02667659,9.814091,0.0044618356,0.04398306,0.43948588,0.0011754323,0.7227328131266518,-0.15666869282722473,0.053849756717681885,0.533062219619751
21.601232051849365,-1.6945037,-0.18559565,-3.4868243,-1.573370925928961,nan,nan,nan,nan,11.597652196884155,0.0012288093566894531,0.25181663,-0.78314495,0.0019498023,0.054115601888288456,0.0147586585402808,9.42398363855201,-0.13424711,0.046720345,0.34953973,-1.4841232,-0.21536185,-3.0,-1.4204491,0.09117562,-0.6018575,0.0,0.015406452,-0.026535342,9.81462,0.0060807876,0.04304857,0.4601516,0.0016469988,0.7230904831179827,-0.1409550905227661,0.03520232439041138,0.5832608938217163
21.70115327835083,-1.667045,-0.26142496,-3.4849212,-1.5324932345620141,nan,nan,nan,nan,11.697603225708008,0.001445770263671875,0.29603112,-0.75068367,0.012059427,0.041319669840350404,0.016557855796988763,9.432706422177137,-0.1191964,0.023018243,0.41981995,-1.4737122,-0.2746931,-3.0,-1.3730984,0.117115654,-0.5846589,0.0,0.019649887,-0.026347328,9.815301,0.0075183925,0.041812204,0.48871315,0.0021144887,0.7234296767590626,-0.10936515778303146,0.0228547602891922,0.6057000756263733
21.800803422927856,-1.6385604,-0.32733375,-3.482087,-1.4884938253539985,nan,nan,nan,nan,11.797142744064331,0.0010826587677001953,0.32433584,-0.71810484,0.020314516,0.03218298837836908,0.01664291230996251,9.444825843614518,-0.088007286,0.012700438,0.47924775,-1.4607772,-0.33186793,-3.0,-1.3226794,0.14274509,-0.5634592,0.0,0.023738427,-0.026113858,9.8161125,0.008729481,0.04028895,0.525855,0.0025756182,0.7239006916328404,-0.0681794211268425,0.016444459557533264,0.6291072368621826
21.90114665031433,-1.6077902,-0.3897059,-3.478083,-1.4391694427668433,nan,nan,nan,nan,11.897589921951294,0.0014891624450683594,0.34421363,-0.6850441,0.028032834,0.026477153692442523,0.01626474991271376,9.457554998737752,-0.04642993,0.007929768,0.5291567,-1.4451501,-0.38722467,-3.0,-1.267571,0.1683565,-0.5380971,0.0,0.027696198,-0.025831997,9.8170395,0.009691858,0.038467653,0.57314044,0.0030355428,0.7243950782102758,-0.026083294302225113,0.016413614153862,0.6511590480804443
22.001198768615723,-1.5726411,-0.4535948,-3.4729817,-1.3807573748460706,nan,nan,nan,nan,11.997476816177368,0.0009467601776123047,0.3598928,-0.6492968,0.03559223,0.0246895779073254,0.01587631321117411,9.470902730119409,-0.0018572448,0.011010985,0.57374865,-1.4270737,-0.43955582,-3.0,-1.2075261,0.19352967,-0.5090996,0.0,0.031436857,-0.0255062,9.818044,0.010361055,0.03638662,0.6310046,0.0034866435,0.7249131324023056,0.0032906122505664825,0.025432437658309937,0.6576623320579529
22.100879192352295,-1.5417458,-0.5049983,-3.4684293,-1.3279099320293575,nan,nan,nan,nan,12.097203969955444,0.0011355876922607422,0.37174696,-0.61846024,0.041317333,0.026485656159614734,0.0161951948737713,9.484382148873983,0.026100943,0.02357064,0.6057718,-1.4065342,-0.48873487,-3.0,-1.141232,0.21832474,-0.47659394,0.0,0.034951407,-0.025136318,9.8190975,0.010722092,0.034055404,0.70051515,0.0039299796,0.7254359273200166,0.03292807191610336,0.03088998794555664,0.7110481858253479
22.20148730278015,-1.5041752,-0.5627187,-3.4628873,-1.262157247355961,nan,nan,nan,nan,12.197942733764648,0.0016357898712158203,0.38655803,-0.5800886,0.047098566,0.03144807540657246,0.017227505238077034,9.497723398101508,0.050085094,0.033843093,0.63860273,-1.3832948,-0.5349498,-3.0,-1.0666065,0.24298425,-0.4403841,0.0,0.038253337,-0.024718188,9.820183,0.010763065,0.031460393,0.78312564,0.0043698833,0.7259529976928167,0.03703993186354637,0.04190661013126373,0.7467765212059021
22.300760746002197,-1.4681088,-0.61325186,-3.4572136,-1.1985664414040946,nan,nan,nan,nan,12.297059059143066,0.0009434223175048828,0.402707,-0.5417673,0.05141624,0.03765288593287408,0.018856283718903244,9.51085507173556,0.060100913,0.045463562,0.6678494,-1.358026,-0.57670575,-3.0,-0.98447245,0.26682472,-0.40169647,0.0,0.04123597,-0.024263963,9.821238,0.010482926,0.0286898,0.87598103,0.004794219,0.7264615909621617,0.041147008538246155,0.05187900364398956,0.821371853351593
