time,x,y,z,yaw,platform,trajectory,controller,feedforward,traj_time,comp_time,vx,vy,vz,roll,pitch,f,p,q,r,x_ref,y_ref,z_ref,yaw_ref,vx_ref,vy_ref,vz_ref,roll_ref,pitch_ref,f_ref,u_ff_df,u_ff_dphi,u_ff_dpsi,u_ff_dth,throttle,p_cmd,q_cmd,r_cmd
10.053161382675171,-0.12185555,-0.13661335,-2.6529374,0.052731498763441936,SIM,figure_eight,contraction,1.0,0.05164647102355957,0.0009427070617675781,0.08820982,-0.0027033035,-0.18170692,0.01706907082828464,-0.011405746225958246,9.808411128968,0.023901787,0.01476541,0.04045969,0.06488948,0.06485532,-3.0,0.0,1.2559755,1.2539915,0.0,-0.010439522,0.0026112015,9.810569,0.02196688,-0.20183572,0.0,0.05053567,0.7378933137189607,1.6737288236618042,-1.7558608055114746,-0.053741455078125
10.105456352233887,-0.11530448,-0.14785428,-2.6715038,0.04994148501434414,nan,nan,nan,nan,0.10428047180175781,0.0013935565948486328,0.0945389,0.007681839,-0.1854152,0.02340235589651999,-0.0171413223335517,9.805605000667274,0.2951355,-0.4278264,0.017967438,0.13094896,0.13066798,-3.0,0.0,1.2539407,1.245863,0.0,-0.021030804,0.00526857,9.812306,0.04398025,-0.20046054,0.0,0.050427612,0.7377863221434273,1.6373080015182495,-1.7535885572433472,-0.04473876953125
10.210543870925903,-0.10732205,-0.15479927,-2.6901972,0.04588399458650828,nan,nan,nan,nan,0.2094433307647705,0.0017502307891845703,0.124209836,0.03866044,-0.2307169,0.06120946607142135,-0.060085176124413886,9.796990151144563,0.60146713,-0.7625025,0.023458663,0.26243526,0.26016614,-3.0,0.0,1.2457716,1.2133634,0.0,-0.041855045,0.01055155,9.819146,0.085358456,-0.19497575,0.0,0.049998,0.7374577609682885,1.394623875617981,-1.5334827899932861,-0.00048828125
10.306196451187134,-0.09100562,-0.155625,-2.715406,0.028824890873900486,nan,nan,nan,nan,0.30494141578674316,0.0008819103240966797,0.23384006,0.14082347,-0.26052,0.17348433635571603,-0.19151026001704996,9.782326101996006,1.320462,-1.3952641,0.02984887,0.38086042,0.37389094,-3.0,0.0,1.2336415,1.1654966,0.0,-0.060113516,0.015298102,9.828902,0.11800829,-0.18693534,0.0,0.049372125,0.7368981573687142,0.667373776435852,-0.6393333077430725,0.135833740234375
10.401850461959839,-0.045336515,-0.13553132,-2.7450285,0.0033524018592200333,nan,nan,nan,nan,0.40035510063171387,0.0007762908935546875,0.50309145,0.40118608,-0.22631119,0.2895420045984148,-0.28588162950099383,9.769247474856673,0.52827066,-0.29129496,0.0685578,0.49781197,0.48214465,-3.0,0.0,1.2170877,1.1009293,0.0,-0.07745659,0.019970745,9.841464,0.14409328,-0.17615783,0.0,0.04854002,0.7363987020450641,-0.3734997510910034,0.30031004548072815,0.248779296875
10.506006956100464,0.028718121,-0.09068955,-2.7646723,0.0013290925923447883,nan,nan,nan,nan,0.5048198699951172,0.001033782958984375,0.7760648,0.6732617,-0.17117608,0.2909759840639681,-0.27650792785030687,9.772228468097746,-0.3842015,0.438212,0.12932764,0.6237916,0.59267455,-3.0,0.0,1.1939515,1.0121484,0.0,-0.09511621,0.024984594,9.857621,0.16352504,-0.1614581,0.0,0.047416497,0.7365125716026949,-0.9226580858230591,0.6511610150337219,0.24737548828125
10.601556301116943,0.13776463,-0.02258692,-2.7778482,-0.0027386964367272643,nan,nan,nan,nan,0.6000263690948486,0.001104116439819336,1.0402404,0.89016366,-0.13310815,0.21216891270477334,-0.22497451257123524,9.789105192013084,-0.9531123,0.74121964,0.18981823,0.7362799,0.68457127,-3.0,0.0,1.168384,0.91602045,0.0,-0.10975407,0.029443346,9.873663,0.1719535,-0.14568469,0.0,0.0462235,0.737156910393633,-1.0145049095153809,0.78471839427948,0.212005615234375
10.710798263549805,0.27931273,0.056130655,-2.7879102,-0.03091197182612051,nan,nan,nan,nan,0.7092587947845459,0.0010707378387451172,1.2847927,0.97754043,-0.12576252,0.09713324804049198,-0.1603693558742767,9.813379506804047,-1.0811673,0.8698298,0.23214547,0.86207175,0.77787733,-3.0,0.0,1.1339074,0.7896911,0.0,-0.12456825,0.034409977,9.892464,0.17024776,-0.12515593,0.0,0.044685867,0.7380827096404342,-0.7773165702819824,0.846519947052002,0.1903076171875
10.80140233039856,0.4622272,0.13449667,-2.799643,-0.08314110419318141,nan,nan,nan,nan,0.799933910369873,0.0007250308990478516,1.4959497,0.9151411,-0.14070813,-0.017555699715354263,-0.08359870928802704,9.830914732851086,-0.80237234,0.9264471,0.2527239,0.9634346,0.8442834,-3.0,0.0,1.1012247,0.67342794,0.0,-0.1350785,0.03839947,9.907487,0.1597951,-0.10643719,0.0,0.043293297,0.7387507743314965,-0.32227277755737305,0.8442423939704895,0.181671142578125
10.901264429092407,0.6479046,0.1873196,-2.8129866,-0.13555613665400695,nan,nan,nan,nan,0.899733304977417,0.0008854866027832031,1.6012775,0.76515025,-0.16024145,-0.08157732348378251,-0.004786014259336557,9.84515820015222,-0.38369593,0.8734975,0.2580243,1.0713706,0.9046843,-3.0,0.0,1.0611266,0.5354311,0.0,-0.14461239,0.042639304,9.922498,0.13959292,-0.084399566,0.0,0.041656986,0.7392929897480922,-0.020572051405906677,0.6829838752746582,0.1700439453125
11.001555681228638,0.84957755,0.21972175,-2.8306718,-0.17808660872338572,nan,nan,nan,nan,1.0000216960906982,0.0006995201110839844,1.5919454,0.58551484,-0.1794594,-0.10302622065340468,0.07857798597175725,9.853631971813735,-0.047485385,0.64275336,0.25618863,1.1755927,0.95106494,-3.0,0.0,1.0166306,0.38828954,0.0,-0.15191542,0.046730515,9.935144,0.111438096,-0.061072387,0.0,0.039916582,0.7396153803047218,0.09629150480031967,0.3526149392127991,0.1434326171875
11.10110855102539,1.0198185,0.23175626,-2.849163,-0.19413973144038987,nan,nan,nan,nan,1.0995991230010986,0.0009579658508300781,1.4816948,0.45374292,-0.19261613,-0.09461698819612303,0.13407708515648786,9.856498029641804,0.06577495,0.29303446,0.24728492,1.2744598,0.98219275,-3.0,0.0,0.9684572,0.23609203,0.0,-0.15680768,0.050615605,9.9445915,0.07749112,-0.0370774,0.0,0.038100734,0.7397243901009106,0.008378531783819199,0.02104140818119049,0.114044189453125
11.202571868896484,1.152864,0.23448104,-2.8677268,-0.18979561923020224,nan,nan,nan,nan,1.2012839317321777,0.001062631607055664,1.3273197,0.37102824,-0.201948,-0.08132741804099777,0.1560853719668862,9.85377136226743,0.008453773,-0.019871503,0.23374364,1.37027,0.99812675,-3.0,0.0,0.9153547,0.07688119,0.0,-0.15930906,0.054391846,9.950532,0.038876638,-0.01206429,0.0,0.036157478,0.7396206823526739,-0.16066963970661163,-0.20067419111728668,0.093292236328125
11.301289796829224,1.2783519,0.23520786,-2.891246,-0.16924359909743045,nan,nan,nan,nan,1.2998149394989014,0.0008373260498046875,1.1235373,0.3010448,-0.21169367,-0.07742973895360125,0.15016751282186758,9.844837711304422,-0.15691654,-0.25850117,0.21099009,1.4577781,0.9980413,-3.0,0.0,0.86033374,-0.078613296,0.0,-0.15929563,0.057858016,9.952449,-1.8374301e-05,0.012336148,0.0,0.0341842,0.7392807938038315,-0.276741623878479,-0.32383278012275696,0.081573486328125
11.40809965133667,1.3711402,0.23532146,-2.9159744,-0.143104755618159,nan,nan,nan,nan,1.4000518321990967,0.00089263916015625,0.93156636,0.22773454,-0.22281969,-0.09258195469446781,0.12309811326378228,9.831400347948072,-0.2818666,-0.35851023,0.1880261,1.5410681,0.982275,-3.0,0.0,0.8009791,-0.2355508,0.0,-0.1568206,0.06117979,9.950492,-0.038650766,0.036992252,0.0,0.032076225,0.7387692670251911,-0.27575188875198364,-0.32519304752349854,0.083038330078125
11.505875825881958,1.4286497,0.23291548,-2.9379997,-0.12191759696028405,nan,nan,nan,nan,1.504695177078247,0.0010554790496826172,0.79272014,0.14527056,-0.23298697,-0.1136380509829923,0.09521715169641687,9.809029569178817,-0.28916487,-0.34792438,0.17008147,1.621495,0.9492167,-3.0,0.0,0.73563033,-0.39536694,0.0,-0.15162471,0.06441598,9.944482,-0.075412795,0.06219108,0.0,0.029753515,0.737916891442301,-0.23303596675395966,-0.26913565397262573,0.089874267578125
11.60143232345581,1.4828495,0.22217208,-2.966891,-0.10046983961875054,nan,nan,nan,nan,1.5999367237091064,0.0008778572082519531,0.6536905,0.00838809,-0.244559,-0.13828681727035336,0.06340860422599759,9.781672373563046,-0.18784927,-0.2693543,0.15318008,1.6886133,0.9048609,-3.0,0.0,0.673382,-0.5349596,0.0,-0.14464022,0.06714424,9.935908,-0.10365213,0.08432457,0.0,0.027517473,0.736873200282096,-0.05668190121650696,-0.18709740042686462,0.099517822265625
11.701432704925537,1.5179503,0.20200981,-2.9921126,-0.08641966432981082,nan,nan,nan,nan,1.6999058723449707,0.0006957054138183594,0.56381285,-0.12935834,-0.2514358,-0.14803816135538633,0.04387982371868837,9.750546259135003,-0.04760192,-0.18491974,0.14709522,1.7525563,0.84439135,-3.0,0.0,0.6054547,-0.67321426,0.0,-0.13509558,0.069772124,9.924354,-0.12617123,0.106402926,0.0,0.025031807,0.7356839463907179,0.0198855921626091,-0.11777520179748535,0.105255126953125
11.813087463378906,1.5511043,0.16283512,-3.0221279,-0.07438106679106432,nan,nan,nan,nan,1.8120121955871582,0.0012547969818115234,0.48385343,-0.29563576,-0.2571079,-0.14572351761287766,0.030323272420306413,9.717475288957353,0.0747842,-0.10341581,0.14241086,1.8160297,0.76080394,-3.0,0.0,0.52645314,-0.8155346,0.0,-0.12186141,0.072413735,9.909264,-0.14110269,0.12933847,0.0,0.022061897,0.7344183025638334,0.12350961565971375,-0.053697988390922546,0.107574462890625
11.905086517333984,1.5737507,0.119868204,-3.0461824,-0.06627795596813288,nan,nan,nan,nan,1.904001235961914,0.0016062259674072266,0.4335192,-0.42106092,-0.26071042,-0.13564169351742916,0.025427479991599222,9.690001101642846,0.13901973,-0.049454857,0.14228083,1.8613981,0.68087304,-3.0,0.0,0.45966002,-0.9203629,0.0,-0.10916586,0.07432523,9.896068,-0.14443214,0.14639424,0.0,0.019474773,0.7333652119245048,0.15149067342281342,-0.014094563201069832,0.1053466796875
12.00371527671814,1.5924344,0.072090775,-3.0682611,-0.05929434430846904,nan,nan,nan,nan,2.002760887145996,0.0012707710266113281,0.3930186,-0.52559847,-0.26365817,-0.12255472749041195,0.024524405491733736,9.658906557410953,0.18330646,-0.016051287,0.14287642,1.9031823,0.5849748,-3.0,0.0,0.38624835,-1.0191973,0.0,-0.0938878,0.07610524,9.882002,-0.13885556,0.16262044,0.0,0.0165468,0.7321715497503449,0.1409987360239029,0.02347429096698761,0.100311279296875
12.10476040840149,1.616164,-0.0062198634,-3.0990574,-0.050006274527501185,nan,nan,nan,nan,2.1033847332000732,0.0009415149688720703,0.34001118,-0.6500803,-0.26703337,-0.10076867591889839,0.02724281736965195,9.627029514461752,0.20129484,0.022432692,0.14204238,1.9382198,0.47802195,-3.0,0.0,0.30992365,-1.1037645,0.0,-0.07679688,0.07761373,9.86871,-0.12383575,0.17662951,0.0,0.01341139,0.7309458527125947,0.15809008479118347,0.03559766709804535,0.089874267578125
12.201432228088379,1.6341944,-0.081819065,-3.125108,-0.041885368538287795,nan,nan,nan,nan,2.1999549865722656,0.0007410049438476562,0.2948852,-0.73502535,-0.26825038,-0.08150430305035324,0.03171074959725084,9.59845035567879,0.19725093,0.037021976,0.13855603,1.9645638,0.36817715,-3.0,0.0,0.23550524,-1.1683655,0.0,-0.059197016,0.07875828,9.857772,-0.101501994,0.18741602,0.0,0.0102734715,0.7298452355290387,0.15308374166488647,0.04643680155277252,0.07861328125
12.30129098892212,1.6504884,-0.17012304,-3.1529794,-0.03320145260015114,nan,nan,nan,nan,2.2997548580169678,0.0007925033569335938,0.24377213,-0.80481017,-0.26852453,-0.061042559595713586,0.03754193105900483,9.573893373459569,0.18991199,0.04856705,0.1318757,1.9841908,0.24898826,-3.0,0.0,0.15769042,-1.2170612,0.0,-0.04005873,0.07961714,9.849076,-0.071773484,0.19559874,0.0,0.0069222758,0.7288982075640248,0.15102781355381012,0.04844143986701965,0.065582275390625
12.40156865119934,1.6623663,-0.2547512,-3.1786897,-0.025380111306433147,nan,nan,nan,nan,2.400015115737915,0.0010731220245361328,0.19390778,-0.8486836,-0.26771894,-0.042903403562195984,0.04317150655120727,9.553936368972053,0.18063353,0.052261766,0.12240674,1.9960546,0.12531428,-3.0,0.0,0.07889292,-1.2467312,0.0,-0.020169372,0.08013895,9.843589,-0.037085194,0.20060736,0.0,0.0034768118,0.7281276805179469,0.14422613382339478,0.056409552693367004,0.053253173828125
12.502691507339478,1.6714994,-0.3473527,-3.2064288,-0.017422809681267373,nan,nan,nan,nan,2.501164436340332,0.0008275508880615234,0.13683054,-0.8748913,-0.26552492,-0.024121014484368257,0.04929250169346622,9.538962391614907,0.17102465,0.059956905,0.11091218,1.9999995,-0.0014632617,-3.0,0.0,-0.0009193947,-1.2566358,0.0,0.00023554436,0.080312915,9.841724,0.00043678822,0.20228334,0.0,-4.0571307e-05,0.7275490163475602,0.1411261111497879,0.05531831458210945,0.04046630859375
12.60835886001587,1.6761315,-0.42518413,-3.2296216,-0.011057690214556415,nan,nan,nan,nan,2.607194185256958,0.001125335693359375,0.08602276,-0.88112074,-0.263125,-0.009034848422960979,0.054870209645713874,9.529922017529604,0.1624884,0.063725024,0.10095158,1.9954654,-0.13429719,-3.0,0.0,-0.08457317,-1.2452533,0.0,0.02161474,0.08011299,9.843865,0.039692186,0.20035747,0.0,-0.0037264086,0.7271994343232825,0.14081767201423645,0.07403238117694855,0.029296875
12.70304250717163,1.6767637,-0.5218428,-3.257933,-0.003557903772186623,nan,nan,nan,nan,2.7015271186828613,0.0007839202880859375,0.016831456,-0.86986125,-0.25824687,0.009569720905849292,0.06151750636123565,9.524633640162646,0.1590724,0.055531334,0.08586362,1.9839879,-0.25054836,-3.0,0.0,-0.1586947,-1.2165555,0.0,0.04030946,0.07960825,9.849169,0.07219044,0.19551352,0.0,-0.0069659017,0.7269948613057405,0.138323575258255,0.04711124673485756,0.01580810546875
12.801337480545044,1.6715807,-0.5935745,-3.2792451,0.0009586968133670423,nan,nan,nan,nan,2.799833297729492,0.0008440017700195312,-0.041798826,-0.84486246,-0.25348958,0.023866515133302457,0.06591672281573002,9.524115714244545,0.15514125,0.051718015,0.07421614,1.9646137,-0.3679299,-3.0,0.0,-0.23534112,-1.1684884,0.0,0.05915736,0.07876046,9.85775,0.10144551,0.1874366,0.0,-0.010266475,0.7269748230584003,0.13996650278568268,0.05273706465959549,0.006988525390625
12.906252384185791,1.657741,-0.6781082,-3.3059013,0.0050679607503713,nan,nan,nan,nan,2.904798746109009,0.0009570121765136719,-0.1208347,-0.79447204,-0.24646209,0.04183039748243615,0.07125569443484481,9.527532295174895,0.15282756,0.04727727,0.05843501,1.9356579,-0.48702934,-3.0,0.0,-0.31618145,-1.0975287,0.0,0.07823812,0.07750291,9.869729,0.12538885,0.17559235,0.0,-0.013671782,0.7271069984974833,0.1259860247373581,0.02757272496819496,-0.00262451171875
13.013392686843872,1.6411216,-0.7383066,-3.3263974,0.007510706441337455,nan,nan,nan,nan,3.012131929397583,0.0014138221740722656,-0.18489408,-0.74116325,-0.24038613,0.05518409589626218,0.07411760995334138,9.534805796630678,0.14269839,0.029304106,0.046266373,1.8973467,-0.6000504,-3.0,0.0,-0.39742106,-1.0052623,0.0,0.096292675,0.07585544,9.88408,0.1402945,0.16032343,0.0,-0.016998101,0.7273883056508863,0.13775567710399628,0.04396076127886772,-0.00860595703125
13.101284980773926,1.614479,-0.8014931,-3.350453,0.00976423531035156,nan,nan,nan,nan,3.0997819900512695,0.0007741451263427734,-0.26194286,-0.6641431,-0.23334594,0.06984145348112793,0.07629595376218656,9.542479920424519,0.13051918,0.019825676,0.033876482,1.8596537,-0.6843475,-3.0,0.0,-0.462439,-0.9162845,0.0,0.10971849,0.07425135,9.896614,0.14445789,0.14572783,0.0,-0.019583866,0.7276849908216163,0.11063261330127716,0.012245967984199524,-0.014007568359375
13.201340913772583,1.5834118,-0.85095364,-3.372623,0.011277670002280388,nan,nan,nan,nan,3.1998257637023926,0.0009372234344482422,-0.333249,-0.58118963,-0.22682223,0.08214334123265711,0.07715100305198175,9.551677431352434,0.12096143,0.0069988463,0.023428708,1.8097472,-0.7703738,-3.0,0.0,-0.53492576,-0.8012223,0.0,0.12337886,0.07215065,9.910928,0.14007941,0.12702113,0.0,-0.022384936,0.7280404137154393,0.10794764757156372,0.01246613822877407,-0.01776123046875
13.303908348083496,1.5490949,-0.88705266,-3.3929589,0.01194658729401124,nan,nan,nan,nan,3.302605628967285,0.0011265277862548828,-0.39844334,-0.4946692,-0.22094285,0.09263356109158172,0.07756913697561552,9.559731989987192,0.111537814,0.0047089984,0.016066713,1.7510337,-0.8460778,-3.0,0.0,-0.6071915,-0.6698622,0.0,0.13536212,0.06970918,9.924669,0.1257066,0.105865456,0.0,-0.025096087,0.7283515285508959,0.11915586143732071,0.027638288214802742,-0.0203857421875
13.401956558227539,1.4969906,-0.9191192,-3.418747,0.011515562421556096,nan,nan,nan,nan,3.4003982543945312,0.0008490085601806641,-0.4814223,-0.3713493,-0.21368349,0.10460465858822585,0.07778283058671054,9.567221732400355,0.09589429,9.298363e-05,0.00792899,1.6883876,-0.90504,-3.0,0.0,-0.6736054,-0.53448087,0.0,0.14466846,0.06713502,9.935943,0.10356355,0.0842484,0.0,-0.027525559,0.7286407092534796,0.07205662876367569,-0.005125656723976135,-0.022308349609375
13.505751609802246,1.4499115,-0.9334659,-3.4388344,0.010591129953760485,nan,nan,nan,nan,3.5046498775482178,0.0013592243194580078,-0.5456836,-0.26687264,-0.20772158,0.11229503849811875,0.07711742420855572,9.572254900075492,0.07174666,-0.015837958,0.0020257018,1.6145923,-0.952846,-3.0,0.0,-0.7416,-0.38133183,0.0,0.15219554,0.064136915,9.945172,0.07234264,0.05997289,0.0,-0.029966436,0.7288349774442575,0.08327306061983109,0.011003412306308746,-0.02276611328125
13.602319478988647,1.3822687,-0.93726224,-3.4637432,0.009044780918219399,nan,nan,nan,nan,3.6009228229522705,0.0008573532104492188,-0.6242753,-0.12711321,-0.200054,0.11899111319566955,0.0751723984955961,9.574286046251652,0.055653024,-0.013536208,-0.0032550406,1.540287,-0.9825039,-3.0,0.0,-0.80157185,-0.23403877,0.0,0.15685654,0.06114851,9.95053,0.038287327,0.036754377,0.0,-0.032097246,0.7289133603464875,0.03351951390504837,-0.01772346720099449,-0.022186279296875
13.714628458023071,1.311757,-0.92630327,-3.4858422,0.0075737617608554325,nan,nan,nan,nan,3.7138006687164307,0.001634836196899414,-0.69479054,0.0068895556,-0.19251049,0.12370532613099423,0.07344959917046245,9.572990819569677,0.036924753,-0.017750354,-0.0063823354,1.4460108,-0.99896556,-3.0,0.0,-0.8681382,-0.05714383,0.0,0.15944068,0.057390682,9.952412,-0.005355426,0.008966701,0.0,-0.034462478,0.7288633778900534,0.028101222589612007,-0.014061477035284042,-0.02203369140625
13.801284551620483,1.2461575,-0.9061617,-3.5037494,0.006634820119402626,nan,nan,nan,nan,3.7997548580169678,0.0008730888366699219,-0.7530283,0.12226297,-0.18624142,0.1269277047778808,0.07218449230412438,9.568233694825325,0.024735982,-0.02319022,-0.009103094,1.3693187,-0.99804604,-3.0,0.0,-0.9159165,0.078518614,0.0,0.15929638,0.05435427,9.950491,-0.039283194,-0.012321286,0.0,-0.036177803,0.7286797726775012,-0.002219967544078827,-0.030638862401247025,-0.02264404296875
13.907104253768921,1.1682585,-0.8728162,-3.5223293,0.0055494610565633845,nan,nan,nan,nan,3.9062321186065674,0.0012669563293457031,-0.8144367,0.2485653,-0.17814836,0.12762859458115844,0.06911981212910367,9.560664224568756,-0.013075663,-0.044123508,-0.009161137,1.2688038,-0.98078966,-3.0,0.0,-0.97138476,0.24513023,0.0,0.1565873,0.0503931,9.944134,-0.079606935,-0.0384995,0.0,-0.03820944,0.7283875285166475,-0.004686024039983749,-0.02360677719116211,-0.021820068359375
14.00136947631836,1.077662,-0.8236656,-3.5410435,0.004532265899294986,nan,nan,nan,nan,3.999840259552002,0.0007250308990478516,-0.87638205,0.3827794,-0.16951227,0.1255880670205186,0.0651832510310868,9.54910142319277,-0.031040307,-0.045947492,-0.01271711,1.1757329,-0.95111847,-3.0,0.0,-1.0165668,0.38808247,0.0,0.15192384,0.046736017,9.93516,-0.11139476,-0.061039656,0.0,-0.03991413,0.7279408853162033,-0.04822227358818054,-0.04563617706298828,-0.020751953125
14.101689577102661,0.98926586,-0.76684016,-3.5568764,0.0030008154465212752,nan,nan,nan,nan,4.101065635681152,0.002499103546142578,-0.92823595,0.5023085,-0.16090825,0.12063082592793972,0.06024802584552291,9.53506303207949,-0.063893914,-0.056493547,-0.012969525,1.0705227,-0.90425605,-3.0,0.0,-1.0614644,0.5365722,0.0,0.14454487,0.042606015,9.922386,-0.13978772,-0.08458111,0.0,-0.041670475,0.7273982524257067,-0.05212566256523132,-0.03556695953011513,-0.01806640625
14.205817222595215,0.8887916,-0.6941175,-3.57286,0.0007160623254494694,nan,nan,nan,nan,4.2043328285217285,0.0008108615875244141,-0.9780733,0.6235286,-0.15122417,0.11406571344067812,0.05585780712456012,9.520525287557398,-0.061289106,-0.03372491,-0.012136983,0.9587325,-0.841398,-3.0,0.0,-1.1028435,0.6791068,0.0,0.13462244,0.0382146,9.906804,-0.16046272,-0.10734805,0.0,-0.04336094,0.726835896591208,-0.07187136262655258,-0.03802036494016647,-0.0155029296875
14.302047491073608,0.8008437,-0.6241244,-3.585652,-0.0017949754270722429,nan,nan,nan,nan,4.300568103790283,0.001119375228881836,-1.0150985,0.7194783,-0.14293,0.10761964034018374,0.05247265113094568,9.505184673834599,-0.08308779,-0.039413664,-0.012024384,0.8509124,-0.77005786,-3.0,0.0,-1.1372303,0.8017019,0.0,0.12332875,0.033970136,9.890787,-0.17089681,-0.12709874,0.0,-0.044830814,0.726242018018729,-0.07811802625656128,-0.028366580605506897,-0.013336181640625
14.407515048980713,0.7022808,-0.5400664,-3.5992541,-0.0048174451475761285,nan,nan,nan,nan,4.406475305557251,0.001192331314086914,-1.0504898,0.8149887,-0.13426554,0.09853355971175853,0.048544770444997054,9.488319001961509,-0.10566104,-0.042816807,-0.010713165,0.72867733,-0.6785928,-3.0,0.0,-1.1702641,0.92301834,0.0,0.10880316,0.029142534,9.872546,-0.17167054,-0.14682826,0.0,-0.046309605,0.7255885467930961,-0.08290919661521912,-0.014876499772071838,-0.0108642578125
14.503023147583008,0.5924864,-0.44203693,-3.6129174,-0.007629791479762428,nan,nan,nan,nan,4.501556873321533,0.0009295940399169922,-1.0836753,0.9044079,-0.124155164,0.0867474993728082,0.04453472998715835,9.472694461662332,-0.12408154,-0.041363526,-0.008533637,0.6161731,-0.58620137,-3.0,0.0,-1.1955122,1.0180839,0.0,0.0940835,0.024681997,9.856581,-0.16263638,-0.1624368,0.0,-0.04749092,0.7249826455631224,-0.11191494762897491,-0.0273798368871212,-0.008331298828125
14.601457357406616,0.4804295,-0.3386491,-3.62517,-0.009779947756668364,nan,nan,nan,nan,4.59995174407959,0.0008568763732910156,-1.1120116,0.97744095,-0.11326387,0.07317622987207024,0.040652782402537335,9.459518751073638,-0.13491565,-0.040240187,-0.007557108,0.49743846,-0.48180676,-3.0,0.0,-1.2171481,1.1011628,0.0,0.07740252,0.019955846,9.84142,-0.14402145,-0.17619671,0.0,-0.048543,0.724471318591419,-0.12753643095493317,-0.03654959052801132,-0.0068359375
14.70147442817688,0.3756738,-0.23955323,-3.6356826,-0.011127879203939681,nan,nan,nan,nan,4.700065851211548,0.0007410049438476562,-1.13372,1.0296257,-0.10319522,0.059457394351780934,0.036777711160638216,9.449622079599658,-0.14439544,-0.03952706,-0.0051850434,0.3746816,-0.36804783,-3.0,0.0,-1.2343884,1.1684297,0.0,0.059176277,0.015050796,9.828315,-0.11644493,-0.18742679,0.0,-0.04941025,0.7240870113281478,-0.12700198590755463,-0.031847383826971054,-0.006072998046875
14.801500797271729,0.26093984,-0.12973899,-3.6464217,-0.011552723451717331,nan,nan,nan,nan,4.80011510848999,0.0009028911590576172,-1.1527392,1.0686581,-0.09277062,0.043845366126377294,0.032355239346280484,9.443529110644022,-0.14979947,-0.040526528,-0.003294601,0.25052258,-0.24854942,-3.0,0.0,-1.2467395,1.2172029,0.0,0.039988205,0.010073391,9.818347,-0.0817961,-0.19562261,0.0,-0.050048556,0.7238503092379162,-0.13098637759685516,-0.03596469387412071,-0.005889892578125
14.90149998664856,0.15424064,-0.027374884,-3.6556797,-0.011245533945836512,nan,nan,nan,nan,4.90001368522644,0.0010693073272705078,-1.1662073,1.0888065,-0.08302915,0.02927329342318361,0.028389307398001495,9.441730640698236,-0.15042801,-0.04117106,-0.0020779097,0.12556331,-0.1253156,-3.0,0.0,-1.2541581,1.2467309,0.0,0.020169586,0.005051978,9.812121,-0.04220719,-0.20060733,0.0,-0.050439138,0.7237804269643519,-0.1304168999195099,-0.03318144753575325,-0.006866455078125
15.001856803894043,0.03835673,0.082926124,-3.6648452,-0.01055003632958997,nan,nan,nan,nan,5.000328779220581,0.001138448715209961,-1.1762328,1.0938351,-0.0727798,0.013498788897780977,0.024070356293439232,9.444581099301589,-0.14921172,-0.041735746,-0.0010493932,-0.00041359267,0.00041359264,-3.0,0.0,-1.2566371,1.256637,0.0,-6.65769e-05,-1.6644224e-05,9.81,0.00014037252,-0.20228356,0.0,-0.050570894,0.7238911827659151,-0.1340920329093933,-0.03850119188427925,-0.00799560546875
15.101501226425171,-0.059503723,0.17467597,-3.672067,-0.00991096291378847,nan,nan,nan,nan,5.099963426589966,0.0009489059448242188,-1.1808827,1.0846637,-0.06483036,0.00020868026000854262,0.020647620926862453,9.451845935471368,-0.14878117,-0.034705162,-0.0013951915,-0.1255351,0.12528756,-3.0,0.0,-1.2541592,1.2467353,0.0,-0.020165073,-0.005050844,9.81212,0.042197883,-0.20060806,0.0,-0.05043919,0.7241733855588031,-0.1378181427717209,-0.03070957586169243,-0.009490966796875
15.201401710510254,-0.16620992,0.27200377,-3.6797225,-0.009400599396404799,nan,nan,nan,nan,5.20007586479187,0.0009636878967285156,-1.1825147,1.0606481,-0.056672584,-0.014395689518199516,0.01711338271803564,9.463460665158937,-0.15363275,-0.0372072,-0.0010855157,-0.25076136,0.24878253,-3.0,0.0,-1.2467206,1.2171277,0.0,-0.04002567,-0.010082974,9.818362,0.08186795,-0.19560994,0.0,-0.050047573,0.7246243348999135,-0.1439894586801529,-0.03385799750685692,-0.011077880859375
15.307593584060669,-0.2908048,0.38081342,-3.6883037,-0.0091697908182434,nan,nan,nan,nan,5.306646823883057,0.002971172332763672,-1.180106,1.0152832,-0.048063453,-0.03205167399383599,0.012587347904430946,9.478822246156644,-0.1553799,-0.04378995,-0.003239539,-0.382964,0.37587768,-3.0,0.0,-1.2333844,1.164487,0.0,-0.06043216,-0.015382286,9.829103,0.118536636,-0.18676622,0.0,-0.04935901,0.7252203333269015,-0.14266832172870636,-0.04601733386516571,-0.0118408203125
15.40408968925476,-0.37975416,0.45435464,-3.6937423,-0.009187791738009377,nan,nan,nan,nan,5.403313398361206,0.0012023448944091797,-1.1752942,0.9709793,-0.042427048,-0.04476175621660731,0.009003119667320814,9.49405186723919,-0.15770648,-0.046045277,-0.0042175013,-0.501412,0.48539853,-3.0,0.0,-1.2165042,1.098669,0.0,-0.07797721,-0.02011431,9.841891,0.14478146,-0.17578194,0.0,-0.04851113,0.7258107354255149,-0.15342780947685242,-0.03966103121638298,-0.01214599609375
15.50686001777649,-0.5045663,0.5496594,-3.6995642,-0.009427424025427074,nan,nan,nan,nan,5.505489349365234,0.0010924339294433594,-1.1645563,0.89274156,-0.034619633,-0.06244303432087895,0.003532436139353168,9.515488954745244,-0.1517366,-0.050625455,-0.005388471,-0.62459105,0.59335214,-3.0,0.0,-1.1937864,1.0115212,0.0,-0.0952243,-0.025016345,9.857731,0.16361605,-0.16135475,0.0,-0.047408637,0.7266409786853296,-0.13666602969169617,-0.054122503846883774,-0.01153564453125
15.601414918899536,-0.610924,0.62309664,-3.703081,-0.009710979761289706,nan,nan,nan,nan,5.600038766860962,0.0009589195251464844,-1.1507522,0.81088483,-0.028566249,-0.07678241322895084,-0.001819960128777831,9.537718665413571,-0.14121349,-0.056510072,-0.0053202193,-0.7362943,0.6845826,-3.0,0.0,-1.1683804,0.91600716,0.0,-0.10975587,-0.029443914,9.873666,0.17195399,-0.14568251,0.0,-0.04622333,0.7275009325570361,-0.12349623441696167,-0.05870502069592476,-0.01019287109375
15.716787099838257,-0.73291314,0.6973407,-3.706016,-0.010170461596132531,nan,nan,nan,nan,5.715731143951416,0.0009834766387939453,-1.1282728,0.6998787,-0.02194191,-0.09126452209334793,-0.008833734751148015,9.562280388735248,-0.116730824,-0.06368631,-0.005496983,-0.869404,0.782963,-3.0,0.0,-1.1316952,0.78171414,0.0,-0.12537417,-0.034698907,9.893564,0.16976754,-0.1238666,0.0,-0.04458973,0.7284499355319282,-0.11631350219249725,-0.055789683014154434,-0.007904052734375
15.805586338043213,-0.8182762,0.7417937,-3.7075841,-0.010548146040347137,nan,nan,nan,nan,5.804073333740234,0.0009126663208007812,-1.1074369,0.6119408,-0.017855613,-0.10063479350040941,-0.013762317243983357,9.579776793383074,-0.11330479,-0.0572237,-0.005449836,-0.96799,0.8470597,-3.0,0.0,-1.0996463,0.6678997,0.0,-0.1355173,-0.038578548,9.908147,0.15913135,-0.10555083,0.0,-0.04322747,0.7291252092965267,-0.11923796683549881,-0.05099419504404068,-0.0062255859375
15.913506984710693,-0.9181071,0.7846553,-3.7090573,-0.011053741099738716,nan,nan,nan,nan,5.912033319473267,0.0008227825164794922,-1.0783268,0.4971133,-0.013224118,-0.1112485852075632,-0.019280065419360115,9.60190334822984,-0.09839077,-0.05556863,-0.005130669,-1.0843904,0.91116184,-3.0,0.0,-1.0558925,0.5177957,0.0,-0.1456333,-0.043150403,9.924196,0.13653071,-0.081595354,0.0,-0.0414485,0.7299783012988065,-0.12172596901655197,-0.047826673835515976,-0.00445556640625
16.00673198699951,-1.0216136,0.81756073,-3.710038,-0.011633096867001133,nan,nan,nan,nan,6.005355358123779,0.0008406639099121094,-1.0406173,0.3631265,-0.008501089,-0.12092129846258474,-0.024812256960229373,9.61727826695891,-0.07935653,-0.050041977,-0.003273733,-1.1810083,0.95311457,-3.0,0.0,-1.0141495,0.38027048,0.0,-0.15223777,-0.046943158,9.935734,0.10975335,-0.05980519,0.0,-0.039821498,0.7305705044857337,-0.07843616604804993,-0.04853426665067673,-0.002471923828125
16.101906061172485,-1.1119261,0.83488566,-3.7106385,-0.012004832580036782,nan,nan,nan,nan,6.1004719734191895,0.0008635520935058594,-1.0000579,0.23280072,-0.0049249907,-0.12755227185402376,-0.02966981464176799,9.631034582220035,-0.04809472,-0.045400497,-0.0017979619,-1.2753052,0.9823983,-3.0,0.0,-0.96801776,0.23473774,0.0,-0.15683995,-0.050648864,9.944659,0.077173196,-0.03686434,0.0,-0.038084436,0.7310999620234601,-0.05369478464126587,-0.04383699968457222,-0.00079345703125
16.201534271240234,-1.2042176,0.83894867,-3.711036,-0.012296236020557565,nan,nan,nan,nan,6.199995279312134,0.0007765293121337891,-0.95107377,0.08720339,-0.0017087527,-0.13133681373031733,-0.03432685846618244,9.640751340203003,-0.02302048,-0.039404824,-0.0008730578,-1.36909,0.9980264,-3.0,0.0,-0.91605157,0.07891227,0.0,-0.15929331,-0.054345235,9.950481,0.039380923,-0.012383074,0.0,-0.036182687,0.7314737159296657,-0.024757951498031616,-0.03888349235057831,0.000335693359375
16.304400205612183,-1.2775487,0.8305075,-3.7115636,-0.012262050430508445,nan,nan,nan,nan,6.303293943405151,0.0018529891967773438,-0.9060678,-0.037066452,0.00072559953,-0.13263480393218513,-0.037733197229737225,9.6457477296889,-0.0032361825,-0.03462972,0.0014229119,-1.460768,0.9977582,-3.0,0.0,-0.8583293,-0.08409615,0.0,-0.15925121,-0.057976834,9.952446,-0.0013890662,0.013196716,0.0,-0.0341128,0.7316658281145018,-0.03982757776975632,-0.037958014756441116,0.000701904296875
16.4015371799469,-1.3643659,0.8043131,-3.712341,-0.011966379776499537,nan,nan,nan,nan,6.400027275085449,0.0008783340454101562,-0.8448033,-0.19403361,0.003242465,-0.1331103649915617,-0.04163900936362297,9.646676047313973,0.004169002,-0.030442365,0.0027852291,-1.5410486,0.98228073,-3.0,0.0,-0.8009938,-0.23551321,0.0,-0.15682149,-0.061179012,9.950494,-0.038641725,0.03698634,0.0,-0.032076743,0.7317015166331478,0.0189351923763752,-0.03259554132819176,0.000946044921875
16.502483367919922,-1.4271952,0.77167,-3.713184,-0.01151076571032151,nan,nan,nan,nan,6.501020669937134,0.0007517337799072266,-0.7936829,-0.31558755,0.0049737687,-0.1314114457940498,-0.044306932414881484,9.643854054156707,0.041043207,-0.025324926,0.0029382796,-1.6187873,0.9506595,-3.0,0.0,-0.7379808,-0.3898543,0.0,-0.15185164,-0.06430648,9.9447565,-0.07421123,0.061319698,0.0,-0.02983738,0.7315930217644754,0.01427685096859932,-0.03525424748659134,0.0003662109375
16.618613243103027,-1.4993694,0.7152323,-3.7144012,-0.010534743410161751,nan,nan,nan,nan,6.6188154220581055,0.000980377197265625,-0.72483253,-0.4642637,0.0066624307,-0.12596214715618512,-0.04747066106657871,9.636472674254343,0.05469639,-0.027084801,0.002989274,-1.7012067,0.89450794,-3.0,0.0,-0.66074973,-0.5617822,0.0,-0.14300792,-0.067659415,9.933905,-0.108509734,0.08859442,0.0,-0.027059322,0.7313091607873576,0.02672003209590912,-0.03520751744508743,-0.000457763671875
16.703452587127686,-1.549818,0.66021323,-3.7150698,-0.00956997908249868,nan,nan,nan,nan,6.7020416259765625,0.0009107589721679688,-0.6681842,-0.5743865,0.007965361,-0.12072052953606577,-0.049959072275635785,9.62858476320283,0.06739006,-0.02393486,0.003101335,-1.7538481,0.8429502,-3.0,0.0,-0.60397625,-0.6760601,0.0,-0.1348678,-0.06982554,9.924084,-0.1265621,0.106859334,0.0,-0.024977054,0.7310057002785475,0.05848897248506546,-0.029142703860998154,-0.000885009765625
16.812624216079712,-1.6024818,0.5843547,-3.715581,-0.008326123475198066,nan,nan,nan,nan,6.812302350997925,0.0008931159973144531,-0.5987953,-0.6956027,0.009922656,-0.11209469264716945,-0.052311514108990265,9.61571053842084,0.10114001,-0.014701291,0.0020032353,-1.8161824,0.7605672,-3.0,0.0,-0.526245,-0.8158832,0.0,-0.12182388,-0.072420135,9.909223,-0.1411261,0.12939495,0.0,-0.02205395,0.7305101412103532,0.07139629125595093,-0.030049555003643036,-0.002197265625
16.920336484909058,-1.6510704,0.4913574,-3.7164302,-0.0068843078444367975,nan,nan,nan,nan,6.918987512588501,0.0008831024169921875,-0.5223503,-0.81131595,0.011340783,-0.09984296883061644,-0.05436283983619594,9.60427244419233,0.11971683,-0.014954072,0.0031705766,-1.8682041,0.66696024,-3.0,0.0,-0.44862708,-0.93631184,0.0,-0.10695234,-0.07461384,9.893905,-0.14419283,0.14900264,0.0,-0.019040395,0.7300695837987718,0.09794673323631287,-0.025937367230653763,-0.00347900390625
17.011410236358643,-1.6863328,0.40393114,-3.717769,-0.005611397432715777,nan,nan,nan,nan,7.0100696086883545,0.00125885009765625,-0.45563433,-0.8963348,0.011925591,-0.08784207354343337,-0.056052750423560394,9.593624877724807,0.1326579,-0.014328268,0.0007115011,-1.9059852,0.5775011,-3.0,0.0,-0.38075283,-1.0259058,0.0,-0.092695184,-0.07622536,9.880989,-0.13807331,0.16372736,0.0,-0.016324082,0.7296592390630242,0.11647088825702667,-0.021725693717598915,-0.00445556640625
17.108078479766846,-1.7132769,0.31882966,-3.7191846,-0.004330050423115975,nan,nan,nan,nan,7.106838226318359,0.0011730194091796875,-0.39348897,-0.9618046,0.012355328,-0.07598585849035028,-0.05758146230466088,9.582114777136603,0.13595206,-0.014714324,0.00024919788,-1.9392855,0.47420555,-3.0,0.0,-0.30728033,-1.1063612,0.0,-0.07618614,-0.07765985,9.868282,-0.12316356,0.17706162,0.0,-0.013301231,0.7292153970611319,0.11520248651504517,-0.02807173877954483,-0.00543212890625
17.20197820663452,-1.7369841,0.22209492,-3.720334,-0.002877667436082112,nan,nan,nan,nan,7.200449705123901,0.0008819103240966797,-0.32510754,-1.0186421,0.013052464,-0.062337848255436465,-0.0593399542842834,9.57116556772963,0.14413069,-0.015728235,-0.0009923808,-1.9646803,0.3675988,-3.0,0.0,-0.23512134,-1.168653,0.0,-0.05910425,-0.07876336,9.857721,-0.10136982,0.18746419,0.0,-0.010257101,0.7287929361620986,0.12687154114246368,-0.02493605576455593,-0.00640869140625
17.30159854888916,-1.7551455,0.12275872,-3.7214181,-0.0014479047903120101,nan,nan,nan,nan,7.300091743469238,0.0007457733154296875,-0.25656056,-1.0598409,0.013935473,-0.04799574908548437,-0.06103168285629246,9.562989762369552,0.14966224,-0.017819393,-0.0011715898,-1.9842439,0.24857819,-3.0,0.0,-0.1574265,-1.2171936,0.0,-0.039992828,-0.079619475,9.849052,-0.07166379,0.19562106,0.0,-0.0069108102,0.7284773258184725,0.131045863032341,-0.028334150090813637,-0.007110595703125
17.401216983795166,-1.7681977,0.014274413,-3.72245,0.00016555300003170959,nan,nan,nan,nan,7.399748086929321,0.0011076927185058594,-0.18160714,-1.0861945,0.014908573,-0.03200858648086661,-0.06309217776832998,9.558128377255063,0.15309738,-0.019432483,-0.0028523933,-1.9960335,0.12564738,-3.0,0.0,-0.07910346,-1.2466782,0.0,-0.020222973,-0.08013803,9.843598,-0.037182055,0.20059842,0.0,-0.0034860666,0.7282895979668778,0.13841885328292847,-0.021735578775405884,-0.0072021484375
17.514694690704346,-1.7738186,-0.08547305,-3.7237904,0.0017109367952146577,nan,nan,nan,nan,7.513621807098389,0.0011425018310546875,-0.1116385,-1.0939139,0.01608345,-0.016833211729411244,-0.064946178121714,9.557019066233197,0.15743834,-0.015585504,-0.003094506,-1.9999268,-0.017116688,-3.0,0.0,0.010755127,-1.256453,0.0,0.002755303,-0.08030972,9.841759,0.0051085753,0.2022524,0.0,0.00047459363,0.7282467539852757,0.13743306696414948,-0.03817591816186905,-0.00726318359375
17.601828575134277,-1.7718157,-0.19116397,-3.7254956,0.0036291879638682854,nan,nan,nan,nan,7.600403308868408,0.0008709430694580078,-0.03426143,-1.0840062,0.017291697,-0.0001980876916449375,-0.0668530251116175,9.559365941546867,0.15594442,-0.021347767,-0.004742962,-1.9960215,-0.12583664,-3.0,0.0,0.07922309,-1.2466481,0.0,0.020253424,-0.0801375,9.843604,0.03723708,0.20059332,0.0,0.003491324,0.7283373924321743,0.13861212134361267,-0.011584360152482986,-0.007171630859375
17.701422214508057,-1.7632424,-0.28493208,-3.7268927,0.005664831228142511,nan,nan,nan,nan,7.699941396713257,0.0007293224334716797,0.037504677,-1.0582408,0.018105607,0.014940874862143367,-0.06792697914091006,9.56546124815942,0.15265937,-0.005619346,-0.004874535,-1.9842386,-0.24861889,-3.0,0.0,0.1574527,-1.2171805,0.0,0.03999937,-0.079619244,9.849054,0.07167468,0.19561884,0.0,0.006911949,0.7285727467252263,0.13580438494682312,-0.011200234293937683,-0.008026123046875
17.801425218582153,-1.747646,-0.3806396,-3.7284167,0.007924444450424206,nan,nan,nan,nan,7.799880504608154,0.0007390975952148438,0.11349117,-1.0126581,0.018822618,0.030861398246380574,-0.06822283836080323,9.57476964212955,0.1459312,-0.0038222366,-0.0052823303,-1.9646025,-0.3679855,-3.0,0.0,0.23537801,-1.1684607,0.0,0.05916628,-0.07875997,9.857755,0.101458214,0.18743198,0.0,0.0102680465,0.7289320213172028,0.12671725451946259,-0.007828877307474613,-0.009307861328125
17.909300565719604,-1.729523,-0.45548403,-3.7294812,0.00991918684927684,nan,nan,nan,nan,7.908293724060059,0.0011816024780273438,0.17628829,-0.9603189,0.018952526,0.043727273964521716,-0.06862674559118065,9.586616001129158,0.13635659,-0.0029475726,-0.005558361,-1.9345479,-0.49086103,-3.0,0.0,0.31885186,-1.0948298,0.0,0.078851126,-0.07745492,9.870169,0.126035,0.17514363,0.0,0.013782724,0.7293890008787305,0.13505879044532776,-0.03612877428531647,-0.010101318359375
18.00376558303833,-1.699878,-0.54146796,-3.7303002,0.01236842185528968,nan,nan,nan,nan,8.003222227096558,0.0024042129516601562,0.25418144,-0.87757725,0.018961824,0.059022996890138096,-0.06973847965158919,9.599112171828756,0.13028368,-0.016509064,-0.007143707,-1.9008577,-0.5910566,-3.0,0.0,0.39074132,-1.0136412,0.0,0.094858095,-0.07600569,9.882834,0.13945875,0.16170423,0.0,0.016728526,0.7298707413694224,0.11064831912517548,-0.01291930116713047,-0.010009765625
18.102854013442993,-1.6713362,-0.60110706,-3.7304957,0.014254742645029257,nan,nan,nan,nan,8.101362943649292,0.0008957386016845703,0.3147554,-0.80103755,0.01930522,0.0703881128370389,-0.07097566299383451,9.61373482853175,0.11903073,-0.012684943,-0.008462241,-1.8589216,-0.68579495,-3.0,0.0,0.4635996,-0.91457397,0.0,0.10994868,-0.07422036,9.896842,0.14446451,0.14544837,0.0,0.019629393,0.730434062153998,0.11367957293987274,-0.02335461601614952,-0.00970458984375
18.201634883880615,-1.6347111,-0.6571786,-3.730377,0.016346253228836594,nan,nan,nan,nan,8.200222730636597,0.0010149478912353516,0.38052946,-0.7069171,0.019453147,0.0820226911208628,-0.07243800270302692,9.628106389045723,0.11354316,-0.018172603,-0.0075329836,-1.8095345,-0.77069217,-3.0,0.0,0.53520966,-0.80073875,0.0,0.12342933,-0.072141744,9.910984,0.14004274,0.1269429,0.0,0.022395741,0.7309872924653036,0.10669448971748352,-0.020801890641450882,-0.009063720703125
18.30162811279297,-1.5886523,-0.7068257,-3.7302802,0.018555842148100694,nan,nan,nan,nan,8.300177097320557,0.0007524490356445312,0.45087355,-0.59349763,0.019207885,0.09334122337060305,-0.07351542361234498,9.641364215016374,0.09602819,-0.006554909,-0.0066206194,-1.7525061,-0.8444472,-3.0,0.0,0.60551214,-0.6731036,0.0,0.1351044,-0.069770046,9.924364,0.12615596,0.106385194,0.0,0.02503393,0.7314972837682749,0.08647247403860092,-0.008398076519370079,-0.008453369140625
18.40150022506714,-1.5403932,-0.74122834,-3.7300959,0.020739289403792986,nan,nan,nan,nan,8.399943113327026,0.0008802413940429688,0.5147022,-0.47997752,0.019028008,0.10227948860657071,-0.07388616501333245,9.651673206388963,0.08688014,-0.011017822,-0.0075888154,-1.6886939,-0.9047968,-3.0,0.0,0.6733022,-0.5351308,0.0,0.14463012,-0.06714753,9.935896,0.103683785,0.08435179,0.0,0.02751458,0.7318935994072894,0.0787670761346817,-0.009274359792470932,-0.008209228515625
18.502381563186646,-1.4815388,-0.7661734,-3.729686,0.023171775262829486,nan,nan,nan,nan,8.501611471176147,0.0009055137634277344,0.5821539,-0.34954754,0.018868253,0.11044682589365515,-0.07389302005415388,9.660428845137373,0.060459416,0.0039537535,-0.006306383,-1.6168427,-0.95168036,-3.0,0.0,0.7396618,-0.38590103,0.0,0.15201221,-0.064227864,9.944951,0.0733461,0.06069491,0.0,0.029897332,0.732230032256751,0.05761263519525528,-0.0008186101913452148,-0.00836181640625
18.611417293548584,-1.4214214,-0.77766424,-3.7293277,0.025422059482424153,nan,nan,nan,nan,8.61031460762024,0.0015871524810791016,0.6426612,-0.22437976,0.018619308,0.11607403111657766,-0.07339724082945431,9.6652671884373,0.043520488,0.007713436,-0.006231748,-1.5327319,-0.9846335,-3.0,0.0,0.80726904,-0.219451,0.0,0.15719095,-0.0608461,9.950873,0.034769494,0.034459807,0.0,0.032299284,0.7324158787767544,0.06863949447870255,-0.015887971967458725,-0.008636474609375
18.701501846313477,-1.3558677,-0.777101,-3.7290878,0.02775911920249468,nan,nan,nan,nan,8.699971199035645,0.0007605552673339844,0.70087236,-0.09601882,0.017969994,0.1204406038074684,-0.07292695110894543,9.666558462211416,0.036685374,0.0043472904,-0.0065830764,-1.4579617,-0.99802446,-3.0,0.0,0.86021096,-0.07894955,0.0,0.15929301,-0.05786531,9.952449,0.000102456856,0.012388922,0.0,0.03417983,0.7324654702737111,0.0393206849694252,-0.0005033984780311584,-0.0089111328125
18.803243398666382,-1.2852972,-0.76440287,-3.728705,0.030093998531741918,nan,nan,nan,nan,8.802057027816772,0.0008153915405273438,0.7566761,0.034493614,0.017551672,0.12302593016786673,-0.07194515943027557,9.664073951321207,0.018757164,0.008718801,-0.006987143,-1.3672086,-0.9978611,-3.0,0.0,0.91716015,0.08214681,0.0,0.15926737,-0.054270923,9.9504,-0.040183596,-0.0128907515,0.0,0.036222797,0.7323700494422758,0.03288561478257179,-0.0049148984253406525,-0.00946044921875
18.906208038330078,-1.2040615,-0.7374387,-3.7283096,0.03253991938095576,nan,nan,nan,nan,8.905709505081177,0.00152587890625,0.814114,0.17596574,0.01724424,0.12500840194137952,-0.07143953900932587,9.658245282846057,0.0069838124,0.0052971737,-0.007279093,-1.2693112,-0.98091745,-3.0,0.0,0.97112304,0.24432112,0.0,0.15660739,-0.050413065,9.944175,-0.07941797,-0.03837218,0.0,0.03819972,0.7321461437912945,0.0037725940346717834,0.005332287400960922,-0.00946044921875
19.004640340805054,-1.1308556,-0.7046685,-3.7278764,0.034521344847587634,nan,nan,nan,nan,9.003637075424194,0.0013632774353027344,0.86117965,0.29404223,0.017553939,0.12490114032148782,-0.07046731674106144,9.649605555536713,-0.018430306,0.01258444,-0.007057584,-1.1718696,-0.94963413,-3.0,0.0,1.0183262,0.39378086,0.0,0.15169036,-0.046584334,9.934734,-0.11258396,-0.061940353,0.0,0.039981667,0.7318141282594384,-0.0006457976996898651,-0.0005914531648159027,-0.009613037109375
19.10300850868225,-1.0457302,-0.6589203,-3.7272372,0.03646855867161264,nan,nan,nan,nan,9.102315425872803,0.0032868385314941406,0.91073644,0.41861078,0.018037537,0.12165464889279914,-0.06834021086060571,9.636073771717513,-0.049509283,0.023759186,-0.008001714,-1.069195,-0.903584,-3.0,0.0,1.0619925,0.53835714,0.0,0.14443895,-0.042553894,9.922211,-0.14009164,-0.08486508,0.0,0.041691594,0.7312938173533486,-0.015132412314414978,0.003437809646129608,-0.010223388671875
19.20147156715393,-0.9402304,-0.5927222,-3.7268238,0.03850467179302265,nan,nan,nan,nan,9.200003385543823,0.0007979869842529297,0.96516776,0.5552674,0.01853257,0.1149943277082343,-0.06516277962034489,9.620425484033786,-0.06211407,0.025242897,-0.007982572,-0.96350324,-0.8443254,-3.0,0.0,1.1012008,0.67334485,0.0,0.13508515,-0.038402166,9.907497,-0.15978523,-0.10642388,0.0,0.043292303,0.7306916689889472,-0.06006767600774765,0.03285529091954231,-0.0113525390625
19.301111221313477,-0.8455794,-0.5260848,-3.7264056,0.03995684567645023,nan,nan,nan,nan,9.299559354782104,0.0009713172912597656,1.0081937,0.6630057,0.019454615,0.1076518684636815,-0.06167830122921236,9.603658521326743,-0.090085514,0.04097954,-0.008302191,-0.85205907,-0.77086574,-3.0,0.0,1.1368912,0.80047494,0.0,0.123456836,-0.03401533,9.89096,-0.17083468,-0.1269002,0.0,0.044816002,0.7300459301121889,-0.06858110427856445,0.03340242803096771,-0.012420654296875
19.4071843624115,-0.7471369,-0.45158494,-3.725591,0.04120279259952302,nan,nan,nan,nan,9.40577745437622,0.0008566379547119141,1.0473527,0.7601428,0.020539891,0.09820888826827977,-0.05738942165068983,9.586343304219211,-0.10134129,0.03889177,-0.008674328,-0.72949374,-0.67923653,-3.0,0.0,1.1700633,0.9222704,0.0,0.10890555,-0.02917484,9.872666,-0.17170298,-0.146706,0.0,0.046300396,0.7293784846272374,-0.0633014589548111,0.02231357991695404,-0.01373291015625
19.50149631500244,-0.6361918,-0.36210987,-3.7240462,0.04208471654077717,nan,nan,nan,nan,9.500001668930054,0.0007531642913818359,1.0859772,0.85263276,0.021988103,0.0875465855857426,-0.05326738689607469,9.569957451822724,-0.10795479,0.042183526,-0.010067856,-0.6180312,-0.58778286,-3.0,0.0,1.1951334,1.0166429,0.0,0.09433583,-0.024755808,9.856833,-0.16285671,-0.16219914,0.0,0.047472846,0.7287463077938557,-0.08297550678253174,0.03352631255984306,-0.01422119140625
19.61621642112732,-0.52158135,-0.2646018,-3.7218835,0.04266202511886663,nan,nan,nan,nan,9.615187644958496,0.0014123916625976562,1.1203893,0.9320514,0.023979407,0.0756617502454005,-0.04853642224511612,9.555456026049818,-0.12642899,0.05225742,-0.011751962,-0.478871,-0.46494174,-3.0,0.0,1.2200844,1.1125528,0.0,0.074703395,-0.01921511,9.839253,-0.1403529,-0.17809242,0.0,0.048688836,0.7281863817856521,-0.10381263494491577,0.03928942233324051,-0.014862060546875
19.70279026031494,-0.42269367,-0.17741486,-3.7200494,0.04298262604618417,nan,nan,nan,nan,9.701277256011963,0.0008533000946044922,1.1452943,0.98721045,0.025728917,0.06441637480905887,-0.04419968217845094,9.54603702634808,-0.1333884,0.05028338,-0.011198234,-0.37318572,-0.36663157,-3.0,0.0,1.2345672,1.1691327,0.0,0.058949094,-0.0149909165,9.828175,-0.11606389,-0.18754457,0.0,0.04941939,0.7278224697150352,-0.1247241348028183,0.04763410985469818,-0.015533447265625
19.801458597183228,-0.3038244,-0.07071301,-3.7178583,0.04306114425532033,nan,nan,nan,nan,9.799989938735962,0.0007114410400390625,1.1698556,1.0371184,0.028070578,0.04913091089085976,-0.03831976596246056,9.537655823531118,-0.15697794,0.05717475,-0.013521453,-0.2506785,-0.24870166,-3.0,0.0,1.2467272,1.2171537,0.0,0.040012673,-0.010079648,9.818357,-0.081843026,-0.19561434,0.0,0.0500479,0.7274985029391746,-0.14477205276489258,0.05662443861365318,-0.016632080078125
19.90228581428528,-0.2016986,0.021345656,-3.715729,0.04276067519175425,nan,nan,nan,nan,9.90098786354065,0.0011224746704101562,1.1863374,1.0647119,0.030493295,0.03462421889665457,-0.032892698161633316,9.533570255937542,-0.16966583,0.0618737,-0.0146170035,-0.124342434,-0.12410189,-3.0,0.0,1.2542061,1.2469226,0.0,0.019974291,-0.005002877,9.81208,-0.041804615,-0.20063974,0.0,0.050441675,0.7273405279197857,-0.1446705013513565,0.043331079185009,-0.017181396484375
20.006861686706543,-0.07013092,0.13870415,-3.7122576,0.04183244970981468,nan,nan,nan,nan,10.005390405654907,0.0008122920989990234,1.2017974,1.0787214,0.03241486,0.015408592849670541,-0.026415399262891492,9.534144543458263,-0.17297438,0.06064357,-0.0145492,0.0067742853,0.0067742467,-3.0,0.0,1.25663,1.2566082,0.0,-0.0010904645,0.00027261765,9.810006,0.002299115,-0.20227869,0.0,0.050570518,0.7273627357115996,-0.14971216022968292,0.055666953325271606,-0.01708984375
20.114504098892212,0.061645523,0.25337252,-3.7081678,0.04038749307978261,nan,nan,nan,nan,10.113424062728882,0.0014693737030029297,1.2099502,1.068941,0.034401845,-0.0040044149423098425,-0.019650545900878447,9.539102717724186,-0.1716314,0.06145618,-0.016429937,0.14241304,0.14205153,-3.0,0.0,1.2534473,1.2438939,0.0,-0.022862356,0.0057295724,9.812726,0.047738597,-0.20012763,0.0,0.050401475,0.7275544413088394,-0.14484503865242004,0.0601365827023983,-0.0169677734375
20.20202875137329,0.15523046,0.33254483,-3.7051497,0.039082329395067165,nan,nan,nan,nan,10.200543403625488,0.0007846355438232422,1.2113175,1.0478206,0.03553064,-0.017628339107859936,-0.014770276723666376,9.547164754283171,-0.16577479,0.05998136,-0.016662369,0.25134435,0.24935165,-3.0,0.0,1.2466742,1.2169437,0.0,-0.040117137,0.010106377,9.818401,0.08204326,-0.19557896,0.0,0.05004514,0.7278660500214649,-0.14090672135353088,0.05305112153291702,-0.016357421875
20.30167293548584,0.26673284,0.42335272,-3.701076,0.03735605758145996,nan,nan,nan,nan,10.300161361694336,0.0007803440093994141,1.2079917,1.0077043,0.036892228,-0.0333293020783202,-0.00906044430167774,9.560500305083137,-0.15615946,0.05972714,-0.016728194,0.37496173,0.36831298,-3.0,0.0,1.2343547,1.1682979,0.0,-0.05921881,0.015062009,9.8283415,0.11651618,-0.18740466,0.0,0.049408533,0.7283811985891538,-0.13598254323005676,0.04852352291345596,-0.015716552734375
20.412712335586548,0.3957775,0.5211734,-3.6960576,0.03503046908696335,nan,nan,nan,nan,10.411621809005737,0.0013933181762695312,1.1979302,0.94155055,0.03786982,-0.05022388723911311,-0.002616997487661088,9.577171180185418,-0.14142719,0.0577082,-0.016741477,0.51151264,0.4945004,-3.0,0.0,1.2148429,1.0922406,0.0,-0.0794333,0.020517034,9.843102,0.14667282,-0.17471327,0.0,0.048429046,0.7290246847532859,-0.12802137434482574,0.04778817668557167,-0.014404296875
20.501404285430908,0.4955029,0.5904569,-3.6920557,0.03309554963059137,nan,nan,nan,nan,10.49988842010498,0.0007488727569580078,1.1852684,0.8760742,0.038509555,-0.06275664275743444,0.001923901576494469,9.594187106725316,-0.13556248,0.050762475,-0.017051613,0.61790127,0.5876723,-3.0,0.0,1.1951599,1.0167439,0.0,-0.09431819,0.024750648,9.856816,0.16284135,-0.16221578,0.0,0.047474116,0.7296809124027365,-0.11906392872333527,0.04838964343070984,-0.01275634765625
20.60141658782959,0.6114903,0.6628372,-3.6873431,0.03064733092169252,nan,nan,nan,nan,10.599920272827148,0.0010399818420410156,1.1659907,0.78472346,0.038400874,-0.0765251592606761,0.00710322529081675,9.614168834474425,-0.123116136,0.05037286,-0.01671438,0.7361566,0.6844746,-3.0,0.0,1.1684146,0.9161346,0.0,-0.10973869,0.029438468,9.873645,0.17194927,-0.14570335,0.0,0.046224896,0.7304507751777151,-0.10108664631843567,0.05255729332566261,-0.010955810546875
20.70146369934082,0.7160046,0.7194517,-3.6831658,0.028280814725219264,nan,nan,nan,nan,10.699949502944946,0.0007796287536621094,1.1433254,0.68863946,0.038015936,-0.08770463451064255,0.011987284831284084,9.634134792473656,-0.105069526,0.052850127,-0.014681374,0.8515014,0.77047294,-3.0,0.0,1.1370562,0.8010718,0.0,-0.123394564,0.033993356,9.890876,0.17086503,-0.12699679,0.0,0.044823207,0.7312192317039883,-0.09412935376167297,0.05101827532052994,-0.00897216796875
20.801198482513428,0.82559264,0.76753086,-3.6791272,0.025728649321957564,nan,nan,nan,nan,10.799641370773315,0.0009095668792724609,1.1131014,0.5727737,0.03662071,-0.09806557495872661,0.017402149879680806,9.653027305242158,-0.08634413,0.05167422,-0.012946039,0.9631127,0.8440865,-3.0,0.0,1.1013358,0.6738176,0.0,-0.13504739,0.03838681,9.90744,0.15984137,-0.10649969,0.0,0.043297935,0.7319456402305587,-0.07230474054813385,0.04920308664441109,-0.0074462890625
20.90727686882019,0.91496,0.79753155,-3.6759496,0.023631782122480974,nan,nan,nan,nan,10.90583086013794,0.0007755756378173828,1.082926,0.4673621,0.03475185,-0.10516802968274343,0.021796077656961677,9.6697986220685,-0.068607315,0.04830771,-0.011949767,1.0778327,0.9079224,-3.0,0.0,1.05854,0.5267047,0.0,-0.14512277,0.042892978,9.923345,0.13808964,-0.08301167,0.0,0.041553825,0.7325898943519079,-0.0918922871351242,0.04068407416343689,-0.0057373046875
21.00201964378357,1.0239857,0.8219254,-3.6718721,0.021186892619064715,nan,nan,nan,nan,11.000679731369019,0.0009920597076416016,1.0393562,0.3267469,0.031960923,-0.11299680237032862,0.026759799571261178,9.682320731368401,-0.066702016,0.040159952,-0.009855669,1.1762617,0.9513202,-3.0,0.0,1.0163251,0.38730094,0.0,-0.15195557,0.046756778,9.935218,0.11123112,-0.060916144,0.0,0.039904863,0.7330705550004103,-0.04408570006489754,0.04132393002510071,-0.003997802734375
21.101980924606323,1.1126158,0.8299763,-3.6684914,0.01920500381617468,nan,nan,nan,nan,11.100485801696777,0.0007891654968261719,0.9976768,0.20094106,0.029216498,-0.1182694109992628,0.03064228654849699,9.692591967370848,-0.03515733,0.039884146,-0.00805716,1.2753189,0.9824016,-3.0,0.0,0.96801066,0.23471573,0.0,-0.15684047,0.0506494,9.94466,0.077168025,-0.03686088,0.0,0.038084175,0.7334645839838853,-0.0337328277528286,0.03874030336737633,-0.001983642578125
21.20122003555298,1.189948,0.8269512,-3.6655197,0.017498291564920006,nan,nan,nan,nan,11.19966983795166,0.0012996196746826172,0.9559964,0.08360528,0.026545117,-0.12123414318352169,0.034113580028606094,9.698675216373543,-0.025201121,0.038058273,-0.0061823344,1.3687918,0.9980006,-3.0,0.0,0.9162274,0.07942516,0.0,-0.15928929,0.054333452,9.950469,0.039508235,-0.012463573,0.0,0.036189042,0.7336978534126182,-0.04316425696015358,0.036356888711452484,-0.000518798828125
21.301494598388672,1.2767321,0.81086314,-3.6623862,0.01566073664859955,nan,nan,nan,nan,11.299978256225586,0.0007829666137695312,0.90344775,-0.055877224,0.023197632,-0.12405658666057559,0.03786407492759469,9.700305330047872,-0.015874881,0.033437647,-0.0044856137,1.457919,0.9980284,-3.0,0.0,0.8602395,-0.07887148,0.0,-0.15929362,0.05786362,9.952449,-8.293653e-05,0.01237667,0.0,0.034180842,0.7337603496338825,-0.01435672864317894,0.03564568608999252,0.00115966796875
21.401310920715332,1.3516473,0.78396916,-3.6598425,0.014044283728223653,nan,nan,nan,nan,11.399827480316162,0.0007696151733398438,0.85181516,-0.18441936,0.020372607,-0.12472634056236144,0.041257972844092494,9.697594563907503,0.0076754624,0.033657692,-0.0033899087,1.5408891,0.9823276,-3.0,0.0,0.8011149,-0.23520441,0.0,-0.15682884,0.06117262,9.950501,-0.038567517,0.03693776,0.0,0.03208104,0.7336564198513527,-0.0019263774156570435,0.03598729148507118,0.002838134765625
21.51712417602539,1.4272956,0.74200094,-3.657254,0.012421297156652293,nan,nan,nan,nan,11.516839504241943,0.0010538101196289062,0.7929411,-0.32066712,0.01738846,-0.12284109621526662,0.044771787979655864,9.689960738553221,0.034569547,0.03257017,-0.002205308,1.6303821,0.9443046,-3.0,0.0,0.7278344,-0.41352502,0.0,-0.15085194,0.06477564,9.9435425,-0.079329744,0.06506267,0.0,0.029475132,0.7333636637023941,-0.008759349584579468,0.0408887043595314,0.00433349609375
21.601735830307007,1.4914333,0.69112664,-3.6550677,0.011109535526646536,nan,nan,nan,nan,11.60037350654602,0.0009043216705322266,0.73568326,-0.44202402,0.014674267,-0.11933058280137435,0.04816709180628642,9.681392299889144,0.03922834,0.035771444,0.0005428947,1.6889074,0.9046271,-3.0,0.0,0.6730908,-0.53558373,0.0,-0.14460337,0.06715627,9.935863,-0.10376753,0.084423855,0.0,0.027506933,0.7330349278686107,0.03513796627521515,0.034724339842796326,0.00482177734375
21.702106475830078,1.5543425,0.62414575,-3.6534429,0.009889521669784872,nan,nan,nan,nan,11.700585842132568,0.0007343292236328125,0.6705767,-0.56713855,0.012181103,-0.11384240994423386,0.05173629430365834,9.66830860188466,0.07016937,0.030256772,0.0022519692,1.7529685,0.84393257,-3.0,0.0,0.60498345,-0.6741221,0.0,-0.13502307,0.06978917,9.924267,-0.1262963,0.106548525,0.0,0.02501436,0.7325326792742418,0.06580755859613419,0.02988191321492195,0.0052490234375
21.80233907699585,1.606181,0.5528639,-3.6524658,0.008826205130855844,nan,nan,nan,nan,11.800847291946411,0.000705718994140625,0.6076195,-0.6734325,0.010302145,-0.10582862120751363,0.05455406724590928,9.653310147880134,0.096189745,0.025178935,0.00362547,1.8101071,0.7698342,-3.0,0.0,0.53444475,-0.802041,0.0,-0.1232933,0.07216571,9.910833,-0.14014119,0.1271536,0.0,0.022366628,0.7319565099980564,0.07214567065238953,0.030301198363304138,0.0059814453125
21.901474714279175,1.6514823,0.47340047,-3.651768,0.007898945650051649,nan,nan,nan,nan,11.899977922439575,0.001180887222290039,0.5425294,-0.769345,0.008336464,-0.09660522657564005,0.057279337682897946,9.63737669652563,0.09886711,0.029339466,0.0048287767,1.859543,0.684567,-3.0,0.0,0.46261492,-0.9160256,0.0,-0.109753385,0.074246675,9.896648,-0.14445905,0.14568551,0.0,0.019590769,0.731343932030804,0.08170540630817413,0.029234323650598526,0.00628662109375
22.007649183273315,1.6902986,0.38723105,-3.6510997,0.00701621507764888,nan,nan,nan,nan,12.00624680519104,0.0010874271392822266,0.47501922,-0.8536228,0.0069987336,-0.08669537733771777,0.06006747185673156,9.621541199146328,0.1117142,0.023252586,0.0056751193,1.9045242,0.5814163,-3.0,0.0,0.38362828,-1.0224078,0.0,-0.09331999,0.07616273,9.881518,-0.1384887,0.16315007,0.0,0.016440675,0.7307346180732376,0.08511662483215332,0.03148584067821503,0.006500244140625
22.117639541625977,1.7251998,0.28801408,-3.6502767,0.006070539698773567,nan,nan,nan,nan,12.116619110107422,0.0007708072662353516,0.39962414,-0.93028855,0.005861279,-0.07484366017744702,0.06279670003621374,9.605729336796815,0.12259133,0.020419033,0.006113507,1.9422545,0.4633483,-3.0,0.0,0.29978597,-1.113602,0.0,-0.07444832,0.07778843,9.867087,-0.12120613,0.17826721,0.0,0.012988356,0.7301257130383431,0.0977160632610321,0.03073432669043541,0.00640869140625
22.201562881469727,1.751179,0.19189124,-3.6498885,0.005293286668256455,nan,nan,nan,nan,12.200013637542725,0.0008940696716308594,0.3290353,-0.9872603,0.005785958,-0.062147841555685424,0.06466847008221888,9.594726457356028,0.14002377,0.014915575,0.007624965,1.9645778,0.3681081,-3.0,0.0,0.23545939,-1.1683998,0.0,-0.059185944,0.078758895,9.857765,-0.101486236,0.18742177,0.0,0.010271517,0.729701703208435,0.1243571937084198,0.01721426472067833,0.00653076171875
22.301305294036865,1.7707906,0.092930734,-3.6498632,0.004473230385970358,nan,nan,nan,nan,12.299778461456299,0.0007343292236328125,0.25756553,-1.0294374,0.005451598,-0.048096037231901034,0.06617669865851283,9.5871283015446,0.14358552,0.020403111,0.0067299963,1.9841944,0.24895997,-3.0,0.0,0.15767223,-1.2170703,0.0,-0.040054187,0.079617314,9.849074,-0.07176593,0.19560027,0.0,0.0069214855,0.7294087567671417,0.13021636009216309,0.01911325752735138,0.006866455078125
22.4032039642334,1.7839884,-0.01575492,-3.6500347,0.0035243144080810782,nan,nan,nan,nan,12.401727437973022,0.0007925033569335938,0.17851777,-1.057601,0.005363351,-0.03218362253092011,0.06790839270901383,9.58094630426031,0.15831783,0.008832416,0.006836894,1.9961886,0.12317888,-3.0,0.0,0.07754334,-1.2470672,0.0,-0.01982577,0.08014487,9.843525,-0.036463976,0.20066418,0.0,0.0034174894,0.7291703245747818,0.13830150663852692,0.011260506696999073,0.00677490234375
22.50895380973816,1.7890153,-0.12443438,-3.6501439,0.002507807728773682,nan,nan,nan,nan,12.507774353027344,0.0013201236724853516,0.098719716,-1.0672778,0.005407767,-0.01532582560258651,0.06883160662531229,9.578668186087185,0.16250546,0.008584784,0.007338824,1.9999762,-0.009769959,-3.0,0.0,-0.0061387205,-1.2565771,0.0,0.00157269,0.080311894,9.841735,0.0029162157,0.20227344,0.0,-0.00027088908,0.7290824409040767,0.1402617245912552,0.009937240742146969,0.00732421875
22.603105068206787,1.7872077,-0.2229345,-3.650292,0.0016665079396950759,nan,nan,nan,nan,12.60159969329834,0.0009074211120605469,0.025878934,-1.0594912,0.0053183045,0.00045375086579950484,0.0695326511052432,9.580275318063817,0.16200513,0.009405122,0.007922032,1.9959261,-0.12732819,-3.0,0.0,-0.08016596,-1.2464088,0.0,0.02049342,0.08013329,9.843649,0.03767056,0.20055287,0.0,-0.003532763,0.729144440817955,0.13950245082378387,0.005363110918551683,0.0074462890625
22.70151948928833,1.7804223,-0.30990496,-3.6503377,0.0010046885048319671,nan,nan,nan,nan,12.70006012916565,0.0008273124694824219,-0.039919086,-1.0378929,0.0056550098,0.014704192901092237,0.07041774967531556,9.58567013241353,0.15832677,0.01073783,0.008647045,1.9842199,-0.24876362,-3.0,0.0,-0.15754583,-1.2171338,0.0,0.04002263,0.07961843,9.849063,0.0717134,0.19561097,0.0,-0.0069159945,0.7293525238686894,0.13921448588371277,0.015514425933361053,0.007110595703125
