time,x,y,z,yaw,platform,trajectory,controller,feedforward,traj_time,comp_time,vx,vy,vz,roll,pitch,f,p,q,r,x_ref,y_ref,z_ref,yaw_ref,vx_ref,vy_ref,vz_ref,roll_ref,pitch_ref,f_ref,u_ff_df,u_ff_dphi,u_ff_dpsi,u_ff_dth,throttle,p_cmd,q_cmd,r_cmd
10.050302982330322,-0.0025170273,0.016749235,-2.643849,-0.004170864388808411,SIM,fig8_heading,contraction,1.0,0.04716777801513672,0.0033044815063476562,-0.01697583,-0.011152457,-0.18292971,-0.0006842678310478071,-0.004253977923577068,9.808351531475783,0.00093080197,0.00025787007,-0.0012892894,0.029634465,0.029628681,-3.0,0.7851053,0.62819594,0.62782806,0.0,-0.0021197265,0.00053003477,9.810023,0.0009924447,-0.044916607,-0.012422143,0.011235706,0.7378910415551481,0.8832393288612366,-0.9361076951026917,0.7698959708213806
10.102874517440796,-0.0034375184,0.016526945,-2.6575446,-0.0045690556769613574,nan,nan,nan,nan,0.09937906265258789,0.0018725395202636719,-0.015403862,-0.011225098,-0.17871983,-0.00023435619464492368,-0.004737799654435548,9.805445536226033,0.037928186,-0.05983703,-0.0016150373,0.062423684,0.0623696,-3.0,0.7840966,0.62777424,0.6261422,0.0,-0.00446209,0.0011164856,9.810104,0.0020838405,-0.04479531,-0.026231194,0.011227892,0.7377802416510542,0.9179207682609558,-0.9590271711349487,0.760395348072052
10.205268621444702,-0.0043190666,0.015973685,-2.6741662,-0.0032567953306170197,nan,nan,nan,nan,0.20216751098632812,0.003518819808959961,-0.005303678,-0.0061027724,-0.1993748,0.016095714254931535,-0.025253493214209888,9.80057730384171,0.20641972,-0.16248333,0.038183413,0.12687384,0.12641919,-3.0,0.7799874,0.6260669,0.6193283,0.0,-0.0090441825,0.002269143,9.810427,0.0041804216,-0.044305086,-0.053848922,0.01119628,0.737594588692589,0.8660075068473816,-0.8754127621650696,0.7453612685203552
10.302905797958374,-0.003208041,0.017005952,-2.6927855,0.001946413066759193,nan,nan,nan,nan,0.30037474632263184,0.0021209716796875,0.03121121,0.023047028,-0.23146687,0.059246982058647674,-0.07452234512100198,9.792999904602766,0.7703794,-0.8219737,0.12331981,0.18823346,0.1867455,-3.0,0.7733667,0.6233517,0.6085297,0.0,-0.013359571,0.0033663919,9.810931,0.0060737235,-0.043528374,-0.081174776,0.01114606,0.7373055282695843,0.7067920565605164,-0.5220904350280762,0.7547228932380676
10.4061598777771,0.0038621156,0.023540625,-2.7126157,0.013403856776264773,nan,nan,nan,nan,0.4030003547668457,0.004021644592285156,0.12326403,0.10768922,-0.25590137,0.1319757371579654,-0.13643246513531548,9.78738611828536,0.8315127,-0.47536117,0.26201344,0.25201172,0.24842955,-3.0,0.7635087,0.6193874,0.59284794,0.0,-0.017771566,0.0045066876,9.811649,0.007883767,-0.042400826,-0.11124918,0.011072867,0.7370913030585216,0.3880152106285095,0.07103996723890305,0.7778935432434082
10.516845941543579,0.024576101,0.044018835,-2.7366583,0.04550871818048176,nan,nan,nan,nan,0.5137181282043457,0.003976345062255859,0.26102394,0.27219218,-0.27059513,0.19358648938535578,-0.15172987655250414,9.786750018158928,0.5191903,0.2583939,0.41736734,0.32029337,0.31290635,-3.0,0.74928707,0.61382747,0.5710227,0.0,-0.022382576,0.0057272036,9.812619,0.009586101,-0.040832315,-0.14613602,0.010970447,0.7370670252488862,-0.02690938487648964,0.5199388861656189,0.7375191450119019
10.612247943878174,0.060707573,0.08541075,-2.7621176,0.10528640674483497,nan,nan,nan,nan,0.6091456413269043,0.004645109176635742,0.37635455,0.4849707,-0.27580595,0.21886652085054004,-0.11997404525838373,9.780078557739033,0.10817327,0.5764256,0.54764587,0.37859797,0.36634025,-3.0,0.7338013,0.6079757,0.5482644,0.0,-0.026203146,0.0067690965,9.813594,0.010803494,-0.039197646,-0.1788901,0.010862944,0.7368123504205698,-0.5437601208686829,0.5969979763031006,0.5741042494773865
10.705014705657959,0.1034391,0.1449054,-2.7862146,0.1836398789747035,nan,nan,nan,nan,0.701676607131958,0.002377033233642578,0.430119,0.68703663,-0.27984944,0.19248604023323226,-0.07461581895831171,9.763200540104881,-0.5624971,0.64482695,0.61511344,0.43455607,0.41592073,-3.0,0.7156651,0.6013739,0.522851,0.0,-0.029747512,0.0077687846,9.814639,0.011733848,-0.037373327,-0.21366248,0.010742002,0.7361676646543209,-0.9260032176971436,0.4041603207588196,0.35223785042762756
10.806092262268066,0.14491071,0.21490921,-2.8090572,0.2691134568646645,nan,nan,nan,nan,0.8026432991027832,0.002133607864379883,0.43143946,0.83440894,-0.28931478,0.12644283703764636,-0.038704523023322945,9.726581357279796,-1.0294966,0.38264737,0.61596507,0.49486816,0.4671613,-3.0,0.6920061,0.59314,0.49154368,0.0,-0.033409767,0.008845939,9.815863,0.012443853,-0.035127357,-0.25578988,0.010591646,0.7347670112773206,-1.0483957529067993,0.10264130681753159,0.13512766361236572
10.906962633132935,0.18516223,0.29461956,-2.8335955,0.3549249599849672,nan,nan,nan,nan,0.8968191146850586,0.0018165111541748047,0.4124438,0.9156432,-0.3054918,0.03610187670575807,-0.019613609880939187,9.692199710467834,-1.2189778,0.0706176,0.55870867,0.55032814,0.5119516,-3.0,0.6658807,0.5845035,0.45916903,0.0,-0.03661028,0.009836143,9.817053,0.012803663,-0.032806396,-0.2998819,0.010434475,0.7334495399137957,-0.9196107983589172,-0.12984541058540344,-0.029547184705734253
11.005788803100586,0.2314196,0.39201736,-2.8656328,0.43867831083404973,nan,nan,nan,nan,1.002265214920044,0.0033669471740722656,0.415439,0.9083163,-0.32701796,-0.07785476139164396,-0.019502911971230663,9.669545347550887,-1.1272662,-0.16988069,0.436841,0.611405,0.55831003,-3.0,0.6313724,0.5737548,0.4195403,0.0,-0.03992205,0.010926316,9.818409,0.012851146,-0.02996743,-0.35592252,0.010239582,0.7325801692099374,-0.5072304606437683,-0.17232762277126312,-0.1644209325313568
11.103262424468994,0.2723699,0.46541932,-2.894255,0.4794938716594187,nan,nan,nan,nan,1.1001648902893066,0.003962278366088867,0.4711645,0.8248609,-0.33924273,-0.15865652392371798,-0.030295874228023267,9.654193793693564,-0.8234256,-0.18192765,0.31138954,0.6670456,0.5974601,-3.0,0.5936763,0.562773,0.37981167,0.0,-0.04271819,0.011919192,9.819655,0.012559885,-0.027123375,-0.41549155,0.010041213,0.7319904678710938,-0.09068825840950012,-0.04764717072248459,-0.2658747434616089
11.206541776657104,0.34450105,0.5438703,-2.935425,0.4814937501683504,nan,nan,nan,nan,1.202998399734497,0.0029430389404296875,0.62493163,0.6299818,-0.34256956,-0.2142918544648796,-0.04157752519779012,9.638856450328609,-0.11419896,0.03933768,0.12723604,0.72428095,0.6342535,-3.0,0.5473459,0.5502191,0.33533618,0.0,-0.0453454,0.012940301,9.820917,0.011916813,-0.02394172,-0.4872723,0.009815288,0.7314008440116799,0.4364890158176422,0.18736869096755981,-0.3849732577800751
11.309780597686768,0.41763714,0.5800844,-2.9674602,0.4409733969115008,nan,nan,nan,nan,1.306668996810913,0.0040836334228515625,0.7576689,0.44932315,-0.3397871,-0.20500895371662003,-0.034648131435252694,9.62213455573656,0.31403133,0.19461629,-0.012229738,0.7806217,0.66658366,-3.0,0.49261296,0.5365299,0.28798196,0.0,-0.047653403,0.013945285,9.822104,0.010939733,-0.020556392,-0.5705608,0.009569835,0.7307574581246445,0.617559552192688,0.25733691453933716,-0.4983920454978943
11.405235052108765,0.51885086,0.5947054,-3.0047846,0.3655627722073749,nan,nan,nan,nan,1.4021177291870117,0.004574298858642578,0.86797345,0.24034831,-0.33989292,-0.15679530150086451,-0.011023879085512611,9.599090300658721,0.6156526,0.27556828,-0.1656643,0.83119535,0.69191194,-3.0,0.43407112,0.52303123,0.24245514,0.0,-0.049461197,0.014847315,9.823095,0.0097746765,-0.01730361,-0.6578366,0.009328612,0.7298698984868872,0.6498221755027771,0.2091861367225647,-0.584476888179779
11.510361433029175,0.61776257,0.58505064,-3.0392785,0.28620089067221466,nan,nan,nan,nan,1.5069386959075928,0.0034215450286865234,0.9012854,0.07953145,-0.3455141,-0.09643519694148216,0.015285811049399634,9.574307925859468,0.6770572,0.24625921,-0.29705173,0.88520133,0.71462756,-3.0,0.35957822,0.5072448,0.19068417,0.0,-0.051082246,0.015810557,9.824041,0.008239581,-0.013606584,-0.7654957,0.009047381,0.7289142046457502,0.5239866375923157,0.13422812521457672,-0.7101985216140747
11.607314586639404,0.7128161,0.56019855,-3.0741277,0.20651919787577094,nan,nan,nan,nan,1.6042726039886475,0.005104541778564453,0.87643564,-0.030914843,-0.35412982,-0.03869075677493129,0.036591058078850214,9.557812297204512,0.57584214,0.16302036,-0.41706148,0.9338241,0.7307925,-3.0,0.27979946,0.49170983,0.14128654,0.0,-0.052235655,0.016677856,9.824765,0.006615449,-0.010080532,-0.8750944,0.008771395,0.7282773905276431,0.33927589654922485,0.0713077262043953,-0.8390569090843201
11.710439920425415,0.7985135,0.5285239,-3.1090372,0.12747211717224272,nan,nan,nan,nan,1.707629680633545,0.0037810802459716797,0.8155661,-0.08606464,-0.36216855,0.005550601564214122,0.05041299766666851,9.540397313395518,0.39873588,0.097834624,-0.5378762,0.9837549,0.7426394,-3.0,0.18305944,0.4743195,0.08781173,0.0,-0.053080875,0.017568646,9.825354,0.004731372,-0.0062646456,-0.99731165,0.00846317,0.7276044880701168,0.14487844705581665,0.032403212040662766,-0.9869329333305359
11.815398216247559,0.8791227,0.49468276,-3.147144,0.039679742375353565,nan,nan,nan,nan,1.812337875366211,0.0039174556732177734,0.7337428,-0.09475864,-0.37057915,0.03167563488867071,0.05842934484912088,9.524368155756965,0.16610813,0.043483924,-0.673521,1.0324581,0.7489668,-3.0,0.07220665,0.45579553,0.032968786,0.0,-0.053532276,0.01843779,9.825744,0.0027123238,-0.0023519385,-1.1186655,0.008135496,0.7269845899392194,-0.019844572991132736,-0.0046109724789857864,-1.1303969621658325
11.913983821868896,0.9122446,0.48106903,-3.1648703,-0.0027810608192801976,nan,nan,nan,nan,1.9108741283416748,0.0037899017333984375,0.69525313,-0.08671168,-0.37418032,0.03582849428639366,0.06046366581213891,9.513780858973043,0.06811734,0.028252851,-0.7379234,1.0764784,0.7496613,-3.0,-0.043122906,0.43756208,-0.018880654,0.0,-0.05358181,0.019223671,9.825915,0.0007662456,0.0013469075,-1.2187947,0.007813414,0.7265748596546282,-0.09651824831962585,-0.008786345832049847,-1.2994154691696167
12.006746292114258,0.9711727,0.45947492,-3.2007775,-0.09358512855184067,nan,nan,nan,nan,2.0036540031433105,0.005033016204833984,0.621452,-0.059916828,-0.38086355,0.03069823611873479,0.062003067471216644,9.49630833075382,-0.09018208,0.0014897751,-0.87672997,1.1162522,0.7456479,-3.0,-0.15966776,0.41971195,-0.06758982,0.0,-0.053295504,0.01993407,9.825901,-0.0010585905,0.004821869,-1.2885963,0.0074983705,0.7258981707723986,-0.1529921591281891,-0.06098346412181854,-1.3926178216934204
12.11652946472168,1.0215281,0.44556877,-3.2371664,-0.19401857375108475,nan,nan,nan,nan,2.1134684085845947,0.00550532341003418,0.5522525,-0.033103973,-0.38834336,0.012300178747008506,0.05882024368310246,9.477740203002474,-0.19307469,-0.05557381,-1.0164343,1.1611457,0.73508286,-3.0,-0.30377582,0.39776766,-0.12469151,0.0,-0.05254176,0.02073638,9.825669,-0.003147866,0.008896221,-1.3271561,0.007111217,0.7251783680482733,-0.16050264239311218,-0.08710675686597824,-1.4694679975509644
12.223573446273804,1.0505618,0.4394668,-3.2620103,-0.26795271786989194,nan,nan,nan,nan,2.220675468444824,0.0039048194885253906,0.5084459,-0.021952895,-0.39324483,-0.004054352947467615,0.05386459833408064,9.471064164200804,-0.22030519,-0.077273495,-1.1167938,1.2026043,0.71877027,-3.0,-0.44571835,0.37553224,-0.17942375,0.0,-0.05137785,0.021477846,9.825229,-0.005050413,0.012802691,-1.3122311,0.0067188703,0.7249193957715037,-0.16382551193237305,-0.09750847518444061,-1.5150995254516602
12.319902420043945,1.0797433,0.4353075,-3.290197,-0.3575385057813043,nan,nan,nan,nan,2.3167340755462646,0.005156755447387695,0.46138707,-0.018089786,-0.39808944,-0.023746270338959763,0.04607985072160914,9.460052377441903,-0.2377281,-0.086563066,-1.2181191,1.2376943,0.69922745,-3.0,-0.5694557,0.35496455,-0.22724861,0.0,-0.049983285,0.022105897,9.824668,-0.0065899733,0.016217502,-1.2584177,0.006355724,0.7244920346418552,-0.13157212734222412,-0.10017742961645126,-1.486979603767395
12.403702974319458,1.1001087,0.43299508,-3.312149,-0.43158763764770397,nan,nan,nan,nan,2.40048885345459,0.0026674270629882812,0.42543843,-0.02254006,-0.40110922,-0.03912796125221146,0.03838018423469958,9.434372378746053,-0.22167973,-0.099052295,-1.2884874,1.2666565,0.6784894,-3.0,-0.6720337,0.33656123,-0.26775792,0.0,-0.048503213,0.022624651,9.824065,-0.0077730184,0.019111222,-1.1881828,0.0060304897,0.7234944412067277,-0.10619356483221054,-0.09599476307630539,-1.4369490146636963
12.511615514755249,1.125348,0.42942327,-3.343278,-0.5430488348900216,nan,nan,nan,nan,2.5080506801605225,0.0024955272674560547,0.37455708,-0.040918823,-0.40225935,-0.057159756006047946,0.025273791102328858,9.408070660093806,-0.15646262,-0.09891434,-1.3685615,1.3015599,0.64697504,-3.0,-0.7941256,0.31232247,-0.31782213,0.0,-0.046253633,0.023250347,9.823158,-0.009036859,0.022689393,-1.0797864,0.0056015537,0.7224712873394558,-0.049159325659275055,-0.08398360759019852,-1.3269296884536743
12.611897945404053,1.146428,0.424375,-3.3739197,-0.6581717537147118,nan,nan,nan,nan,2.6089727878570557,0.004966020584106445,0.32423595,-0.07040736,-0.39833635,-0.06871339125665149,0.010702727864852823,9.381223645070573,-0.0841287,-0.095448956,-1.4160695,1.331908,0.61262685,-3.0,-0.8976793,0.28900254,-0.3624583,0.0,-0.043801237,0.023794891,9.822199,-0.009929274,0.025881698,-0.9723946,0.0051881406,0.721425445037247,0.002681136131286621,-0.07166533172130585,-1.193976879119873
12.714567184448242,1.1695472,0.41242263,-3.416208,-0.8202184045432018,nan,nan,nan,nan,2.7115375995635986,0.005157947540283203,0.25743032,-0.1229973,-0.3857495,-0.07090766176368823,-0.00971718689646961,9.36773774639704,0.040448558,-0.08168136,-1.41423,1.3603114,0.573237,-3.0,-0.9919677,0.26477426,-0.4051661,0.0,-0.040988225,0.024305025,9.821148,-0.010519723,0.028938198,-0.8675172,0.0047577587,0.7208995287327906,0.0721464529633522,-0.04579493775963783,-1.0026957988739014
12.811256408691406,1.1842817,0.3965929,-3.4517274,-0.9547503902171126,nan,nan,nan,nan,2.808183431625366,0.003881692886352539,0.20846204,-0.17215751,-0.37192482,-0.061079755150032444,-0.025772490260901115,9.350733696827671,0.12728198,-0.076679125,-1.3640957,1.3847792,0.5322443,-3.0,-1.0713885,0.24149625,-0.4426788,0.0,-0.03806006,0.024744887,9.820116,-0.010769967,0.031624794,-0.7777485,0.004343368,0.7202358734763316,0.11174961179494858,-0.030756495893001556,-0.8423758149147034
12.90798807144165,1.1943153,0.3793955,-3.480416,-1.0608842663751794,nan,nan,nan,nan,2.9049108028411865,0.003918886184692383,0.17807521,-0.21297383,-0.36018866,-0.04541779479455632,-0.036876502265640765,9.338011432746432,0.1832679,-0.0593428,-1.2890925,1.4069955,0.48772547,-3.0,-1.1427128,0.21780236,-0.47731915,0.0,-0.03487928,0.025144625,9.819075,-0.010717716,0.0341074,-0.6989137,0.0039206496,0.7197389383656189,0.11455225944519043,-0.017870599403977394,-0.7192756533622742
13.015288352966309,1.2026215,0.36101347,-3.5055463,-1.150257922189803,nan,nan,nan,nan,3.0123698711395264,0.004914045333862305,0.16204986,-0.24806109,-0.34997573,-0.027176397730311663,-0.0442370920784072,9.326801146427178,0.21363434,-0.04448978,-1.2052015,1.4289675,0.4345274,-3.0,-1.2137095,0.19106218,-0.5121203,0.0,-0.031077461,0.02554032,9.817942,-0.010308487,0.03660334,-0.62479025,0.003442471,0.7193007808858783,0.08047459274530411,-0.013864721171557903,-0.6223481297492981
13.103687763214111,1.214318,0.3322776,-3.5375922,-1.2588400929018428,nan,nan,nan,nan,3.1005606651306152,0.004283428192138672,0.15891233,-0.29205275,-0.33601174,-0.0019855255408424144,-0.04907386266723002,9.317126276800415,0.20268723,-0.026811365,-1.0757076,1.4448385,0.38821873,-3.0,-1.2665107,0.16882512,-0.53759414,0.0,-0.027767265,0.02582638,9.817058,-0.009706925,0.038431548,-0.5741096,0.003043949,0.7189224239007178,0.013292327523231506,0.02338150143623352,-0.5170981884002686
13.20575499534607,1.2287439,0.2989942,-3.5676994,-1.3543513973365804,nan,nan,nan,nan,3.202711582183838,0.0039577484130859375,0.17527713,-0.3324382,-0.3210571,0.0189930130425654,-0.049260500102856764,9.310264158854267,0.13593873,0.006892605,-0.94103,1.4607565,0.33194932,-3.0,-1.3226035,0.14278212,-0.56342554,0.0,-0.023744246,0.026113486,9.816113,-0.00873106,0.04028653,-0.5259157,0.0025762839,0.7186539466455676,-0.05904548987746239,0.048880599439144135,-0.43496978282928467
13.307342290878296,1.2425258,0.27157232,-3.5892518,-1.417587188350348,nan,nan,nan,nan,3.304409980773926,0.00366973876953125,0.19699669,-0.36049455,-0.30946505,0.030141390697230652,-0.04636254477798851,9.302249914491554,0.07468752,0.040193893,-0.8426969,1.4739476,0.2735151,-3.0,-1.3740821,0.11659479,-0.5850464,0.0,-0.01956564,0.026351575,9.815287,-0.007491479,0.041840058,-0.48805434,0.0021051087,0.7183402676830185,-0.11287513375282288,0.03948604315519333,-0.3915122449398041
13.408576011657715,1.2612001,0.23896348,-3.6122262,-1.4801095277097844,nan,nan,nan,nan,3.4054815769195557,0.0039293766021728516,0.22589162,-0.3882682,-0.29552662,0.03534678141232006,-0.04017869281110942,9.29669653036632,-0.0075192344,0.059390802,-0.73872066,1.4844078,0.21347418,-3.0,-1.4218906,0.09035912,-0.60232925,0.0,-0.015271433,0.02654048,9.814601,-0.006032556,0.043082498,-0.4593876,0.0016322732,0.7181228279683918,-0.1736791431903839,0.015559792518615723,-0.3566593527793884
13.503950834274292,1.2810065,0.20789634,-3.6318855,-1.5299504703327367,nan,nan,nan,nan,3.501115322113037,0.003621339797973633,0.252137,-0.41002053,-0.28217202,0.034115358290796816,-0.034484814899134575,9.292277575144547,-0.07787797,0.052277047,-0.653771,1.4918559,0.15524802,-3.0,-1.4648273,0.06538513,-0.61471015,0.0,-0.011106479,0.026675053,9.814096,-0.004483843,0.04397289,-0.43970662,0.0011815832,0.7179497597931567,-0.20874549448490143,-0.01528747845441103,-0.33601486682891846
13.60748291015625,1.3188678,0.1536334,-3.662891,-1.6021713578263173,nan,nan,nan,nan,3.604362964630127,0.0040738582611083984,0.2857527,-0.44023806,-0.25919473,0.020354076240208907,-0.029490811518642746,9.288736225189645,-0.17799221,0.0017141633,-0.5349253,1.4972097,0.09127931,-3.0,-1.5094506,0.038306247,-0.62364775,0.0,-0.00653032,0.026771812,9.813726,-0.0026773592,0.04461584,-0.4259338,0.0006924286,0.717811033281215,-0.21448487043380737,-0.01229005865752697,-0.29658156633377075
13.702350616455078,1.3494958,0.112393916,-3.6840105,-1.6477133151633292,nan,nan,nan,nan,3.69878888130188,0.0021712779998779297,0.29600412,-0.46051186,-0.24124144,0.00444932073154769,-0.029642107926372452,9.286936726029964,-0.2104851,-0.01300465,-0.46714112,1.4996549,0.032166738,-3.0,-1.5493305,0.013477072,-0.6277404,0.0,-0.0023013065,0.026816016,9.813555,-0.00095012295,0.044910304,-0.41974702,0.00024364438,0.7177405307527366,-0.17783117294311523,-0.020485777407884598,-0.2803365886211395
13.810794115066528,1.3832834,0.06596025,-3.7051215,-1.6912040492948002,nan,nan,nan,nan,3.807706117630005,0.003803253173828125,0.28990245,-0.48169777,-0.22042173,-0.013894732375546837,-0.031625340190642115,9.288406719937921,-0.19473296,-0.02107725,-0.40493166,1.4995618,-0.036243867,-3.0,-1.5949895,-0.0151862325,-0.62758446,0.0,0.0025929955,0.026814334,9.813561,0.0010702665,0.044899084,-0.4199814,-0.00027454196,0.717798124114739,-0.12115167826414108,-0.022218231111764908,-0.2768285870552063
13.905282974243164,1.4100507,0.02623234,-3.7210002,-1.7233167654499368,nan,nan,nan,nan,3.9018025398254395,0.002557516098022461,0.27170032,-0.49862072,-0.20253816,-0.026848255367132756,-0.03439527910976792,9.291703343205153,-0.15881532,-0.026420258,-0.366012,1.4969685,-0.09512377,-3.0,-1.6347705,-0.039926045,-0.6232444,0.0,0.0068053515,0.026767457,9.813744,0.0027881917,0.04458682,-0.42654765,-0.0007216991,0.7179272670050804,-0.07178020477294922,-0.020426666364073753,-0.28484493494033813
14.00307035446167,1.4476675,-0.042032246,-3.7445285,-1.7694548861388344,nan,nan,nan,nan,3.999800682067871,0.002391815185546875,0.21987976,-0.5262245,-0.17229228,-0.040877420215754134,-0.038363328208982805,9.300192865543067,-0.06902713,0.0037866926,-0.3191707,1.4917959,-0.15581158,-3.0,-1.6771685,-0.06562513,-0.61461,0.0,0.011146793,0.026673969,9.814101,0.004499335,0.043965694,-0.4398629,-0.0011859165,0.7182597326279294,0.01494615152478218,0.0442206934094429,-0.28788429498672485
14.107460021972656,1.4713107,-0.09825787,-3.7601092,-1.801911195402613,nan,nan,nan,nan,4.103896379470825,0.0022635459899902344,0.17147787,-0.5460621,-0.16253504,-0.04206437288340359,-0.03602020612402668,9.306142180971802,0.002363717,0.04227536,-0.29715565,1.4835489,-0.21911654,-3.0,-1.7240212,-0.092801124,-0.6009056,0.0,0.01567501,0.026524968,9.814658,0.0061763106,0.04298013,-0.46169618,-0.0016763137,0.7184926285609038,0.0341179333627224,0.0486857071518898,-0.32491591572761536
14.204067945480347,1.4857669,-0.14575215,-3.77515,-1.8275463221356034,nan,nan,nan,nan,4.2005298137664795,0.0038399696350097656,0.13132252,-0.55940664,-0.18393105,-0.03966727282116278,-0.03341463788883203,9.310312356743964,0.026687779,0.0409488,-0.2911529,1.4733684,-0.2764033,-3.0,-1.7699258,-0.1178723,-0.584093,0.0,0.01977219,0.02634112,9.815323,0.0075573325,0.04177153,-0.4896767,-0.0021281138,0.7186558327111235,0.03236411511898041,0.05837811157107353,-0.37544745206832886
14.303074598312378,1.4942377,-0.18580212,-3.7895272,-1.8482606062807285,nan,nan,nan,nan,4.299729585647583,0.0024127960205078125,0.09986329,-0.5684355,-0.19003077,-0.037080376433120454,-0.03059492344879966,9.310388284064832,0.023825178,0.05935887,-0.29580587,1.4604071,-0.33332434,-3.0,-1.8202746,-0.14340787,-0.5628555,0.0,0.023842564,0.026107183,9.816134,0.008757671,0.04024558,-0.52694434,-0.0025875317,0.718658803866671,0.021340373903512955,0.06303950399160385,-0.4447268843650818
14.423412322998047,1.5023931,-0.24937683,-3.8127453,-1.8822796882827233,nan,nan,nan,nan,4.421175718307495,0.004102230072021484,0.054522954,-0.5764092,-0.18875207,-0.03430966296358462,-0.024522911617752552,9.309805870326237,0.007915609,0.069089204,-0.32440823,1.441109,-0.39983952,-3.0,-1.8876874,-0.17432867,-0.53158265,0.0,0.02859799,0.025759138,9.81727,0.009876668,0.038000014,-0.5857889,-0.0031426523,0.7186360127906068,0.007301021367311478,0.07658709585666656,-0.5429867506027222
14.511943101882935,1.5041997,-0.2860699,-3.824971,-1.9037167067474907,nan,nan,nan,nan,4.508829116821289,0.004185914993286133,0.02987606,-0.57757664,-0.18426643,-0.03368843763314899,-0.020880535762394015,9.308377559082583,-0.0038378434,0.07244459,-0.34890112,1.4248607,-0.4453151,-3.0,-1.941271,-0.19636989,-0.50557464,0.0,0.031848483,0.025466334,9.818161,0.010417933,0.03613374,-0.63831043,-0.0035374782,0.7185801169457332,0.0007072277367115021,0.07756473124027252,-0.6301855444908142
14.612757205963135,1.5033824,-0.34175578,-3.8411062,-1.9395581125500554,nan,nan,nan,nan,4.609700441360474,0.004245758056640625,-0.005919195,-0.57464814,-0.1749044,-0.03435079662065588,-0.01452536774071067,9.307480191905054,-0.02097199,0.08284413,-0.40075043,1.4037869,-0.49466318,-3.0,-2.0091734,-0.22140545,-0.47228187,0.0,0.035375014,0.02508687,9.819231,0.010745002,0.03374628,-0.710084,-0.0039849924,0.7185449969886232,-0.0016889125108718872,0.08463907986879349,-0.7395269870758057
14.728730916976929,1.5003544,-0.38340217,-3.851208,-1.9703272308669553,nan,nan,nan,nan,4.725706100463867,0.004172086715698242,-0.032113913,-0.5677322,-0.16521679,-0.03576655984570665,-0.009544609797404568,9.307687994921583,-0.026914015,0.08807313,-0.45278364,1.3764555,-0.54703027,-3.0,-2.0970716,-0.24970604,-0.42984244,0.0,0.039116316,0.024595207,9.82048,0.010716544,0.030705264,-0.808041,-0.0044896193,0.718553129855947,-0.017337271943688393,0.08276647329330444,-0.8982622027397156
14.808011054992676,1.4947202,-0.42895773,-3.8604014,-2.009342352501487,nan,nan,nan,nan,4.8049962520599365,0.004307270050048828,-0.060255323,-0.55482394,-0.15344788,-0.03794893738203675,-0.003987845269081358,9.30903863598593,-0.0314184,0.08717177,-0.51942027,1.3559008,-0.5798812,-3.0,-2.1641042,-0.26871446,-0.39847508,0.0,0.041462764,0.024225777,9.821321,0.010446871,0.028459191,-0.88385606,-0.0048278146,0.718605988207035,-0.011296350508928299,0.0811229944229126,-1.0064640045166016
14.90908670425415,1.4838214,-0.4858522,-3.8692472,-2.069544718814832,nan,nan,nan,nan,4.906042814254761,0.003963947296142578,-0.09602511,-0.5290551,-0.13926476,-0.04193830973058943,0.002366637794845694,9.31180716373958,-0.045699608,0.081764385,-0.62991923,1.3275418,-0.61802113,-3.0,-2.2586346,-0.29250613,-0.35597312,0.0,0.04418642,0.023716513,9.822348,0.009815558,0.025417756,-0.98829347,-0.005250302,0.7187143246327201,0.005053363740444183,0.07583467662334442,-1.1501014232635498
15.008872032165527,1.4725089,-0.5272033,-3.874272,-2.1246995409064517,nan,nan,nan,nan,5.005767345428467,0.0045680999755859375,-0.12382161,-0.50257933,-0.12983875,-0.04621281895067875,0.0062420977675894385,9.315837363237518,-0.050124392,0.0783898,-0.7330941,1.2972224,-0.65132344,-3.0,-2.3624887,-0.31547296,-0.3115264,0.0,0.04656406,0.023172554,9.823282,0.008891863,0.022239298,-1.0943418,-0.005657348,0.7188720032846617,0.01578497141599655,0.06605923175811768,-1.307348608970642
15.116138458251953,1.4540516,-0.5767158,-3.8795536,-2.2099453287733004,nan,nan,nan,nan,5.11305046081543,0.0040400028228759766,-0.16004103,-0.45969957,-0.11963762,-0.051434972777862464,0.009259648872603332,9.322167726838963,-0.030991804,0.058714066,-0.88627434,1.262079,-0.6820712,-3.0,-2.485732,-0.33956507,-0.26129314,0.0,0.04875886,0.022542639,9.824169,0.007592883,0.018649332,-1.2006463,-0.006083599,0.7191196053545216,0.04176212102174759,0.060127995908260345,-1.4538226127624512
15.207022666931152,1.4356902,-0.6150349,-3.883139,-2.29477395342791,nan,nan,nan,nan,5.203899145126343,0.004304170608520508,-0.18932082,-0.41844946,-0.113061056,-0.05383069724443268,0.00964649072761592,9.32724450030364,-0.01027671,0.05095627,-1.0239419,1.2303237,-0.7038119,-3.0,-2.5982537,-0.3594323,-0.21708895,0.0,0.050310448,0.021973934,9.8248005,0.0062745945,0.015491955,-1.2727456,-0.0064346334,0.7193181145076003,0.05564982816576958,0.04615139961242676,-1.5534359216690063
15.304972410202026,1.410943,-0.65539604,-3.8857439,-2.4102014978536523,nan,nan,nan,nan,5.301959037780762,0.0041806697845458984,-0.22090106,-0.36642706,-0.105608955,-0.0547963749774234,0.007541268126077583,9.333228581929578,0.010440442,0.031719778,-1.1827643,1.1940502,-0.722702,-3.0,-2.7256646,-0.3802915,-0.1679737,0.0,0.051658396,0.021324812,9.825338,0.0046631303,0.011985331,-1.3196455,-0.006802863,0.7195520313600962,0.06714541465044022,0.03569380193948746,-1.610095739364624
15.404071807861328,1.3853178,-0.6866346,-3.887408,-2.5311569842707047,nan,nan,nan,nan,5.400524139404297,0.003147125244140625,-0.24712583,-0.3163935,-0.09871353,-0.05358059441303542,0.0032297104775278473,9.339948782483118,0.030885525,0.008446114,-1.3207649,1.1555597,-0.7367772,-3.0,-2.8563757,-0.40061173,-0.11746384,0.0,0.05266264,0.020636518,9.825711,0.0028881503,0.008380452,-1.3252358,-0.0071613914,0.7198146336156187,0.06415246427059174,0.012335168197751045,-1.6201715469360352
15.51219892501831,1.3602039,-0.7106452,-3.8886569,-2.652761781820474,nan,nan,nan,nan,5.50911545753479,0.004197120666503906,-0.2683269,-0.2721525,-0.09164242,-0.05065254466349822,-0.003364361897932211,9.346290040770546,0.041894086,-0.023947041,-1.4318956,1.1108767,-0.7464683,-3.0,-2.998331,-0.422207,-0.060903322,0.0,0.05335403,0.019838033,9.825913,0.00080953934,0.0043448256,-1.2808039,-0.007542396,0.7200623414962989,0.0348246768116951,-0.009634802117943764,-1.5889701843261719
15.615278005599976,1.333979,-0.7311329,-3.8895886,-2.782733867562049,nan,nan,nan,nan,5.612116098403931,0.003366708755493164,-0.28869662,-0.23209423,-0.08246032,-0.046135177464185384,-0.012593662343896028,9.352770940223708,0.04121188,-0.03691828,-1.5112078,1.0663687,-0.7499563,-3.0,-3.1262472,-0.4418842,-0.006781434,0.0,0.05360286,0.019043153,9.825892,-0.0012214278,0.00048377263,-1.1973615,-0.00788973,0.7203154173516205,-0.0019392363028600812,-0.02723538503050804,-1.4947603940963745
15.712274551391602,1.2957813,-0.7547019,-3.8899133,-2.9675468827917957,nan,nan,nan,nan,5.709337949752808,0.004189968109130859,-0.3181806,-0.18538265,-0.06643924,-0.03803637055028841,-0.02565200584985372,9.356453312868252,0.030850684,-0.048767257,-1.5615126,1.0225356,-0.7481287,-3.0,3.0453997,-0.4597035,0.044357143,0.0,0.05347248,0.01826069,9.82568,-0.0031364255,-0.0031643854,-1.0943357,-0.00820458,0.7204591730833119,-0.030832618474960327,-0.026416510343551636,-1.3090300559997559
15.804952621459961,1.2648188,-0.7697999,-3.8898084,-3.104184885841041,nan,nan,nan,nan,5.801539897918701,0.0023107528686523438,-0.34372994,-0.15689866,-0.05269028,-0.03151191674928677,-0.037437389381691055,9.365033081555739,0.027416391,-0.109550335,-1.5567281,0.979398,-0.7418122,-3.0,2.9494376,-0.47589886,0.092588775,0.0,0.05302186,0.01749091,9.825309,-0.0049037803,-0.0066054906,-0.98640764,-0.008491135,0.7207940080072534,-0.04733189195394516,-0.0637659803032875,-1.1514461040496826
15.90323257446289,1.2304577,-0.78317916,-3.8887064,-3.2379953398975108,nan,nan,nan,nan,5.899663686752319,0.002100706100463867,-0.3771308,-0.1314119,-0.039248277,-0.023507123182558987,-0.05090995025367917,9.376473076054825,0.02873823,-0.1172491,-1.507045,0.9318868,-0.73023224,-3.0,2.8583567,-0.49235433,0.14330524,0.0,0.052195683,0.016643299,9.824739,-0.006684303,-0.010224605,-0.87052,-0.00878283,0.7212402278850321,-0.09019393473863602,-0.05811363086104393,-0.9854819774627686
16.014495611190796,1.1767511,-0.7980055,-3.8856962,-3.409568207255875,nan,nan,nan,nan,6.011532545089722,0.002482891082763672,-0.4358886,-0.09842445,-0.021877129,-0.012737343759370967,-0.06468598759032873,9.384211339065805,-0.004648611,-0.083763674,-1.379433,0.8758049,-0.71101975,-3.0,2.7680576,-0.51009864,0.19992582,0.0,0.050824802,0.015642963,9.823886,-0.008527589,-0.014266412,-0.7456674,-0.009098158,0.7215419064676032,-0.1461382508277893,-0.01682741940021515,-0.7755970358848572
16.1141996383667,1.1366385,-0.8051482,-3.8824184,-3.5143613249944283,nan,nan,nan,nan,6.111134767532349,0.004227399826049805,-0.48061782,-0.07456144,-0.0113523975,-0.007612565691691664,-0.07192082291948654,9.396650726059455,-0.04051384,-0.06969535,-1.2707922,0.8242508,-0.68865603,-3.0,2.6988878,-0.524956,0.24887596,0.0,0.04922883,0.014723455,9.822965,-0.009950539,-0.017762259,-0.6450957,-0.009362964,0.7220265992620043,-0.15507346391677856,-0.05916374921798706,-0.6383700966835022
16.21497678756714,1.078514,-0.811437,-3.8766677,-3.6364663347848385,nan,nan,nan,nan,6.211847305297852,0.004956960678100586,-0.54386675,-0.038695857,3.3158925e-05,-0.0031227405439318012,-0.08001493708169738,9.406531745800752,-0.06021514,-0.062331367,-1.1074834,0.77066326,-0.6611711,-3.0,2.6385608,-0.53905,0.29660997,0.0,0.047267042,0.013767659,9.8219,-0.011137218,-0.021173043,-0.5548256,-0.009614955,0.7224113783170124,-0.1856389045715332,-0.018973540514707565,-0.4853924810886383
16.307910680770874,1.0176752,-0.81430614,-3.8698757,-3.7331456623953923,nan,nan,nan,nan,6.304940700531006,0.004879474639892578,-0.6053552,0.0010974845,0.0095761735,-0.002420356684692093,-0.08487446049348968,9.41516970620491,-0.09355458,-0.036802668,-0.9499135,0.71990824,-0.6315769,-3.0,2.5904014,-0.55122507,0.33886313,0.0,0.0451543,0.012862298,9.820822,-0.011978364,-0.024193946,-0.48136202,-0.00983336,0.722747585588568,-0.18579599261283875,-0.00209047831594944,-0.36343249678611755
16.40948176383972,0.9502154,-0.81355023,-3.862137,-3.814022294222661,nan,nan,nan,nan,6.405911207199097,0.002666950225830078,-0.6658726,0.047905125,0.017949468,-0.004783810283569334,-0.08833584812223982,9.425640968540689,-0.114401944,-0.024216823,-0.7948904,0.66362345,-0.5951442,-3.0,2.5454035,-0.5634824,0.38235494,0.0,0.042552806,0.011858133,9.819579,-0.012587226,-0.027305383,-0.4115584,-0.010054005,0.7231549420281522,-0.1934596747159958,0.01516859419643879,-0.2578386664390564
16.505751132965088,0.8836069,-0.80889904,-3.8541596,-3.874567391278094,nan,nan,nan,nan,6.502227544784546,0.0019655227661132812,-0.71723586,0.09785455,0.025535675,-0.009791781810156053,-0.08971042417598718,9.437385744908829,-0.1336739,0.012290104,-0.6497259,0.60882556,-0.55642074,-3.0,2.5086267,-0.57423586,0.42129818,0.0,0.039787095,0.01088028,9.818352,-0.012856803,-0.030093318,-0.35337245,-0.0102482885,0.7236115719906372,-0.19121846556663513,0.019804731011390686,-0.17643705010414124
16.602487802505493,0.80610055,-0.79884404,-3.844559,-3.9269841698486214,nan,nan,nan,nan,6.598906993865967,0.0018510818481445312,-0.76528716,0.15884478,0.033464786,-0.017678688948036037,-0.08952412353639283,9.44892619759776,-0.13672432,0.0056465794,-0.5104179,0.552825,-0.5139105,-3.0,2.4769979,-0.5840899,0.45763066,0.0,0.03675023,0.009880716,9.817108,-0.0128129115,-0.032696154,-0.30200747,-0.010426961,0.7240599812871715,-0.18142490088939667,0.03897104412317276,-0.1052035391330719
16.70256209373474,0.73137265,-0.78383416,-3.8348472,-3.963936520941824,nan,nan,nan,nan,6.698988437652588,0.002180814743041992,-0.8012279,0.22169599,0.040760215,-0.02667418107105224,-0.08899399998245094,9.459317349204797,-0.14699417,0.020089839,-0.39536783,0.4938997,-0.46635842,-3.0,2.4491696,-0.5932816,0.49207845,0.0,0.03335239,0.008828646,9.815842,-0.012435009,-0.03516571,-0.25506914,-0.010594226,0.7244634997642971,-0.16397292912006378,0.0436229333281517,-0.04874904453754425
16.807030200958252,0.6474777,-0.7596925,-3.8241284,-3.9938764553533677,nan,nan,nan,nan,6.804216623306274,0.004439830780029297,-0.8290839,0.29731733,0.049193162,-0.03767741818161885,-0.08688725470552838,9.472631071070213,-0.14423719,0.044541307,-0.28525242,0.4310106,-0.41283426,-3.0,2.4246752,-0.6018214,0.5245649,0.0,0.029526891,0.0077054547,9.814569,-0.011682367,-0.03749633,-0.21134663,-0.010750189,0.7249801863334262,-0.12995365262031555,0.05880959331989288,0.0004553794860839844
16.90457558631897,0.5620419,-0.72713417,-3.812568,-4.014782527137603,nan,nan,nan,nan,6.9014811515808105,0.0037882328033447266,-0.84406155,0.37830722,0.057962023,-0.0482581522928025,-0.0819247523631641,9.483403989532965,-0.12100529,0.076000266,-0.19089438,0.37213278,-0.36049893,-3.0,2.4059103,-0.60867566,0.55097514,0.0,0.025785523,0.006653579,9.81348,-0.010680406,-0.039392307,-0.17509836,-0.010875787,0.7253980022311914,-0.08310677856206894,0.07342437654733658,0.03739912807941437
17.00756025314331,0.4692721,-0.6816878,-3.7992666,-4.029069808109563,nan,nan,nan,nan,7.004528760910034,0.003381013870239258,-0.8454665,0.46768206,0.06767881,-0.05738790996286314,-0.07406026662177534,9.495926333228129,-0.082373194,0.088469185,-0.10726416,0.30908304,-0.30245024,-3.0,2.3896933,-0.6148351,0.5749633,0.0,0.021634871,0.005526846,9.812447,-0.009325761,-0.041115444,-0.14017773,-0.010988986,0.725883369541349,-0.029958326369524002,0.08632858842611313,0.06651157140731812
17.103136777877808,0.38425997,-0.63035625,-3.786455,-4.035921021682322,nan,nan,nan,nan,7.099598407745361,0.0027227401733398438,-0.83562833,0.54846597,0.07635151,-0.062100146406407486,-0.06524770098576349,9.508153949538247,-0.030769335,0.10492726,-0.041401673,0.25040144,-0.24688782,-3.0,2.3777957,-0.619502,0.5932998,0.0,0.017661301,0.0044779005,9.811629,-0.007840457,-0.04243331,-0.11046347,-0.011074978,0.7263570044661897,0.010910812765359879,0.0941498726606369,0.08541528880596161
17.202667236328125,0.29360262,-0.56616914,-3.7724712,-4.0373440915066885,nan,nan,nan,nan,7.199589252471924,0.0036602020263671875,-0.81628656,0.6293186,0.084545106,-0.06283474206230633,-0.05477327398793763,9.522606341550127,0.009552539,0.10319372,0.013459623,0.18825561,-0.1867671,-3.0,2.368229,-0.6233505,0.60852504,0.0,0.013361116,0.003366788,9.810931,-0.006074383,-0.04352804,-0.08118489,-0.011146041,0.7269164232140954,0.04290607199072838,0.1030893325805664,0.09726256877183914
17.311511278152466,0.21860749,-0.50562257,-3.7605383,-4.034657051705695,nan,nan,nan,nan,7.308446168899536,0.003651857376098633,-0.7951847,0.69009715,0.09038721,-0.0606066028781862,-0.04506979002383771,9.529713902631777,0.03478669,0.108878314,0.049778726,0.12022756,-0.119840756,-3.0,2.3610492,-0.62629706,0.6202455,0.0,0.008573577,0.002150283,9.810384,-0.0039684228,-0.044371072,-0.050959352,-0.011200539,0.7271913847808892,0.05362525209784508,0.08081089705228806,0.10964226722717285
17.405162811279297,0.1391953,-0.43367675,-3.7470086,-4.028613601370668,nan,nan,nan,nan,7.402096271514893,0.0042018890380859375,-0.7685731,0.7468153,0.09589052,-0.05669448015097012,-0.03484452841429886,9.540816617021342,0.05291913,0.09816014,0.08026407,0.061497122,-0.06144542,-3.0,2.3574576,-0.6277903,0.62620634,0.0,0.004395972,0.0010999137,9.8101015,-0.0020531612,-0.044799924,-0.025839426,-0.011228188,0.7276206968729552,0.06921754777431488,0.08014195412397385,0.11493103951215744
17.509050130844116,0.05002113,-0.34391353,-3.7303274,-4.018413619964175,nan,nan,nan,nan,7.505885124206543,0.003469705581665039,-0.7349317,0.79953396,0.10093939,-0.04985958343561414,-0.023317081923746708,9.551536658713596,0.06925328,0.09414492,0.107911244,-0.0036983574,0.0036983462,-3.0,2.356199,-0.62831664,0.6283109,0.0,-0.00026459142,-6.614805e-05,9.81,0.00012397007,-0.044951353,0.0015491815,-0.01123794,0.7280349750749406,0.07852785289287567,0.07667199522256851,0.11851959675550461
17.606834650039673,-0.029170241,-0.256698,-3.714423,-4.006660448043391,nan,nan,nan,nan,7.603754281997681,0.0021555423736572266,-0.7032114,0.8348642,0.1045476,-0.04228002407252229,-0.013902348320949498,9.561996271172545,0.07936054,0.0848492,0.1250791,-0.06517052,0.065108985,-3.0,2.3576133,-0.62772524,0.62594646,0.0,-0.00465807,-0.0011656133,9.810114,0.0021747246,-0.044781223,0.02739329,-0.011226985,0.7284389649189668,0.08006667345762253,0.07140149176120758,0.12347633391618729
17.7073872089386,-0.09287222,-0.18112077,-3.7016418,-3.995532829350163,nan,nan,nan,nan,7.7038655281066895,0.0018858909606933594,-0.67672175,0.85482097,0.10639124,-0.03534285087962852,-0.006660494464206357,9.571256132284187,0.08079921,0.075177014,0.13474631,-0.1279375,0.12747131,-3.0,2.3616972,-0.62602895,0.6191769,0.0,-0.00911945,-0.0022881646,9.810434,0.004214241,-0.044294197,0.054312453,-0.011195577,0.7287964314675777,0.07665076851844788,0.048572078347206116,0.13629059493541718
17.80800175666809,-0.15385368,-0.105179824,-3.6890197,-3.983540502955374,nan,nan,nan,nan,7.7964558601379395,0.002342700958251953,-0.6512297,0.86551756,0.10712989,-0.028372837523850336,-0.0006212087265278221,9.582615126231696,0.07790357,0.05329594,0.14387691,-0.18579082,0.18436016,-3.0,2.3679101,-0.62348026,0.60903996,0.0,-0.013188947,-0.0033227147,9.810908,0.0060008797,-0.04356507,0.08006086,-0.011148438,0.7292346966069739,0.07162681221961975,0.02600022777915001,0.15142366290092468
17.906505346298218,-0.21750839,-0.022733312,-3.6751716,-3.9694301318289082,nan,nan,nan,nan,7.902914524078369,0.0028867721557617188,-0.62553835,0.8681968,0.10679571,-0.020884504451092578,0.0036465608836551144,9.592189488867309,0.07761867,0.030381387,0.15311912,-0.25195906,0.24837913,-3.0,2.3780746,-0.61939114,0.5928628,0.0,-0.017767962,-0.0045057465,9.811648,0.007882352,-0.042401895,0.11122346,-0.011072935,0.7296039034438405,0.0634772777557373,0.014851397834718227,0.17171749472618103
18.005577087402344,-0.2832062,0.06596178,-3.6604207,-3.9530859604295507,nan,nan,nan,nan,8.002454996109009,0.0039141178131103516,-0.6012521,0.86349577,0.1056731,-0.013184924807849496,0.005987649604486167,9.597053405204798,0.0701499,0.012273963,0.1648006,-0.3133766,0.3064614,-3.0,2.3906806,-0.6144536,0.5734706,0.0,-0.021921707,-0.005603584,9.812512,0.009426415,-0.04100819,0.14244801,-0.010981966,0.7297913953401769,0.05581708997488022,0.019252706319093704,0.19534853100776672
18.10280203819275,-0.3361411,0.14028428,-3.6485043,-3.938407186822105,nan,nan,nan,nan,8.099323511123657,0.0025250911712646484,-0.58406925,0.85458356,0.10395412,-0.007104812312708431,0.007057038414064687,9.606731281364347,0.06426156,0.01868465,0.1761602,-0.3726236,0.36094314,-3.0,2.4060516,-0.60862297,0.550771,0.0,-0.025817282,-0.0066623488,9.813489,0.010689858,-0.03937765,0.17538473,-0.01087482,0.7301643121688661,0.051562998443841934,0.02029915526509285,0.22700285911560059
18.20524311065674,-0.3825656,0.20721085,-3.6381292,-3.9241134773479227,nan,nan,nan,nan,8.202098608016968,0.004002809524536133,-0.57073337,0.8431691,0.10159733,-0.001978277482526103,0.008747109577598389,9.617642997289085,0.060014267,0.02125775,0.1908343,-0.43481058,0.41614196,-3.0,2.426018,-0.60134166,0.5227274,0.0,-0.029763326,-0.007773332,9.814644,0.011737502,-0.037364457,0.21382932,-0.010741413,0.730584547230273,0.0500161238014698,0.011038348078727722,0.2688784599304199
18.318693161010742,-0.44544628,0.29894444,-3.6247365,-3.9019394978096322,nan,nan,nan,nan,8.315208911895752,0.002320528030395508,-0.5548548,0.8211566,0.09714899,0.004870611321266205,0.01094703219809734,9.622738242829225,0.06046369,0.015132603,0.21508402,-0.5023147,0.47331208,-3.0,2.452836,-0.5920407,0.48739642,0.0,-0.033849314,-0.008978909,9.816019,0.012508989,-0.03482995,0.26138508,-0.010571611,0.7307806951049555,0.04334277659654617,0.01725231483578682,0.31790685653686523
18.419411420822144,-0.49358806,0.3687247,-3.6144645,-3.8823018030697907,nan,nan,nan,nan,8.415816068649292,0.002478361129760742,-0.54507005,0.7992559,0.092842855,0.010153132672917842,0.01211824109956039,9.628628261024138,0.052966923,0.019388655,0.23936118,-0.56141484,0.5206096,-3.0,2.4814994,-0.58265054,0.4522851,0.0,-0.037228853,-0.010034056,9.817297,0.012840053,-0.032313082,0.30942103,-0.010400823,0.7310073740498196,0.0410224013030529,0.020947866141796112,0.3728029727935791
18.5077064037323,-0.5537951,0.45359945,-3.6015263,-3.853884589046845,nan,nan,nan,nan,8.504530906677246,0.003412008285522461,-0.53543794,0.76524377,0.08723421,0.016588638046997728,0.014147588419207713,9.635005698511383,0.051361978,0.025362305,0.27788517,-0.61270493,0.5592598,-3.0,2.5110283,-0.5735114,0.41865152,0.0,-0.03998989,-0.010949515,9.818439,0.012848031,-0.029903786,0.35721424,-0.010235176,0.7312527332965046,0.02484542690217495,0.035720229148864746,0.41897842288017273
18.608253479003906,-0.6048681,0.522281,-3.5905857,-3.8257269374974836,nan,nan,nan,nan,8.60505723953247,0.00391077995300293,-0.5290049,0.73025304,0.08163254,0.021709486045836224,0.016223613027816608,9.641645090216779,0.049178034,0.026481487,0.31873676,-0.66979766,0.5993134,-3.0,2.549957,-0.5621992,0.37775686,0.0,-0.042850535,-0.011968294,9.819717,0.012536993,-0.026976332,0.4186821,-0.010030867,0.7315080844535682,0.016881510615348816,0.03560803830623627,0.48864293098449707
18.70969581604004,-0.6600639,0.591662,-3.5790336,-3.790449454519548,nan,nan,nan,nan,8.706557989120483,0.002553224563598633,-0.52305263,0.6868367,0.07424845,0.02680327406024996,0.018506792915587322,9.647409336278223,0.037668936,0.028516233,0.37022382,-0.7262391,0.6354445,-3.0,2.5959864,-0.54976606,0.33374986,0.0,-0.04543044,-0.012975232,9.820959,0.011888582,-0.023828276,0.48994336,-0.009807149,0.7317297061980763,0.0038209371268749237,0.03635285049676895,0.5678561329841614
18.807160139083862,-0.69857126,0.6361458,-3.5713034,-3.7627196381967574,nan,nan,nan,nan,8.803597927093506,0.002476930618286133,-0.5197177,0.6534353,0.06864407,0.02990566073105727,0.019835467515503025,9.65283896458336,0.033727556,0.027853118,0.41138422,-0.77897406,0.6656974,-3.0,2.6472323,-0.5369499,0.28941718,0.0,-0.047590148,-0.0139158955,9.822071,0.010973139,-0.020658962,0.5679258,-0.009577354,0.731938402127533,0.008054491132497787,0.03164198249578476,0.6672581434249878
18.90379285812378,-0.75023645,0.69070476,-3.561584,-3.72089291020464,nan,nan,nan,nan,8.900358438491821,0.0019526481628417969,-0.51517695,0.6054153,0.059984114,0.03378852434461521,0.02110141851513192,9.656544816577812,0.029460855,0.027986044,0.47530484,-0.8302753,0.6914848,-3.0,2.706366,-0.52328753,0.24330893,0.0,-0.049430717,-0.014830906,9.823078,0.009798264,-0.017364593,0.6561344,-0.009333188,0.7320808084224254,-0.0028259437531232834,0.03639071434736252,0.7709988355636597
19.003557682037354,-0.80562407,0.7435189,-3.5519648,-3.66824890605866,nan,nan,nan,nan,8.999950885772705,0.0022711753845214844,-0.50949323,0.5489946,0.049154606,0.037932979848049,0.02201044565767285,9.659240954620772,0.025552751,0.023973696,0.5563588,-0.8816531,0.71328294,-3.0,2.776692,-0.5083279,0.1941855,0.0,-0.050986297,-0.015747271,9.823983,0.008349348,-0.013856563,0.7579545,-0.009066649,0.7321843968539986,-0.015301703475415707,0.03665197640657425,0.888939619064331
19.105695724487305,-0.8558241,0.7861622,-3.5439844,-3.6117155846879747,nan,nan,nan,nan,9.102524757385254,0.0038309097290039062,-0.50333655,0.493485,0.03789628,0.04152381440315178,0.022174803699511303,9.660460492218855,0.020665865,0.021913787,0.64140975,-0.9329647,0.73054487,-3.0,2.860266,-0.491996,0.14218259,0.0,-0.052217986,-0.016662527,9.824754,0.0066460352,-0.010144482,0.87306315,-0.008776473,0.7322312480099772,-0.017189286649227142,0.03367304801940918,1.0300670862197876
19.201853275299072,-0.90514845,0.82296175,-3.5369775,-3.5464332085363726,nan,nan,nan,nan,9.19829249382019,0.0019540786743164062,-0.49609217,0.43549922,0.025064647,0.044808440697330365,0.021460931415738793,9.659801164418468,0.016901067,0.021596456,0.7406284,-0.9793191,0.74179685,-3.0,2.949274,-0.47592732,0.09267509,0.0,-0.053020764,-0.017489502,9.825308,0.004906888,-0.0066116485,0.98621047,-0.00849164,0.7322059188837537,-0.019441939890384674,0.030870642513036728,1.1665797233581543
19.313101530075073,-0.9576063,0.85648423,-3.5306292,-3.4643851480710826,nan,nan,nan,nan,9.309519529342651,0.0022802352905273438,-0.48681882,0.37056205,0.008651288,0.04866792949880239,0.019439618433186867,9.658242060020578,0.027362349,0.006255077,0.86160976,-1.0311731,0.74887186,-3.0,3.0662386,-0.4563056,0.034449734,0.0,-0.053525493,-0.018414855,9.825736,0.0027675792,-0.0024575887,1.1155379,-0.008144511,0.732146019969232,-0.016312647610902786,0.03279489278793335,1.331634759902954
19.406075477600098,-1.0044825,0.8818155,-3.5265024,-3.376760259440942,nan,nan,nan,nan,9.402562618255615,0.00196075439453125,-0.4775722,0.30904844,-0.008255205,0.053167574359998415,0.015959928465262063,9.654071778059016,0.0336534,0.016705237,0.9860417,-1.0728357,0.7498,-3.0,-3.1085668,-0.43912902,-0.014507925,0.0,-0.053591713,-0.019158624,9.825908,0.00093074923,0.0010349648,1.2112092,-0.00784108,0.7319857789905015,-0.016954917460680008,0.028669580817222595,1.450377345085144
19.50437307357788,-1.0461265,0.90017664,-3.5242462,-3.2854846884899227,nan,nan,nan,nan,9.500766515731812,0.0019614696502685547,-0.46867388,0.25055894,-0.02542002,0.05792610464213244,0.01167388517872725,9.646891559809458,0.04334566,-0.002598485,1.1088004,-1.1150398,0.7458409,-3.0,-2.9856422,-0.42027703,-0.06607895,0.0,-0.05330927,-0.01991241,9.825904,-0.0010023733,0.004714076,1.2868904,-0.007508341,0.7317098016139648,-0.008123528212308884,0.026496704667806625,1.5607032775878906
19.602967500686646,-1.0905212,0.9140911,-3.5240736,-3.1735132409476146,nan,nan,nan,nan,9.599376440048218,0.0018868446350097656,-0.45907727,0.18379767,-0.044379823,0.06278696584574539,0.004819530058966404,9.636247521862398,0.037009865,-0.003932711,1.2438686,-1.1555207,0.73678863,-3.0,-2.856505,-0.4006315,-0.11741343,0.0,-0.052663453,-0.02063582,9.825712,-0.002886332,0.008376854,1.3252193,-0.0071617397,0.7313005005383585,-0.006086274981498718,0.035325534641742706,1.6222953796386719
19.70163631439209,-1.137579,0.9219531,-3.5265872,-3.0379587786981066,nan,nan,nan,nan,9.6980619430542,0.0027594566345214844,-0.44880506,0.10892653,-0.06351177,0.0663656184773187,-0.0034181395952972426,9.624569379538308,0.026843065,0.010891302,1.3794074,-1.1940585,0.72269833,-3.0,-2.7256355,-0.38028684,-0.16798489,0.0,-0.051658135,-0.02132496,9.825338,-0.004663512,0.011986129,1.3196394,-0.006802781,0.7308511743263831,-0.0035136956721544266,0.03657715767621994,1.618783950805664
19.80267071723938,-1.1766717,0.92317545,-3.5310993,-2.9130477822312555,nan,nan,nan,nan,9.799113750457764,0.002482175827026367,-0.43934146,0.04457702,-0.07762895,0.0679693268680428,-0.011142520540747158,9.610188736766583,0.023933591,-0.0029810586,1.4750572,-1.2314065,0.70315504,-3.0,-2.594419,-0.35878107,-0.21857774,0.0,-0.050263572,-0.02199332,9.824781,-0.006321235,0.015598271,1.2707376,-0.006423133,0.7302974924782204,0.024101853370666504,0.018139885738492012,1.5817997455596924
19.91260051727295,-1.221851,0.9181526,-3.5388606,-2.7562279669350556,nan,nan,nan,nan,9.909189462661743,0.001848459243774414,-0.42784595,-0.032701895,-0.09048721,0.06840546550278126,-0.022814454075493318,9.595765273571022,0.024846608,-0.0023531658,1.5539736,-1.2695767,0.6761415,-3.0,-2.4592555,-0.33462512,-0.2718944,0.0,-0.04833563,-0.022676978,9.8239975,-0.007886406,0.019406775,1.17999,-0.0059962533,0.7297417456905807,0.04360588639974594,0.02689613774418831,1.479722023010254
20.00236487388611,-1.2623143,0.90742743,-3.547943,-2.6059380856561436,nan,nan,nan,nan,9.99878478050232,0.0030710697174072266,-0.41707808,-0.104693346,-0.09845922,0.06657623470121843,-0.0339772842970818,9.582800620794306,0.018047739,-0.021338806,1.5875908,-1.2986565,0.6499002,-3.0,-2.3575168,-0.31443605,-0.31360552,0.0,-0.04646246,-0.023198271,9.823242,-0.008940226,0.022387933,1.0895576,-0.0056389854,0.7292418514050807,0.053285494446754456,0.010417589917778969,1.349583387374878
20.10582947731018,-1.2982403,0.89206517,-3.5570197,-2.4670366501335517,nan,nan,nan,nan,10.102277994155884,0.0022344589233398438,-0.40719435,-0.17116818,-0.10253124,0.06334185672501813,-0.045229282212631006,9.57285302028061,0.021275476,-0.0131795015,1.5786738,-1.3299682,0.6150436,-3.0,-2.2504463,-0.29056582,-0.35957432,0.0,-0.043973807,-0.02376007,9.822266,-0.009879422,0.025675375,0.97947127,-0.005215879,0.7288580600527907,0.08255928009748459,-0.0009989100508391857,1.2174242734909058
20.202996969223022,-1.341916,0.8645709,-3.5683143,-2.2933939634579827,nan,nan,nan,nan,10.199436664581299,0.002362489700317383,-0.395071,-0.25834036,-0.1044259,0.05704637074586616,-0.060371387580751446,9.562904376238594,0.022888947,-0.04347819,1.5241829,-1.35709,0.5781102,-3.0,-2.1601946,-0.26765904,-0.40027702,0.0,-0.041336283,-0.024247145,9.821274,-0.01046726,0.028588181,0.8794492,-0.004809052,0.7284740289487709,0.08195262402296066,0.04012039303779602,1.0493777990341187
20.305233001708984,-1.3718979,0.8395371,-3.5761158,-2.174145049452624,nan,nan,nan,nan,10.301771640777588,0.002504587173461914,-0.38713387,-0.32282582,-0.10485941,0.05143391405274045,-0.06985463585197982,9.548529901802546,0.02386392,-0.018287279,1.4521062,-1.3832257,0.53507507,-3.0,-2.075209,-0.2430533,-0.44027728,0.0,-0.038262285,-0.024716945,9.820186,-0.010762716,0.031452745,0.7833764,-0.0043711136,0.7279188018084112,0.1045859083533287,0.020648114383220673,0.9277883768081665
20.407652616500854,-1.40867,0.8005922,-3.585686,-2.0283563993914973,nan,nan,nan,nan,10.404547452926636,0.0036857128143310547,-0.37534145,-0.40736866,-0.10461911,0.042516283160035306,-0.077596889750853,9.536699804663664,0.021058023,0.005227236,1.3354796,-1.4069167,0.48789823,-3.0,-1.9991329,-0.21789174,-0.47719517,0.0,-0.03489162,-0.025143208,9.819078,-0.010718474,0.03409851,0.6991872,-0.0039222464,0.7274615399701986,0.11920198798179626,0.05464527755975723,0.78313148021698
20.511003971099854,-1.4403292,0.7573355,-3.5937238,-1.9049815675139312,nan,nan,nan,nan,10.507883071899414,0.003525257110595703,-0.36202615,-0.48468113,-0.103612676,0.035558991782559723,-0.08056948616827353,9.525671444535263,0.036148526,0.039483275,1.2124134,-1.4281077,0.43682176,-3.0,-1.9306923,-0.19218662,-0.51074857,0.0,-0.031241445,-0.025524832,9.817987,-0.010332806,0.03650492,0.6276069,-0.003462602,0.7270350117033828,0.12271936237812042,0.05651397630572319,0.6594086289405823
20.60647702217102,-1.4723471,0.70235014,-3.6020474,-1.7851276491061503,nan,nan,nan,nan,10.603407859802246,0.0037851333618164062,-0.34326237,-0.56557894,-0.102091685,0.03014386748118736,-0.08044796649458807,9.516670581623918,0.046730973,0.04566874,1.0697541,-1.4453183,0.38668665,-3.0,-1.8734491,-0.16810302,-0.5383685,0.0,-0.027657736,-0.025835028,9.81703,-0.009683668,0.038487136,0.5726178,-0.0030309958,0.7266867150507264,0.11192285269498825,0.08140600472688675,0.5412153601646423
20.70395851135254,-1.4969664,0.64966315,-3.608477,-1.695315433693553,nan,nan,nan,nan,10.700398445129395,0.0019550323486328125,-0.32240167,-0.6302551,-0.10038142,0.027405851427391048,-0.07850600766752303,9.507149177417165,0.05359389,0.068065405,0.9486655,-1.4604257,0.3332514,-3.0,-1.8202063,-0.14337465,-0.5628858,0.0,-0.023837348,-0.026107516,9.8161335,-0.008756263,0.04024776,0.5268895,-0.0025869345,0.7263180962543204,0.11098962277173996,0.08371520042419434,0.45647308230400085
20.80569314956665,-1.5247567,0.57510775,-3.616087,-1.5961854735807388,nan,nan,nan,nan,10.802139043807983,0.003832101821899414,-0.2898509,-0.70491683,-0.09817574,0.02582014048296566,-0.07259753644310085,9.498646214678887,0.048841126,0.08306823,0.79780936,-1.4736823,0.2748428,-3.0,-1.7686194,-0.11718187,-0.5846095,0.0,-0.019660594,-0.026346782,9.815304,-0.0075218068,0.041808657,0.4887972,-0.0021156806,0.7259887501095759,0.10211902856826782,0.10783439874649048,0.3650415539741516
20.92175030708313,-1.547925,0.49263257,-3.6235173,-1.5131060524487574,nan,nan,nan,nan,10.91861367225647,0.0031881332397460938,-0.25018486,-0.7684197,-0.09493913,0.026760477463716792,-0.06459437883817931,9.49298514090479,0.06557779,0.094489805,0.6599401,-1.4855719,0.20555156,-3.0,-1.7136899,-0.086937465,-0.60426027,0.0,-0.014704751,-0.026561512,9.814523,-0.005828638,0.04322135,0.4562714,-0.0015705555,0.7257693973989068,0.10234348475933075,0.09324030578136444,0.29597246646881104
21.008956909179688,-1.5625857,0.4232577,-3.62899,-1.458001299299215,nan,nan,nan,nan,11.005578517913818,0.0020987987518310547,-0.21415326,-0.8089887,-0.091624625,0.029787028181598063,-0.0577056788164505,9.487256930470474,0.07586982,0.09823936,0.56422573,-1.4921453,0.15250233,-3.0,-1.6748037,-0.06421629,-0.6151923,0.0,-0.010910068,-0.026680283,9.814077,-0.0044082417,0.04400757,0.43895438,-0.0011604779,0.7255473767245146,0.08944740146398544,0.10972478240728378,0.25616100430488586
21.10650610923767,-1.5727842,0.35746357,-3.633701,-1.4146806408576147,nan,nan,nan,nan,11.102920770645142,0.002460956573486328,-0.17711464,-0.83831525,-0.08753914,0.0338529009870262,-0.05071588993622367,9.48290927916766,0.08011856,0.10578096,0.48534173,-1.4971542,0.09217808,-3.0,-1.6327561,-0.038684856,-0.62355494,0.0,-0.0065946174,-0.026770813,9.81373,-0.0027032911,0.04460916,0.42607492,-0.0006992704,0.7253788206293393,0.09055216610431671,0.08624578267335892,0.23497024178504944
21.208836555480957,-1.5814635,0.2619302,-3.6399808,-1.3635566255151654,nan,nan,nan,nan,11.205273866653442,0.002290010452270508,-0.1188218,-0.866788,-0.081354044,0.04079681861240547,-0.0415933908075965,9.479081500209878,0.0807494,0.0901432,0.3926085,-1.4997368,0.028095089,-3.0,-1.5895406,-0.011770509,-0.62787753,0.0,-0.002010009,-0.026817499,9.813549,-0.0008300507,0.04492017,0.41954097,-0.0002127933,0.7252303877167389,0.05262624844908714,0.09238479286432266,0.211145281791687
21.302096605300903,-1.5834448,0.19232276,-3.644108,-1.3327718508483786,nan,nan,nan,nan,11.298591613769531,0.0030951499938964844,-0.073380314,-0.8785107,-0.075693205,0.045510590505999926,-0.03561971665252095,9.47707172342577,0.06770704,0.085228406,0.33912364,-1.4996893,-0.030522991,-3.0,-1.5504293,0.012788091,-0.62779796,0.0,0.0021837081,-0.02681664,9.813552,0.00090165937,0.044914447,0.4196605,0.00023118907,0.7251524409612375,0.04351796582341194,0.0793449655175209,0.21385695040225983
21.42777132987976,-1.5780416,0.08072809,-3.6495585,-1.2909264469974764,nan,nan,nan,nan,11.424358606338501,0.0033845901489257812,0.004540182,-0.8829174,-0.06614137,0.05156624730769743,-0.026872565231661483,9.477050055142033,0.041399486,0.08249613,0.27640077,-1.4960011,-0.10916442,-3.0,-1.4971733,0.045848917,-0.6216273,0.0,0.007809811,-0.02674997,9.81381,0.003190858,0.044470474,0.42901587,0.00082871877,0.7251516005380958,0.009989127516746521,0.08119455724954605,0.2273131012916565
21.50750756263733,-1.5691208,0.011926727,-3.6524355,-1.2680764428115094,nan,nan,nan,nan,11.503920793533325,0.0035858154296875,0.05418994,-0.8774443,-0.059673037,0.053337202094279834,-0.021004286995925048,9.478153708919423,0.018287875,0.08699017,0.24929056,-1.4915233,-0.15834299,-3.0,-1.4626104,0.066703506,-0.6141558,0.0,0.011327875,-0.02666904,9.81412,0.0045688148,0.043933015,0.44057277,0.001205387,0.7251944054835131,-0.02176947519183159,0.08425464481115341,0.2454218864440918
21.60325813293457,-1.5545423,-0.062312596,-3.65502,-1.244814644302962,nan,nan,nan,nan,11.599714040756226,0.002369403839111328,0.10771489,-0.86437464,-0.052468777,0.05387337431229611,-0.01452668010811764,9.480797665889845,-0.0020098656,0.08678495,0.23222785,-1.4839345,-0.216603,-3.0,-1.4194994,0.09171272,-0.6015448,0.0,0.015495225,-0.026531931,9.814632,0.006112425,0.043026093,0.46065846,0.0016566856,0.7252969405812202,-0.03252824768424034,0.0792960375547409,0.28023046255111694
21.7058265209198,-1.5302091,-0.15423949,-3.6576364,-1.2168109499598896,nan,nan,nan,nan,11.702258586883545,0.0017251968383789062,0.17066495,-0.83840466,-0.043812413,0.05226523033781538,-0.00621972967490092,9.483983992289293,-0.021038054,0.08254637,0.22698128,-1.4731641,-0.27741313,-3.0,-1.3708194,0.11831934,-0.58375686,0.0,0.01984441,-0.026337435,9.815336,0.0075802533,0.041747373,0.49024978,0.0021361636,0.7254204902717357,-0.05224737897515297,0.07801932841539383,0.32438573241233826
21.802443742752075,-1.5071785,-0.2233849,-3.6592925,-1.194833500364823,nan,nan,nan,nan,11.798830270767212,0.001844167709350586,0.21467096,-0.81137776,-0.037567865,0.05023941045694158,-8.02758613427379e-06,9.489652865442919,-0.023658447,0.07872798,0.2366726,-1.460536,-0.3328182,-3.0,-1.3217916,0.14317748,-0.5630657,0.0,0.02380637,-0.026109507,9.816127,0.008747891,0.04026068,0.52656484,0.0025833908,0.7256402493243276,-0.047998540103435516,0.07183019071817398,0.38307395577430725
21.901597261428833,-1.4759314,-0.30038664,-3.6609008,-1.1671924240335587,nan,nan,nan,nan,11.898118019104004,0.002001523971557617,0.260537,-0.77235144,-0.03100007,0.04742540174984389,0.006955703614266451,9.495827701899692,-0.03110095,0.07434486,0.26012388,-1.4450612,-0.38750884,-3.0,-1.2672682,0.16849041,-0.5379535,0.0,0.027716514,-0.025830392,9.817044,0.009696174,0.038457345,0.573417,0.0030379454,0.7258795478319003,-0.051971834152936935,0.062049657106399536,0.4514863193035126
22.001811742782593,-1.4470818,-0.36109883,-3.6619284,-1.1412694629649498,nan,nan,nan,nan,11.998303651809692,0.0018262863159179688,0.29318994,-0.73362076,-0.02688939,0.04522341827676846,0.011960453716729713,9.502232688691008,-0.023927242,0.064757444,0.2946645,-1.4269136,-0.43997645,-3.0,-1.2070044,0.19373657,-0.50884455,0.0,0.031466924,-0.025503317,9.818052,0.0103653325,0.03636832,0.6315313,0.0034903476,0.7261276833506458,-0.03939658775925636,0.05082816258072853,0.5396027565002441
22.101718425750732,-1.4137964,-0.42270902,-3.662612,-1.109076370993423,nan,nan,nan,nan,12.09825873374939,0.0018432140350341797,0.3229606,-0.6872663,-0.023213305,0.0442204752412082,0.01627931445104469,9.508555664743767,-0.009676668,0.050230708,0.34523526,-1.4063035,-0.4892376,-3.0,-1.1404923,0.21858513,-0.4762318,0.0,0.03498733,-0.02513217,9.819109,0.010724222,0.034029447,0.7013159,0.00393463,0.726372559677149,-0.035843394696712494,0.04025612026453018,0.6402159333229065
22.21500587463379,-1.3790842,-0.4795643,-3.6632745,-1.0715731458245674,nan,nan,nan,nan,12.211957931518555,0.0028035640716552734,0.3483837,-0.6374182,-0.021213502,0.04415540098069315,0.019116131126609703,9.51514470166294,-0.0038283204,0.038670633,0.40963188,-1.3798654,-0.541085,-3.0,-1.0555434,0.24638179,-0.43509176,0.0,0.038691618,-0.02465652,9.8203335,0.0107427,0.03108127,0.7955916,0.0044304132,0.7266276533994549,-0.02221781387925148,0.0350746214389801,0.779606282711029
