time,x,y,z,yaw,platform,trajectory,controller,feedforward,traj_time,comp_time,vx,vy,vz,roll,pitch,f,p,q,r,x_ref,y_ref,z_ref,yaw_ref,vx_ref,vy_ref,vz_ref,roll_ref,pitch_ref,f_ref,u_ff_df,u_ff_dphi,u_ff_dpsi,u_ff_dth,throttle,p_cmd,q_cmd,r_cmd
10.00236201286316,1.9069403,-0.7223266,-2.6623778,-0.015658497105470192,SIM,figure_eight,contraction,1.0,4.76837158203125e-06,0.0011525154113769531,-0.59719926,0.25789636,-0.16424617,-0.04019776707355335,-0.05547168465003094,9.809113976135851,0.0325827,0.09265883,0.016840626,5.9921126e-06,5.9921126e-06,-3.0,0.0,1.2566371,1.2566371,0.0,-9.645632e-07,2.411408e-07,9.81,2.0337113e-06,-0.20228358,0.0,0.050570894,0.7379201093576243,2.2409543991088867,-0.37642917037010193,0.09805595874786377
10.111435890197754,1.8636627,-0.6996466,-2.6785758,-0.013680187376307792,nan,nan,nan,nan,0.10910701751708984,0.0023336410522460938,-0.5326985,0.21973343,-0.15866959,-0.03671979381990272,-0.047052795312345186,9.807698628529907,0.05574589,0.07294293,0.020277796,0.13700056,0.13667876,-3.0,0.0,1.2536854,1.2448441,0.0,-0.021997925,0.005511929,9.812524,0.04596695,-0.20028827,0.0,0.05041408,0.7378661490750519,2.267883062362671,-0.43550288677215576,0.24655629694461823
10.205361604690552,1.8295543,-0.68265224,-2.6934798,-0.010983275079007392,nan,nan,nan,nan,0.20309686660766602,0.0015189647674560547,-0.48239243,0.19804326,-0.19149512,0.0010039689549475959,-0.049788947557674934,9.803334505409003,0.8716902,-0.16363637,0.039165318,0.25452694,0.25245735,-3.0,0.0,1.2464193,1.2159321,0.0,-0.04061625,0.010234132,9.818612,0.08299847,-0.1954085,0.0,0.050031822,0.7376997418868174,2.0543551445007324,-0.4691985547542572,0.21842005848884583
10.302799463272095,1.7951161,-0.6619118,-2.7140443,-0.008402739591460165,nan,nan,nan,nan,0.30010557174682617,0.0009045600891113281,-0.41123262,0.26531777,-0.22410136,0.16070807344882826,-0.08715011969369213,9.805319296345113,1.9383656,-0.42501527,0.07251983,0.37489295,0.36824793,-3.0,0.0,1.234363,1.1683302,0.0,-0.05920838,0.015059256,9.828335,0.1164987,-0.1874101,0.0,0.04940895,0.7377754279996933,1.0418689250946045,-0.26442059874534607,0.18715545535087585
10.415485382080078,1.7693198,-0.6285613,-2.7347934,-0.0073787230724179365,nan,nan,nan,nan,0.4136044979095459,0.00269317626953125,-0.31588432,0.4751295,-0.22046308,0.30190018567170707,-0.11751871785221235,9.852496667727825,1.1382958,-0.22527045,0.099082135,0.51392025,0.49666384,-3.0,0.0,1.2144418,1.0906893,0.0,-0.07977936,0.02061301,9.843393,0.14711496,-0.17445551,0.0,0.04840926,0.7395721949126991,-0.15478026866912842,-0.054430268704891205,0.11833587288856506
10.51441478729248,1.7496525,-0.5526381,-2.7572722,7.195026654296943e-05,nan,nan,nan,nan,0.5121598243713379,0.0015120506286621094,-0.18558016,0.8308476,-0.18384789,0.35735939133910455,-0.1331569730459803,9.892243855819103,0.03646122,-0.03578903,0.11430906,0.63254845,0.60007834,-3.0,0.0,1.1921312,1.0052358,0.0,-0.09629713,0.025332315,9.858825,0.16449842,-0.16031907,0.0,0.047329944,0.7410826445060809,-1.190148115158081,0.14861367642879486,0.02421717345714569
10.607465505599976,1.7436267,-0.43984407,-2.7744334,0.014739078968905944,nan,nan,nan,nan,0.6052041053771973,0.0016090869903564453,-0.06349021,1.1668413,-0.15491119,0.2959036222250273,-0.12844221828795854,9.92552400015294,-1.1481328,0.1816958,0.10478167,0.7423256,0.6892997,-3.0,0.0,1.1668727,0.91040385,0.0,-0.11050602,0.029682502,9.874555,0.17214787,-0.14476733,0.0,0.046154454,0.7423450047476949,-1.5770658254623413,0.22142334282398224,-0.043200328946113586
10.711041450500488,1.7513652,-0.25151566,-2.793398,0.03341542207321977,nan,nan,nan,nan,0.7087211608886719,0.0019526481628417969,0.06978275,1.44421,-0.1613444,0.11194191551374955,-0.10264169722865613,9.928565197363492,-1.6789696,0.25326908,0.06368843,0.8614621,0.7774526,-3.0,0.0,1.1340903,0.7903513,0.0,-0.124500915,0.034385957,9.892372,0.17028575,-0.12526266,0.0,0.044693828,0.7424602558061075,-1.280346393585205,0.19737350940704346,-0.04957985877990723
10.80773639678955,1.7644212,-0.11091147,-2.8070807,0.04016636790336402,nan,nan,nan,nan,0.8054451942443848,0.0012700557708740234,0.14222145,1.4985504,-0.18379116,-0.017577470823713987,-0.08310042964313036,9.919423206523055,-1.5402576,0.23396307,0.03206275,0.969498,0.8479746,-3.0,0.0,1.0991218,0.66606396,0.0,-0.13566189,0.038637828,9.908365,0.15890795,-0.10525657,0.0,0.04320563,0.7421137521139247,-0.9461478590965271,0.18745310604572296,-0.006385892629623413
10.90451955795288,1.7880845,0.06771222,-2.8278337,0.04196030580719289,nan,nan,nan,nan,0.9018847942352295,0.0010900497436523438,0.2175682,1.4212164,-0.20975828,-0.15371707480443844,-0.059172118329727574,9.91479977242648,-1.1188029,0.21989498,0.0034100413,1.0736526,0.905833,-3.0,0.0,1.0602156,0.5323554,0.0,-0.14479345,0.04272889,9.922797,0.13906579,-0.08391032,0.0,0.041620623,0.7419384519182732,-0.45186129212379456,0.17448510229587555,0.027660280466079712
11.002460718154907,1.814392,0.21231426,-2.8490977,0.03892533528454749,nan,nan,nan,nan,1.0001773834228516,0.0012743473052978516,0.26843348,1.2370504,-0.21985154,-0.23312606613280912,-0.03960392025041459,9.918406773954626,-0.5675852,0.203965,-0.0044579613,1.1757509,0.9511254,-3.0,0.0,1.0165584,0.38805574,0.0,-0.15192492,0.04673672,9.935162,0.11138916,-0.061035432,0.0,0.039913815,0.7420752169853403,-0.09454571455717087,0.16075830161571503,0.04698040336370468
11.110879898071289,1.8454431,0.3347148,-2.872199,0.03355150027955511,nan,nan,nan,nan,1.0976591110229492,0.0012149810791015625,0.30350244,0.97173417,-0.21720156,-0.2638895963656731,-0.02101525347907529,9.923587721362704,-0.08935316,0.17278498,-0.0005787102,1.27258,0.9817318,-3.0,0.0,0.9694326,0.23910038,0.0,-0.15673527,0.05054165,9.944441,0.07819653,-0.037550714,0.0,0.038136933,0.7422716171497958,0.08010904490947723,0.13271591067314148,0.052141718566417694
11.212880849838257,1.8746489,0.41209388,-2.8926358,0.02881687841537503,nan,nan,nan,nan,1.210655689239502,0.0012629032135009766,0.31835502,0.7082711,-0.21280318,-0.2612900357888004,-0.006918696504397248,9.923730750940734,0.12033215,0.13642825,0.0069725327,1.3788246,0.99877805,-3.0,0.0,0.91026914,0.062104754,0.0,-0.15941127,0.054729838,9.950879,0.03520222,-0.009745234,0.0,0.035973735,0.7422770384100944,0.18691447377204895,0.08992869406938553,0.0538930743932724
11.303357601165771,1.9029901,0.45586637,-2.9120157,0.025355819084131037,nan,nan,nan,nan,1.3010101318359375,0.001399993896484375,0.31835976,0.44946453,-0.21083972,-0.24459084507513607,0.003978561426115856,9.915029073394829,0.2252941,0.09766064,0.017211033,1.4588059,0.9979462,-3.0,0.0,0.8596457,-0.08049687,0.0,-0.15928072,0.05789886,9.952448,-0.0004893504,0.012631783,0.0,0.03415969,0.7419471469611504,0.23184074461460114,0.05681335926055908,0.05299624800682068
11.403277397155762,1.9294717,0.47004157,-2.9308572,0.023578326932923943,nan,nan,nan,nan,1.4010024070739746,0.0014162063598632812,0.3066679,0.2084798,-0.21320264,-0.22056503086151613,0.01163402309530448,9.902126211710268,0.27071846,0.06562231,0.023997523,1.5418291,0.9820504,-3.0,0.0,0.8004006,-0.23702505,0.0,-0.15678532,0.06121027,9.950456,-0.039004896,0.037224196,0.0,0.03205571,0.7414577167985018,0.2237941026687622,0.03643587604165077,0.049705274403095245
11.501742839813232,1.9512898,0.46111107,-2.9485183,0.023112571030534837,nan,nan,nan,nan,1.4992544651031494,0.0007388591766357422,0.2884971,0.009388847,-0.21921267,-0.19723648277406358,0.01686006778552951,9.873533208854491,0.27335978,0.042518586,0.028216477,1.6174831,0.95134556,-3.0,0.0,0.7391089,-0.3872024,0.0,-0.15195955,0.064253755,9.944887,-0.07363121,0.060900573,0.0,0.029877612,0.7403719921031793,0.19223085045814514,0.027408698573708534,0.044994696974754333
11.61002492904663,1.9735597,0.4277263,-2.970214,0.023780102327875557,nan,nan,nan,nan,1.6077146530151367,0.0011682510375976562,0.26047716,-0.19726346,-0.22891662,-0.1704972115917902,0.020979657781580174,9.839971196241676,0.24400696,0.029394113,0.031199036,1.6938306,0.9006568,-3.0,0.0,0.66818887,-0.546048,0.0,-0.14397748,0.06735753,9.935094,-0.10568566,0.08608898,0.0,0.027329333,0.7390955781045269,0.16350334882736206,0.02492672950029373,0.0396433062851429
11.704696655273438,1.9905094,0.37996393,-2.9916422,0.025090918757244174,nan,nan,nan,nan,1.7023701667785645,0.0015883445739746094,0.23032783,-0.3609681,-0.23967217,-0.14903483607243737,0.024289010753034246,9.805526886172588,0.21052122,0.027359344,0.033431288,1.7540463,0.84272826,-3.0,0.0,0.6037489,-0.676497,0.0,-0.13483271,0.06983374,9.924042,-0.12662183,0.10692941,0.0,0.024968635,0.7377833435884571,0.15504130721092224,0.022531073540449142,0.03400939330458641
11.805521965026855,2.001426,0.33040503,-3.0109262,0.026370361730549526,nan,nan,nan,nan,1.8033747673034668,0.0010828971862792969,0.20223828,-0.4796142,-0.24932723,-0.13313158282682555,0.026936736104124614,9.76894052196294,0.19204186,0.026750766,0.030663095,1.8114557,0.767803,-3.0,0.0,0.5326378,-0.80510974,0.0,-0.12297127,0.07222214,9.91048,-0.14036928,0.12765029,0.0,0.022297813,0.7363869759094656,0.11620743572711945,0.0348137766122818,0.028910819441080093
11.902896404266357,2.0110896,0.2549269,-3.0376282,0.02803839733600688,nan,nan,nan,nan,1.9002089500427246,0.000820159912109375,0.16225202,-0.611372,-0.26119307,-0.11435863388614526,0.03044020162955996,9.72801377106458,0.17348813,0.02856939,0.028359557,1.8596497,0.68435556,-3.0,0.0,0.46244544,-0.91627496,0.0,-0.10971977,0.07425118,9.896615,-0.14445792,0.14572626,0.0,0.019584121,0.7348218494172698,0.12463073432445526,0.028740884736180305,0.024433277547359467
12.008363485336304,2.0155823,0.17658405,-3.0633018,0.029414776420695905,nan,nan,nan,nan,2.0061678886413574,0.0018155574798583984,0.12220001,-0.7127228,-0.2707965,-0.09844805142254087,0.03362059723994304,9.70692554283887,0.15976796,0.032743406,0.02432299,1.9044939,0.58149713,-3.0,0.0,0.3836877,-1.0223352,0.0,-0.09333289,0.076161444,9.881529,-0.13849713,0.16313809,0.0,0.016443083,0.7340141051497188,0.11586105823516846,0.03506521135568619,0.019646868109703064
12.104432344436646,2.0156412,0.099700615,-3.0875463,0.030459465853056283,nan,nan,nan,nan,2.1023573875427246,0.0016138553619384766,0.082242675,-0.7892541,-0.27958667,-0.0857807302425214,0.037415027165074166,9.672761854715647,0.14135896,0.040599693,0.021464553,1.9379009,0.47915554,-3.0,0.0,0.31070969,-1.1029881,0.0,-0.07697829,0.07759992,9.868836,-0.12403383,0.17650035,0.0,0.013444129,0.7327036660110368,0.12021081149578094,0.0341031439602375,0.01515328697860241
12.203392267227173,2.0110445,0.003887946,-3.11729,0.0315606203685421,nan,nan,nan,nan,2.200732946395874,0.0006794929504394531,0.031509727,-0.8625446,-0.28743815,-0.07032132425778129,0.041378311915726496,9.636765127964315,0.15374796,0.035087813,0.017661981,1.964747,0.3672679,-3.0,0.0,0.23490176,-1.1688173,0.0,-0.05905117,0.07876627,9.857693,-0.10129414,0.18749171,0.0,0.010247734,0.7313204095594332,0.14016327261924744,0.020884688943624496,0.010946400463581085
12.30332636833191,2.0032885,-0.07908547,-3.1430583,0.03225001733317398,nan,nan,nan,nan,2.3010361194610596,0.0017879009246826172,-0.013829396,-0.908343,-0.2918195,-0.05619740310261222,0.044101159271156654,9.604404598064717,0.16759977,0.022067158,0.013362201,1.9843922,0.2474286,-3.0,0.0,0.15668674,-1.2175634,0.0,-0.039808072,0.079625994,9.848985,-0.07135603,0.19568338,0.0,0.0068786684,0.7300746754246845,0.14031469821929932,0.02895931340754032,0.007225804030895233
12.40914797782898,1.9905673,-0.17077926,-3.1715524,0.032761273758357835,nan,nan,nan,nan,2.4067070484161377,0.00208282470703125,-0.06498665,-0.9416065,-0.29499993,-0.0398455257578039,0.046476238615952514,9.576325364597137,0.17159763,0.022184309,0.009116191,1.996565,0.11696697,-3.0,0.0,0.07361896,-1.2480114,0.0,-0.0188262,0.08016145,9.8433485,-0.034653697,0.20082387,0.0,0.0032449414,0.7289920502525331,0.14151957631111145,0.037910912185907364,0.004053305834531784
12.505889654159546,1.9711444,-0.26995724,-3.2030048,0.03297778286700339,nan,nan,nan,nan,2.503533363342285,0.0027747154235839844,-0.12291253,-0.9577367,-0.29649448,-0.02193371939847317,0.049247960636145116,9.557886865176256,0.17018184,0.028741319,0.0056042783,1.9999951,-0.004440142,-3.0,0.0,-0.0027898306,-1.2566247,0.0,0.000714739,0.08031274,9.841726,0.0013253839,0.2022815,0.0,-0.00012311025,0.7282802704618011,0.14716005325317383,0.02349219098687172,0.001115269958972931
12.607863664627075,1.9458817,-0.36736354,-3.2351422,0.032820993652233725,nan,nan,nan,nan,2.6051645278930664,0.0008244514465332031,-0.18373762,-0.95387834,-0.2966349,-0.003924813388788181,0.052223251049698494,9.540236689485607,0.17422643,0.019914793,5.6905483e-05,1.9956354,-0.13176951,-3.0,0.0,-0.0829743,-1.2456797,0.0,0.02120804,0.08012049,9.843785,0.038959667,0.20042957,0.0,-0.0036561675,0.7275982788205632,0.14805033802986145,0.009401332587003708,-0.002114430069923401
12.705689668655396,1.9170737,-0.4543895,-3.2651513,0.032404298354995795,nan,nan,nan,nan,2.7034199237823486,0.001361846923828125,-0.24148463,-0.933218,-0.2946303,0.012946841099719632,0.05370767413242583,9.52634282369166,0.17575401,0.0064963307,-0.0025862763,1.9836862,-0.25285023,-3.0,0.0,-0.16017705,-1.2158033,0.0,0.04067939,0.079595,9.849306,0.07280452,0.19538678,0.0,-0.0070302775,0.7270609847399582,0.14756882190704346,0.0067145684733986855,-0.004256516695022583
12.80711555480957,1.8822693,-0.53644925,-3.2955017,0.03166319765766788,nan,nan,nan,nan,2.8048548698425293,0.001445770263671875,-0.30065656,-0.8952123,-0.29160318,0.029750590956178186,0.05465828989087251,9.51543937150388,0.17142305,0.002436906,-0.006072125,1.9634222,-0.37379014,-3.0,0.0,-0.23923461,-1.1655476,0.0,0.060097348,0.078708485,9.858263,0.102777876,0.18694389,0.0,-0.010432425,0.7266390594410743,0.14360514283180237,0.007199053652584553,-0.005663188174366951
12.916823148727417,1.8339796,-0.6234121,-3.33119,0.03048112224426253,nan,nan,nan,nan,2.9145281314849854,0.0018687248229980469,-0.3704388,-0.82977986,-0.2864249,0.048599657781666014,0.055350756540895274,9.508723800443105,0.16239254,0.002930863,-0.008658508,1.9325454,-0.49767098,-3.0,0.0,-0.3236104,-1.0899642,0.0,0.079940446,0.07736839,9.870957,0.12716159,0.17433503,0.0,-0.0139801605,0.7263790701279653,0.1260511577129364,-0.004331807605922222,-0.0066765472292900085
13.019928932189941,1.7861781,-0.6890886,-3.3617048,0.02921419261474501,nan,nan,nan,nan,3.0178170204162598,0.0008757114410400391,-0.43115145,-0.7566059,-0.28065464,0.063913853134597,0.05592109693061054,9.506919493935996,0.15562463,0.0064567355,-0.011940714,1.8950752,-0.6057499,-3.0,0.0,-0.40167686,-0.9998497,0.0,0.09720158,0.07575833,9.884879,0.14078853,0.15943208,0.0,-0.017169474,0.7263092018359256,0.11825492233037949,-0.0061576347798109055,-0.008328035473823547
13.106810808181763,1.7423606,-0.7372818,-3.3865497,0.027971581305358588,nan,nan,nan,nan,3.1042535305023193,0.0009074211120605469,-0.4811839,-0.6850592,-0.27494353,0.07575062401351135,0.05577644053255626,9.505576513372354,0.13143718,-0.01891194,-0.01224294,1.8575786,-0.6884338,-3.0,0.0,-0.46572,-0.9114378,0.0,0.11036833,0.0741635,9.89726,0.14447027,0.14493616,0.0,-0.01971251,0.7262571931977932,0.11364980041980743,-0.0036752838641405106,-0.008623940870165825
13.204455137252808,1.6798558,-0.7892951,-3.4181507,0.026034379219397847,nan,nan,nan,nan,3.201694965362549,0.0006864070892333984,-0.5443966,-0.57954097,-0.2662532,0.08823555447280783,0.05367112587708123,9.505736715905362,0.109654404,-0.02275374,-0.01462252,1.8087461,-0.77186936,-3.0,0.0,-0.53626084,-0.7989462,0.0,0.123615935,0.07210876,9.91119,0.1399056,0.12665284,0.0,-0.022435736,0.7262633974385442,0.08886978775262833,-0.00884629413485527,-0.006758149713277817
13.301552534103394,1.6170368,-0.8256822,-3.4462597,0.02418318972517928,nan,nan,nan,nan,3.2989463806152344,0.000978231430053711,-0.60017365,-0.47101185,-0.25750116,0.09883354949266607,0.05254854875729187,9.50689627300947,0.09923977,-0.014467276,-0.01509118,1.7532508,-0.8436178,-3.0,0.0,-0.60466045,-0.67474395,0.0,0.1349733,0.06980083,9.924209,0.12638174,0.106648244,0.0,-0.025002398,0.7263083026070888,0.07122501730918884,-0.009372405707836151,-0.006337648257613182
13.402955055236816,1.5441209,-0.8515694,-3.4754033,0.022051634420352052,nan,nan,nan,nan,3.4006507396698,0.0014882087707519531,-0.6577974,-0.34392068,-0.24694322,0.10778953324773827,0.051126278748754306,9.507973258532576,0.07184414,-0.016216092,-0.015259537,1.6882174,-0.9051751,-3.0,0.0,-0.67377377,-0.53411967,0.0,0.14468974,0.06712806,9.935969,0.103496656,0.08419095,0.0,-0.027531656,0.7263500076442772,0.046430252492427826,-0.011160740628838539,-0.005062442272901535
13.502076387405396,1.4789385,-0.8623253,-3.498664,0.0202785672754002,nan,nan,nan,nan,3.4993629455566406,0.0011217594146728516,-0.7039887,-0.23099485,-0.237385,0.11340118047223086,0.04999022740574621,9.508818727470928,0.053086784,-0.011756563,-0.015434764,1.6185043,-0.95080894,-3.0,0.0,-0.7382259,-0.3892785,0.0,0.15187517,0.06429504,9.944785,0.074085414,0.061228693,0.0,-0.029846119,0.726382745810606,0.05173752084374428,0.0057573746889829636,-0.00395321287214756
13.603947639465332,1.4105059,-0.8628588,-3.5208247,0.01871387919601776,nan,nan,nan,nan,3.6016199588775635,0.0018949508666992188,-0.7485186,-0.11449629,-0.22710963,0.11866553901822895,0.050265164169249754,9.508631025739009,0.05967255,0.0070347516,-0.014253718,1.5397279,-0.98266673,-3.0,0.0,-0.8019959,-0.2329566,0.0,0.1568821,0.06112612,9.950557,0.038027067,0.036584135,0.0,-0.03211228,0.7263754777680225,0.05657920241355896,0.02018018439412117,-0.004203622229397297
13.709825992584229,1.318956,-0.8489682,-3.5477092,0.016858721809329423,nan,nan,nan,nan,3.6981775760650635,0.001512289047241211,-0.80456924,0.037452176,-0.2132988,0.1233528237909928,0.050530998129027616,9.506912985276424,0.017804071,-0.007928737,-0.014498629,1.4595038,-0.99788034,-3.0,0.0,-0.85917795,-0.08177644,0.0,0.15927039,0.057926595,9.952448,0.00080924516,0.012832617,0.0,-0.03414303,0.7263089497886268,-0.006547523662447929,-0.010970082134008408,-0.006360194645822048
13.80629014968872,1.2504544,-0.8288807,-3.565701,0.01548664548314397,nan,nan,nan,nan,3.8040778636932373,0.0012960433959960938,-0.8433458,0.146564,-0.20315324,0.12398374363653922,0.05002342042151775,9.503257597777987,-0.0026694722,-0.0105601065,-0.01340629,1.3653541,-0.99769187,-3.0,0.0,-0.91825014,0.085330896,0.0,0.1592408,0.054197676,9.950318,-0.040973235,-0.0133905215,0.0,-0.036262248,0.7261673815791344,0.03126542270183563,0.022279925644397736,-0.005664519965648651
13.903066396713257,1.1503972,-0.7867789,-3.5890758,0.013725961218132278,nan,nan,nan,nan,3.900397777557373,0.0007791519165039062,-0.8956128,0.29744267,-0.18847124,0.12350273826033772,0.04996475461681271,9.497458409201348,-0.01731383,-0.007005643,-0.011529822,1.2744628,-0.98219347,-3.0,0.0,-0.9684557,0.23608723,0.0,0.1568078,0.050615717,9.944592,-0.077489994,-0.03707665,0.0,-0.03810068,0.7259427309832305,-0.031416792422533035,-0.012031953781843185,-0.008831924758851528
14.002211570739746,1.060861,-0.73740655,-3.6074872,0.012135927875575728,nan,nan,nan,nan,3.9996016025543213,0.0027184486389160156,-0.938827,0.424126,-0.1754081,0.12079209843504725,0.04921867009682379,9.49054353816434,-0.038960982,-0.008121068,-0.012398351,1.1759754,-0.9512111,-3.0,0.0,-1.0164559,0.38772395,0.0,0.15193841,0.046745542,9.935186,-0.11131973,-0.060983002,0.0,-0.039909877,0.7256747710997129,-0.05146150290966034,-0.01620471104979515,-0.009866339154541492
14.107716083526611,0.9750548,-0.68144816,-3.6227882,0.010653396375088053,nan,nan,nan,nan,4.1054229736328125,0.0013401508331298828,-0.97722185,0.5366108,-0.16369082,0.11693907924815455,0.04844601290459427,9.484077729787671,-0.053730745,-0.009478233,-0.012297871,1.0658935,-0.9019045,-3.0,0.0,-1.0633019,0.5427861,0.0,0.14417419,0.04242428,9.921775,-0.14084136,-0.085569836,0.0,-0.041743964,0.7254241246255437,-0.04641922935843468,-0.003153625875711441,-0.010373255237936974
14.207671642303467,0.87746006,-0.6099049,-3.6378603,0.00890398535275281,nan,nan,nan,nan,4.205394506454468,0.0015621185302734375,-1.0177163,0.65318143,-0.15100202,0.11074507535873077,0.04709698747974134,9.473102069254956,-0.07316559,-0.012269458,-0.013450068,0.95756096,-0.84067595,-3.0,0.0,-1.1032453,0.6805173,0.0,0.1345083,0.038168542,9.906633,-0.16062625,-0.107574336,0.0,-0.043377742,0.7249984584495878,-0.07238435745239258,-0.012178003787994385,-0.011572154238820076
14.30197024345398,0.7673582,-0.52118325,-3.6523595,0.006841784897931344,nan,nan,nan,nan,4.299241304397583,0.0011458396911621094,-1.0593201,0.7702516,-0.137151,0.1013370287878702,0.04478517965446294,9.461701338496052,-0.11357184,-0.034497377,-0.015717773,0.8524211,-0.7711206,-3.0,0.0,-1.1367841,0.80008715,0.0,0.12349723,0.034029607,9.891014,-0.17081483,-0.12683745,0.0,-0.044811316,0.7245560457032009,-0.12342413514852524,-0.04155275598168373,-0.013027440756559372
14.402433633804321,0.6800808,-0.44574925,-3.6624825,0.00511284110284773,nan,nan,nan,nan,4.399945497512817,0.0006799697875976562,-1.0881819,0.85109,-0.12686652,0.09126063831984035,0.0416649652497596,9.45295128365978,-0.13422464,-0.03964091,-0.015970128,0.73631305,-0.68459725,-3.0,0.0,-1.1683757,0.9159898,0.0,0.1097582,0.029444655,9.873669,-0.17195463,-0.14567968,0.0,-0.04622311,0.7242163133372959,-0.10952182114124298,-0.020529434084892273,-0.011456447653472424
14.50495171546936,0.57266194,-0.34837884,-3.6736145,0.003044341075325363,nan,nan,nan,nan,4.502671718597412,0.0014605522155761719,-1.1190599,0.93539774,-0.115199305,0.07771260126573545,0.0381538106392485,9.441589206065977,-0.14879587,-0.035928253,-0.016609177,0.6148401,-0.5850658,-3.0,0.0,-1.195783,1.0191149,0.0,0.09390231,0.024629045,9.8564,-0.1624769,-0.1626068,0.0,-0.047503863,0.7237749310252357,-0.1193947046995163,-0.022485192865133286,-0.010713053867220879
14.607972145080566,0.4623327,-0.24505717,-3.6838663,0.001026084355177287,nan,nan,nan,nan,4.60527491569519,0.001033782958984375,-1.1460458,1.0049088,-0.103871986,0.06341060987540587,0.03492508149567075,9.43398801257833,-0.14993037,-0.034349997,-0.017128836,0.49095637,-0.47593412,-3.0,0.0,-1.2181867,1.1051884,0.0,0.076462775,0.0196973,9.840656,-0.14276254,-0.17686644,0.0,-0.048594497,0.7234794993903731,-0.13386893272399902,-0.02934359759092331,-0.01099222619086504
14.705536842346191,0.3302461,-0.11965293,-3.6949348,-0.0011741697448991867,nan,nan,nan,nan,4.702820539474487,0.0008318424224853516,-1.17344,1.0657303,-0.09076544,0.04517652584323852,0.030194877601009695,9.429644294138987,-0.16803892,-0.041150898,-0.015657328,0.37128,-0.36482635,-3.0,0.0,-1.234794,1.1700242,0.0,0.058659505,0.014914631,9.827995,-0.11557704,-0.18769397,0.0,-0.04943098,0.7233106209031065,-0.16399621963500977,-0.06118369102478027,-0.010860832408070564
14.805871725082397,0.2240802,-0.019381955,-3.702845,-0.0027074881552800866,nan,nan,nan,nan,4.80356240272522,0.0012733936309814453,-1.1914204,1.0970665,-0.08129121,0.030264720924858435,0.026499347903994108,9.426159773077806,-0.17800562,-0.056563385,-0.013987562,0.24622452,-0.24435143,-3.0,0.0,-1.2470776,1.2185444,0.0,0.03931351,0.009900843,9.818068,-0.080500126,-0.19584872,0.0,-0.050066233,0.7231751188457165,-0.16671690344810486,-0.06284685432910919,-0.010434553027153015
14.901830911636353,0.10609162,0.08966798,-3.7109509,-0.004184946922685086,nan,nan,nan,nan,4.899151563644409,0.0009555816650390625,-1.2070146,1.1133449,-0.07110224,0.012135956168114078,0.01998628297165239,9.42615601828321,-0.19445921,-0.07866352,-0.015142459,0.12664452,-0.12639037,-3.0,0.0,-1.2541152,1.2465596,0.0,0.020342521,0.0050954614,9.812158,-0.04256351,-0.20057836,0.0,-0.050436858,0.7231749728200647,-0.16165205836296082,-0.06742829084396362,-0.00812684465199709
15.005184650421143,-0.022836044,0.20475066,-3.71897,-0.005480332641172041,nan,nan,nan,nan,5.002861261367798,0.0014522075653076172,-1.2160686,1.1085827,-0.06023382,-0.008089968530946668,0.011760881663538836,9.4301698536612,-0.18871632,-0.07985961,-0.0149199115,-0.0035955252,0.0035955193,-3.0,0.0,-1.2566351,1.256629,0.0,-0.0005787784,-0.00014469483,9.810002,0.0012203045,-0.20228222,0.0,-0.050570786,0.7233310560859012,-0.14354318380355835,-0.06351432204246521,-0.004141667392104864
15.105347633361816,-0.12166944,0.28960595,-3.724733,-0.0062605969825150955,nan,nan,nan,nan,5.1031174659729,0.001903533935546875,-1.2167441,1.0892595,-0.05214199,-0.022673537014370533,0.0057869776342514,9.436333975214502,-0.17126709,-0.06943537,-0.013481423,-0.12949099,0.1292193,-3.0,0.0,-1.2540004,1.2461015,0.0,-0.020797707,-0.0052099363,9.812256,0.043500707,-0.20050089,0.0,-0.050430775,0.723570691394105,-0.13357459008693695,-0.042265091091394424,-0.0019556554034352303
15.204832792282104,-0.258686,0.40110752,-3.731877,-0.007005169179510468,nan,nan,nan,nan,5.202672481536865,0.0020830631256103516,-1.2100452,1.0421264,-0.04107077,-0.040862699351839865,-0.0009655914166843971,9.444288921151301,-0.14864214,-0.058969744,-0.009810639,-0.25399828,0.2519416,-3.0,0.0,-1.2464619,1.216101,0.0,-0.040533364,-0.010212911,9.818577,0.08284002,-0.19543695,0.0,-0.050034042,0.7238798308264037,-0.11105239391326904,-0.05034417659044266,0.00034526409581303596
15.306189060211182,-0.3644779,0.48178893,-3.7361958,-0.007365739715473225,nan,nan,nan,nan,5.3039140701293945,0.0014414787292480469,-1.1993575,0.9904855,-0.032127533,-0.053628348786083795,-0.005650863221207336,9.460116922948501,-0.13438445,-0.051878415,-0.0082720425,-0.37959328,0.37269357,-3.0,0.0,-1.2337958,1.166102,0.0,-0.059921462,-0.015247389,9.828781,0.117689066,-0.18703675,0.0,-0.04937999,0.7244945403404344,-0.10958941280841827,-0.04032117873430252,0.0006938907317817211
15.410459041595459,-0.47764057,0.5620104,-3.7394888,-0.00755612764777815,nan,nan,nan,nan,5.408142566680908,0.0017518997192382812,-1.182353,0.9217194,-0.022170976,-0.0657113436243051,-0.010729695858276767,9.478989082071921,-0.11879152,-0.04519787,-0.0066654426,-0.5072841,0.49069497,-3.0,0.0,-1.2155428,1.0949473,0.0,-0.07882456,-0.020348456,9.842593,0.14588812,-0.17516316,0.0,-0.048463587,0.7252268035725882,-0.10936195403337479,-0.030375570058822632,0.0008074203506112099
15.51571273803711,-0.58768594,0.6338332,-3.7414129,-0.007636973372595016,nan,nan,nan,nan,5.51314115524292,0.0009443759918212891,-1.160384,0.8419259,-0.012923233,-0.07752910988266679,-0.014364381127776937,9.5000359054841,-0.11881952,-0.032720648,-0.0041538943,-0.63371825,0.60106444,-3.0,0.0,-1.1918858,1.0043051,0.0,-0.0964544,-0.025378758,9.858986,0.16462454,-0.16016576,0.0,-0.0473183,0.7260425872232313,-0.11222496628761292,-0.027428004890680313,-0.0005152947269380093
15.622496366500854,-0.7210164,0.710706,-3.7419555,-0.007624459204345173,nan,nan,nan,nan,5.620471239089966,0.0021359920501708984,-1.1279429,0.72790074,-0.002215952,-0.09084567414011052,-0.018708217993185672,9.520474732760329,-0.10131905,-0.033744164,-0.0019825818,-0.76010597,0.7030712,-3.0,0.0,-1.1623449,0.8936191,0.0,-0.11269536,-0.030385578,9.877186,0.1725611,-0.14202861,0.0,-0.045948554,0.7268339402580463,-0.08831976354122162,-0.03550580516457558,-0.0004927273839712143
15.7078378200531,-0.8070781,0.7532978,-3.7414672,-0.0075238251922556745,nan,nan,nan,nan,5.705850124359131,0.0021567344665527344,-1.1036758,0.6440268,0.004527229,-0.09886633671895284,-0.021583770374448363,9.534232262019056,-0.095852114,-0.032019462,-0.0032238618,-0.8582046,0.7751784,-3.0,0.0,-1.1350648,0.793871,0.0,-0.12414046,-0.034257572,9.891883,0.17048383,-0.12583184,0.0,-0.044736285,0.7273661277437264,-0.0938376933336258,-0.035733845084905624,-0.0014179795980453491
15.802367925643921,-0.89902306,0.79212123,-3.7400076,-0.0073762898204312866,nan,nan,nan,nan,5.799737453460693,0.0015194416046142578,-1.0746572,0.5454699,0.011755857,-0.10752539427832454,-0.024733788813628976,9.554201093260188,-0.095465615,-0.031769466,-0.0015315398,-0.9632183,0.84415114,-3.0,0.0,-1.1012993,0.6736898,0.0,-0.13505761,-0.038390964,9.907455,0.15982622,-0.10647919,0.0,-0.043296408,0.7281379066155307,-0.09353852272033691,-0.03617026284337044,-0.0027515683323144913
15.90184235572815,-1.0116048,0.8276831,-3.7370074,-0.0071711968755027305,nan,nan,nan,nan,5.89918851852417,0.0012578964233398438,-1.034121,0.41021928,0.020294162,-0.11825579240849986,-0.02869390583393261,9.578072862867256,-0.08453671,-0.03631355,-0.0009892052,-1.0707928,0.9043926,-3.0,0.0,-1.0613569,0.53620875,0.0,-0.14456642,-0.04261662,9.922421,0.13972573,-0.084523275,0.0,-0.041666187,0.7290594732134401,-0.048666711896657944,-0.04208142310380936,-0.0019104364328086376
16.01219367980957,-1.1116377,0.84571224,-3.7334292,-0.007007451007306056,nan,nan,nan,nan,6.009439468383789,0.0008454322814941406,-0.9926571,0.27523595,0.027023787,-0.12562348559373987,-0.03271916447718093,9.592948328945777,-0.061251245,-0.037640963,-0.0029899308,-1.1851463,0.9546551,-3.0,0.0,-1.0122421,0.37411857,0.0,-0.15248007,-0.047105636,9.93618,0.1084519,-0.0588333,0.0,-0.03974852,0.729633157973541,-0.0395895279943943,-0.042294397950172424,-0.0022459393367171288
16.102904081344604,-1.1708732,0.8499731,-3.730871,-0.006933219992869194,nan,nan,nan,nan,6.100323438644409,0.0011861324310302734,-0.96522176,0.18983915,0.030799806,-0.1300209360907817,-0.03522531331186629,9.608661864493035,-0.058369722,-0.038084187,-0.0021693965,-1.2751615,0.98236346,-3.0,0.0,-0.9680925,0.23496789,0.0,-0.1568345,-0.05064321,9.944648,0.07722724,-0.03690055,0.0,-0.03808721,0.730238680697972,-0.07638747990131378,-0.0432584285736084,-0.00426669605076313
16.211969137191772,-1.2762234,0.8429328,-3.725338,-0.006758674607826878,nan,nan,nan,nan,6.209361791610718,0.0007724761962890625,-0.9093685,0.025193632,0.037065305,-0.1352240709080732,-0.04024313707446714,9.625372768882658,-0.030831546,-0.03979632,-0.0026375465,-1.3776467,0.9986964,-3.0,0.0,-0.910973,0.06414482,0.0,-0.15939844,-0.05468329,9.950833,0.035710074,-0.010065394,0.0,-0.035999145,0.7308820941263071,-0.021747564896941185,-0.041063692420721054,-0.0025145765393972397
16.30502438545227,-1.3486779,0.82544017,-3.721042,-0.006668135246670898,nan,nan,nan,nan,6.302731990814209,0.0016906261444091797,-0.8646851,-0.09754792,0.04038824,-0.13759632507830452,-0.043826781599181075,9.637593370620158,-0.013862279,-0.037469123,-0.0023160458,-1.4602852,0.9978053,-3.0,0.0,-0.85865355,-0.08321009,0.0,-0.15925862,-0.057957646,9.952447,-0.0011676113,0.013057641,0.0,-0.03412435,0.7313522656846304,-0.0063208481296896935,-0.041417594999074936,-0.00213002972304821
16.413822889328003,-1.4291846,0.7919005,-3.7155778,-0.006663914741989005,nan,nan,nan,nan,6.411579608917236,0.0012373924255371094,-0.80852544,-0.24163175,0.043632526,-0.13697789069119903,-0.047810795337923206,9.645466574374582,0.021424439,-0.036507156,-0.0026839257,-1.5502611,0.97945666,-3.0,0.0,-0.79394466,-0.2534069,0.0,-0.15637796,-0.06154812,9.950023,-0.042924844,0.039802045,0.0,-0.03182673,0.7316550189572232,0.010270968079566956,-0.04182485118508339,-0.0015475917607545853
16.51662588119507,-1.5034078,0.7444478,-3.7097838,-0.006685422821291032,nan,nan,nan,nan,6.514331102371216,0.0013005733489990234,-0.74878407,-0.3810644,0.04560173,-0.1336284081284852,-0.05170880958701152,9.648798202741888,0.04368089,-0.035631597,-0.0033698177,-1.6285535,0.9453376,-3.0,0.0,-0.7294488,-0.4097809,0.0,-0.15101448,-0.0647016,9.94374,-0.07852734,0.064470395,0.0,-0.029532814,0.7317830949579257,0.03693675994873047,-0.040015146136283875,-0.000368666835129261
16.60478949546814,-1.5561649,0.6989275,-3.7056444,-0.006686393458177696,nan,nan,nan,nan,6.6024909019470215,0.0014472007751464844,-0.7004804,-0.4841972,0.046254314,-0.1302447131270264,-0.05479243238087328,9.64882672430947,0.047541067,-0.037177216,-0.002593283,-1.6903312,0.9034897,-3.0,0.0,-0.6716783,-0.5386069,0.0,-0.14442408,-0.06721445,9.935642,-0.10432489,0.08490481,0.0,-0.027455783,0.7317841913017706,0.0446600541472435,-0.04158222675323486,0.00018132664263248444
16.711776733398438,-1.6240549,0.62284434,-3.7003,-0.006737013947666674,nan,nan,nan,nan,6.7095935344696045,0.0015552043914794922,-0.6301169,-0.6212879,0.046369668,-0.1228554270269315,-0.05877497723120273,9.646566400621083,0.08574617,-0.032503687,-0.0020560555,-1.7583895,0.8378068,-3.0,0.0,-0.5987406,-0.6860821,0.0,-0.13405474,-0.07001343,9.923122,-0.12791209,0.108467296,0.0,-0.024782931,0.7316973014325385,0.08333572745323181,-0.037057116627693176,0.0017460966482758522
16.807680130004883,-1.6721469,0.55353814,-3.6963115,-0.006740339940130888,nan,nan,nan,nan,6.805439233779907,0.0013802051544189453,-0.5726351,-0.7209804,0.0454715,-0.11599128814809644,-0.06208358061418817,9.641015355456618,0.07812758,-0.040092174,-0.0014125789,-1.8125536,0.76613873,-3.0,0.0,-0.5311613,-0.8076096,0.0,-0.1227074,-0.07226812,9.91019,-0.14055105,0.12805499,0.0,-0.022241546,0.7314838686150752,0.09932459145784378,-0.03904630243778229,0.0033288681879639626
16.90483570098877,-1.7219915,0.46206596,-3.6918678,-0.006781844849085561,nan,nan,nan,nan,6.902496814727783,0.001575469970703125,-0.5014816,-0.82814276,0.04380458,-0.10503361016395163,-0.06556847934858556,9.633071914929893,0.12962803,-0.030276032,-0.0022933127,-1.860706,0.68225604,-3.0,0.0,-0.46076503,-0.9187441,0.0,-0.10938584,-0.07429592,9.896284,-0.14444406,0.1461297,0.0,-0.01951817,0.7311783433926045,0.13758866488933563,-0.029914624989032745,0.00519633200019598
17.00340962409973,-1.754993,0.38530746,-3.688597,-0.006782981122199612,nan,nan,nan,nan,7.00114893913269,0.0015575885772705078,-0.4451085,-0.90009,0.042609476,-0.09337299638566599,-0.06769753052173777,9.624305995348838,0.1570052,-0.02591557,-0.0006321146,-1.9025589,0.5866159,-3.0,0.0,-0.3874589,-1.0177068,0.0,-0.09414965,-0.07607854,9.882225,-0.1390213,0.16237457,0.0,-0.016595794,0.7308410372587723,0.12296859174966812,-0.04284472018480301,0.005124135874211788
17.107264280319214,-1.7928098,0.2705748,-3.6841588,-0.006685617359604289,nan,nan,nan,nan,7.104563236236572,0.0007832050323486328,-0.36398563,-0.98203295,0.040215336,-0.07503984635457908,-0.07061078608975024,9.616581360269334,0.1698054,-0.024609976,0.0025516327,-1.9385844,0.4767208,-3.0,0.0,-0.30902192,-1.1046529,0.0,-0.07658867,-0.07762951,9.868564,-0.123607524,0.17677733,0.0,-0.013373822,0.7305436716399681,0.13899464905261993,-0.030398305505514145,0.005444986745715141
17.202674865722656,-1.8175528,0.16772008,-3.680114,-0.006430493941034253,nan,nan,nan,nan,7.199994325637817,0.0007710456848144531,-0.2925551,-1.0335612,0.038530037,-0.0590567454678615,-0.07325424773017697,9.608807446826246,0.16525477,-0.027931912,0.0023236373,-1.9645733,0.3681309,-3.0,0.0,-0.2354745,-1.1683885,0.0,-0.0591896,-0.07875869,9.857768,-0.10149144,0.18741986,0.0,-0.01027216,0.730244288412532,0.14657266438007355,-0.021323882043361664,0.005590749904513359
17.30709981918335,-1.8346028,0.06265028,-3.6756153,-0.006108834437262102,nan,nan,nan,nan,7.304786443710327,0.0023021697998046875,-0.21865371,-1.0680401,0.036983263,-0.04294583581111772,-0.07551685751217785,9.602361945752051,0.1706396,-0.018676573,0.0024450903,-1.9849744,0.24285872,-3.0,0.0,-0.15374771,-1.2190155,0.0,-0.039073594,-0.07965154,9.84872,-0.0701293,0.1959281,0.0,-0.0067509264,0.7299959721788026,0.14388051629066467,-0.018834391608834267,0.005277194082736969
17.408628463745117,-1.843635,-0.024930153,-3.671654,-0.005755839720588608,nan,nan,nan,nan,7.406341791152954,0.0012209415435791016,-0.15633038,-1.0831183,0.03604961,-0.02941618768972793,-0.07683119213100453,9.599407439623024,0.1671325,-0.011583449,0.004112091,-1.9965379,0.117423296,-3.0,0.0,-0.073907174,-1.2479436,0.0,-0.018899629,-0.08016025,9.843361,-0.03478683,0.2008124,0.0,-0.0032576157,0.7298821204593845,0.1374814659357071,-0.034317076206207275,0.005024406127631664
17.507943391799927,-1.8485723,-0.13772929,-3.6664453,-0.005172793403467009,nan,nan,nan,nan,7.50540828704834,0.0012006759643554688,-0.07544195,-1.0857329,0.035043523,-0.012283335087810546,-0.0784671151534777,9.599591856775804,0.1630163,-0.01733124,0.004435986,-1.9999884,-0.0067968084,-3.0,0.0,0.0042705853,-1.256608,0.0,0.0010940965,-0.08031244,9.841729,0.0020288203,0.20227866,0.0,0.00018845289,0.729889227476124,0.14317186176776886,-0.019830038771033287,0.004910587798804045
17.605692625045776,-1.8470844,-0.2390798,-3.6619024,-0.004589439754526387,nan,nan,nan,nan,7.603366136550903,0.0012786388397216797,-0.0008712729,-1.0709541,0.03444018,0.0032062767044877846,-0.0797706683365087,9.602539613628757,0.16127758,-0.006777048,0.00437999,-1.9957834,-0.12952837,-3.0,0.0,0.08155703,-1.2460508,0.0,0.020847438,-0.08012701,9.843716,0.03830949,0.20049234,0.0,0.0035938944,0.7300028180416096,0.1481979787349701,-0.014522113837301731,0.005433105397969484
17.705317974090576,-1.8392476,-0.33618963,-3.657683,-0.003971701871775147,nan,nan,nan,nan,7.70305061340332,0.0011973381042480469,0.0729932,-1.0405487,0.033742063,0.018873779865708772,-0.08046079359077507,9.608740018652751,0.162743,-0.0076770475,0.0050991927,-1.9837452,-0.2524015,-3.0,0.0,0.15988801,-1.2159504,0.0,0.040607277,-0.079597585,9.849279,0.07268491,0.19541156,0.0,0.007017725,0.730241691138721,0.14882779121398926,-0.014779225923120975,0.005272245965898037
17.80379033088684,-1.822927,-0.43510342,-3.653875,-0.0032108359112497965,nan,nan,nan,nan,7.801310300827026,0.0011508464813232422,0.15291643,-0.98945063,0.03289145,0.036006746733067474,-0.08114320890395788,9.618075431110338,0.16268913,-0.0018184426,0.00656609,-1.9642652,-0.36965555,-3.0,0.0,0.23648685,-1.167628,0.0,0.059434164,-0.078745246,9.857901,0.1018393,0.18729244,0.0,0.010315327,0.7306011963305792,0.13760754466056824,-0.0005133319646120071,0.005081560928374529
17.902450561523438,-1.8011951,-0.5186586,-3.6512265,-0.0023792395639019165,nan,nan,nan,nan,7.899712562561035,0.0006515979766845703,0.22556286,-0.92600924,0.031966995,0.05124257693769598,-0.08093923667739511,9.628781799869614,0.1514473,0.00507015,0.00519079,-1.9372561,-0.48143712,-3.0,0.0,0.3122931,-1.1014181,0.0,0.07734337,-0.07757203,9.869094,0.12443019,0.17623915,0.0,0.013510051,0.7310132821065054,0.12750579416751862,-0.001529012806713581,0.004313739016652107
18.003530979156494,-1.7701424,-0.5990045,-3.6484435,-0.001336009977886285,nan,nan,nan,nan,8.000792026519775,0.0007464885711669922,0.30222377,-0.84063226,0.030856093,0.06627159480576696,-0.08011993494538938,9.64179654938169,0.134351,0.007210305,0.006438877,-1.9018053,-0.5885899,-3.0,0.0,0.38891673,-1.0159053,0.0,0.094464585,-0.07604624,9.882496,0.13921776,0.1620775,0.0,0.016654767,0.7315139085506565,0.10748056322336197,0.0018862560391426086,0.0028293863870203495
18.10612726211548,-1.7379371,-0.6578714,-3.6459615,-0.000363154621821557,nan,nan,nan,nan,8.097313642501831,0.0007033348083496094,0.36543214,-0.75649387,0.029709918,0.0776462038166206,-0.07957363464816147,9.652539313258604,0.11791408,0.007896557,0.005416421,-1.8607926,-0.68208313,-3.0,0.0,0.4606268,-0.9189468,0.0,0.10935834,-0.07429959,9.896257,0.14444265,0.14616281,0.0,0.019512743,0.7319268861087063,0.10401076823472977,-0.008753441274166107,0.0018861470744013786
18.20574641227722,-1.6933782,-0.7158172,-3.6433125,0.0008369286631439155,nan,nan,nan,nan,8.203491449356079,0.0009837150573730469,0.4380684,-0.64505804,0.027577745,0.08884513405779013,-0.07870320623279103,9.663972915830088,0.103131734,-0.0036340733,0.0048975386,-1.8077817,-0.7733024,-3.0,0.0,0.537543,-0.79675496,0.0,0.1238431,-0.072068416,9.911441,0.13973548,0.12629832,0.0,0.0224845,0.7323661687849591,0.09163810312747955,-0.012294158339500427,0.0008338559418916702
18.302916049957275,-1.649822,-0.75431055,-3.6413953,0.0017546887562719937,nan,nan,nan,nan,8.300636291503906,0.0013966560363769531,0.49910355,-0.5422849,0.026286956,0.09802181097349395,-0.07962242496251704,9.677084825458005,0.098219,-0.012389413,0.0037468013,-1.752228,-0.8447561,-3.0,0.0,0.6058297,-0.6724912,0.0,0.13515323,-0.06975854,9.924422,0.12607138,0.10628697,0.0,0.025045687,0.732869612801371,0.08952057361602783,-0.012647805735468864,0.0023812185972929
18.407469987869263,-1.5914832,-0.7870988,-3.6393375,0.002881473319379123,nan,nan,nan,nan,8.40592908859253,0.0018494129180908203,0.57125443,-0.4118335,0.024428565,0.10740694889286087,-0.08017788651995472,9.685973935024812,0.07650578,0.0012811874,0.0030700362,-1.6846514,-0.9079746,-3.0,0.0,0.6772883,-0.5265626,0.0,0.14513099,-0.06698239,9.936511,0.1020891,0.08298907,0.0,0.027658813,0.7332107244976874,0.06866749376058578,0.0007655471563339233,0.003994522616267204
18.512009143829346,-1.5263166,-0.8051296,-3.637585,0.004132699148024548,nan,nan,nan,nan,8.509305477142334,0.000843048095703125,0.64177966,-0.27369884,0.022715922,0.11469462264265884,-0.07973554465713417,9.69051100333221,0.0626675,0.006219312,0.0026591842,-1.6111325,-0.9546052,-3.0,0.0,0.74456465,-0.37431952,0.0,0.15247221,-0.06399715,9.945505,0.07079537,0.058865044,0.0,0.0300721,0.7333847701364741,0.04356139153242111,0.013860054314136505,0.0047423457726836205
18.60180401802063,-1.4604295,-0.8085574,-3.6360466,0.005334713941003925,nan,nan,nan,nan,8.599126815795898,0.0009169578552246094,0.70537144,-0.140778,0.020478757,0.12054490553585667,-0.07938293798980545,9.695146442065012,0.039913032,0.020072663,0.0029256016,-1.5417255,-0.98208106,-3.0,0.0,0.80047935,-0.2368244,0.0,0.15679014,-0.061206125,9.95046,0.03895671,0.03719262,0.0,0.0320585,0.7335625472716238,0.0021631456911563873,0.03775309771299362,0.005983307957649231
18.705822467803955,-1.3956076,-0.8009075,-3.6349201,0.006845253167499177,nan,nan,nan,nan,8.703086853027344,0.0007874965667724609,0.76072645,-0.017246347,0.018923083,0.12195831379590977,-0.076391196639642,9.696591689791525,-0.0042346744,0.040215064,0.00456196,-1.455279,-0.9982628,-3.0,0.0,0.8620025,-0.07403915,0.0,0.15933041,-0.057758726,9.952447,-0.0011257229,0.011618234,0.0,0.03424367,0.733617966343514,0.01832796074450016,0.011179972440004349,0.0038774609565734863
18.80203413963318,-1.3202921,-0.7804465,-3.6342351,0.008494725808974944,nan,nan,nan,nan,8.799540042877197,0.0009417533874511719,0.8162394,0.11612262,0.016454305,0.12128966950703352,-0.07336192993875312,9.694102637674655,-0.011678491,0.023945924,0.0049211322,-1.3695157,-0.99806285,-3.0,0.0,0.9158003,0.07817974,0.0,0.15929905,-0.05436205,9.9505,-0.03919907,-0.0122681,0.0,0.036173593,0.7335225192665158,0.005378656089305878,0.007965240627527237,0.0021814797073602676
18.9038827419281,-1.2412925,-0.74762404,-3.6339767,0.010087102373467875,nan,nan,nan,nan,8.901435136795044,0.0008785724639892578,0.8671087,0.24667409,0.013619527,0.11984233030090946,-0.07135748692766408,9.688693017195908,-0.016387763,0.011248131,0.0060351975,-1.2734581,-0.9819478,-3.0,0.0,0.96897733,0.23769574,0.0,0.1567692,-0.050576195,9.944511,-0.07786732,-0.037329715,0.0,0.03812003,0.7333150355994221,-0.0002750493586063385,0.0009513050317764282,0.0020339209586381912
19.01274013519287,-1.1520212,-0.6988704,-3.6338522,0.0117647594400027,nan,nan,nan,nan,9.010014772415161,0.0016241073608398438,0.9182604,0.38441133,0.010670346,0.11730248079140003,-0.06989358634147735,9.678600343968714,-0.035705563,0.012170136,0.0042514396,-1.1653662,-0.9470925,-3.0,0.0,1.0212682,0.40333125,0.0,0.15129055,-0.046329003,9.93401,-0.114561364,-0.06345034,0.0,0.040094823,0.7329277805550964,-0.016026590019464493,-0.0011122599244117737,0.002279754728078842
19.10218119621277,-1.0658005,-0.6418687,-3.6336956,0.013201318250294816,nan,nan,nan,nan,9.099578380584717,0.001088857650756836,0.96361935,0.5071445,0.0080229025,0.11414015263208908,-0.06928664259069639,9.666334461253134,-0.03997466,0.003963808,0.004962576,-1.0720997,-0.90505195,-3.0,0.0,1.0608358,0.5344491,0.0,0.14467034,-0.04266792,9.922593,-0.13942493,-0.08424336,0.0,0.041645378,0.7324568677322287,-0.05825638025999069,0.020535215735435486,0.004162481054663658
19.205440282821655,-0.9835593,-0.5802768,-3.6336918,0.014535611563770923,nan,nan,nan,nan,9.203706502914429,0.0008320808410644531,1.0035087,0.6144315,0.0059404606,0.1091689517622628,-0.0679604472330888,9.650445016752927,-0.06895238,0.015955979,0.0047622696,-0.95942235,-0.84182256,-3.0,0.0,1.1026067,0.6782754,0.0,0.13468955,-0.038241725,9.906904,-0.16036588,-0.10721466,0.0,0.043351028,0.7318463943787085,-0.05562944337725639,0.006265405565500259,0.004718214273452759
19.30391025543213,-0.91407126,-0.524009,-3.6338964,0.01565587358186591,nan,nan,nan,nan,9.301699161529541,0.0013735294342041016,1.0344695,0.69683886,0.004495027,0.10331947270868455,-0.06647164107986114,9.638395521473136,-0.09339201,0.021708043,0.0026358725,-0.84962606,-0.76915044,-3.0,0.0,1.1376098,0.80307627,0.0,0.1231849,-0.033919424,9.8905945,-0.17096528,-0.12732115,0.0,0.044847418,0.7313831169540284,-0.032070837914943695,-0.022537481039762497,0.00496748648583889
19.408030033111572,-0.80264646,-0.42652437,-3.634703,0.017291650795294176,nan,nan,nan,nan,9.40538215637207,0.0009949207305908203,1.0793239,0.8134705,0.0014963313,0.09280946393530642,-0.0647110164584499,9.622653240542856,-0.09034003,0.002986279,0.004086065,-0.7299564,-0.67960113,-3.0,0.0,1.1699494,0.92184615,0.0,0.10896355,-0.029193148,9.872734,-0.17172115,-0.14663666,0.0,0.046295173,0.7307774232612115,-0.07803122699260712,0.006690703332424164,0.00713750347495079
19.501989603042603,-0.69590145,-0.3263316,-3.6358125,0.01889205370092291,nan,nan,nan,nan,9.499268293380737,0.0016536712646484375,1.1183017,0.9088271,-0.00097547943,0.08143657538195263,-0.06246007666909148,9.603415903877464,-0.12529762,0.028716605,0.004990876,-0.61890817,-0.5885287,-3.0,0.0,1.1949543,1.0159613,0.0,0.09445482,-0.02479064,9.856954,-0.16295987,-0.16208674,0.0,0.047464296,0.7300365821543502,-0.12653760612010956,0.03788641095161438,0.008926860988140106
19.60314178466797,-0.6024441,-0.23655891,-3.636336,0.020295590910471815,nan,nan,nan,nan,9.600857496261597,0.0012569427490234375,1.1490046,0.9767345,-0.0022636876,0.06965039950224663,-0.05976440786907977,9.587172264140097,-0.14507096,0.03410884,0.0053179367,-0.49633577,-0.4808089,-3.0,0.0,1.2173258,1.1018513,0.0,0.07724285,-0.019911872,9.8412895,-0.14380898,-0.17631124,0.0,0.048551805,0.7294104520761953,-0.13292843103408813,0.0356554314494133,0.009914102032780647
19.702372074127197,-0.49726626,-0.13491642,-3.636322,0.021902603014690943,nan,nan,nan,nan,9.699713945388794,0.0010190010070800781,1.1795152,1.0355036,-0.0030951393,0.05424315624769346,-0.05520479738806405,9.573179022949187,-0.17316322,0.0564186,0.0061867004,-0.3751156,-0.36845863,-3.0,0.0,1.2343363,1.1682253,0.0,0.059242174,-0.015068167,9.828356,-0.1165553,-0.18739252,0.0,0.049407598,0.7288706408188437,-0.14393998682498932,0.04342107102274895,0.009806115180253983
19.80473804473877,-0.37075853,-0.013539482,-3.63552,0.023667627581216252,nan,nan,nan,nan,9.802512407302856,0.002079486846923828,1.2089295,1.0809358,-0.0038100625,0.03369959583200038,-0.048121094404728115,9.56121626107022,-0.18488386,0.05967334,0.008996112,-0.24753414,-0.24563092,-3.0,0.0,1.2469752,1.2181381,0.0,0.039519146,-0.009953419,9.818152,-0.080895595,-0.19578023,0.0,0.05006088,0.7284088456016623,-0.15041832625865936,0.05938246473670006,0.008407287299633026
19.90713858604431,-0.26890796,0.081939906,-3.634676,0.024845337080846214,nan,nan,nan,nan,9.904885292053223,0.00138092041015625,1.2273651,1.0987163,-0.004007213,0.0177020180718463,-0.04303420483225806,9.554782382082193,-0.17694966,0.055967435,0.008891859,-0.11945347,-0.11924022,-3.0,0.0,1.2543937,1.2476716,0.0,0.019191997,-0.004806248,9.811921,-0.040190276,-0.20076641,0.0,0.05045163,0.7281603608628259,-0.14397487044334412,0.0548139289021492,0.00821102038025856
20.004361391067505,-0.14622945,0.19322352,-3.633788,0.02606370607288181,nan,nan,nan,nan,10.00206732749939,0.0018558502197265625,1.2440261,1.0997068,-0.003994254,-0.000826664397925005,-0.036280119026403934,9.55131311338395,-0.1738085,0.07056348,0.007761211,0.0025981579,0.0025981555,-3.0,0.0,1.256636,1.2566328,0.0,-0.00041823063,0.000104557745,9.810001,0.0008818059,-0.20228285,0.0,0.050570834,0.7280263384940936,-0.1394783854484558,0.07004043459892273,0.006919100880622864
20.107550859451294,-0.031045742,0.2929091,-3.633351,0.026978845777924573,nan,nan,nan,nan,10.105298519134521,0.0016486644744873047,1.253754,1.082596,-0.004167927,-0.01729652631431039,-0.028894851909695207,9.55196441776119,-0.16568866,0.078086935,0.009142519,0.13222614,0.13193685,-3.0,0.0,1.2538878,1.2456517,0.0,-0.021234965,0.005319931,9.812351,0.04440004,-0.20042484,0.0,0.050424803,0.7280515010861353,-0.13509714603424072,0.06579214334487915,0.004450913518667221
20.2114155292511,0.0948785,0.39606446,-3.633241,0.02766508201876459,nan,nan,nan,nan,10.208887338638306,0.0008606910705566406,1.2567041,1.0455751,-0.0036411416,-0.03416365705211268,-0.020586169464581028,9.5568087190669,-0.1565481,0.079324335,0.00676484,0.2617424,0.25949126,-3.0,0.0,1.2458292,1.2135916,0.0,-0.041746594,0.010523745,9.819098,0.085152484,-0.19501418,0.0,0.050001007,0.7282386296440913,-0.12888532876968384,0.0649949312210083,0.0012941621243953705
20.301740169525146,0.20126691,0.4779341,-3.6332448,0.027975111977760002,nan,nan,nan,nan,10.299093246459961,0.0015001296997070312,1.2524099,1.0003058,-0.002730717,-0.04752886909162184,-0.01341439145734391,9.564433448044577,-0.1443244,0.077103995,0.0059049516,0.3736436,0.36706516,-3.0,0.0,1.2345124,1.1689178,0.0,-0.059018645,0.015009246,9.8282175,0.116180636,-0.18750857,0.0,0.049416594,0.7285330661742004,-0.12719208002090454,0.05952060967683792,-0.0015538949519395828
20.402976036071777,0.32556796,0.56720173,-3.6332633,0.028095518206664845,nan,nan,nan,nan,10.400763988494873,0.0008080005645751953,1.2399739,0.93171716,-0.0020176072,-0.06250735601558505,-0.005777302594115907,9.57604091214947,-0.14094104,0.06589386,0.0039692484,0.49831045,0.4825955,-3.0,0.0,1.2170072,1.1006173,0.0,-0.07752872,0.019990625,9.841523,0.144189,-0.17610596,0.0,0.048536025,0.7289810747660854,-0.1172715499997139,0.05518823117017746,-0.004016919061541557
20.50280237197876,0.42877766,0.63541085,-3.6329546,0.027939727029496833,nan,nan,nan,nan,10.500120878219604,0.0007369518280029297,1.2237139,0.86154026,-0.0009296336,-0.07473721785704236,-0.0002465002517979542,9.5900658925157,-0.13037078,0.060149893,0.0021235277,0.6181788,0.5879084,-3.0,0.0,1.1951033,1.0165282,0.0,-0.09435585,0.024761671,9.8568535,0.16287409,-0.16218024,0.0,0.047471408,0.7295220291704237,-0.12080799043178558,0.04707305505871773,-0.004508651793003082
20.601835012435913,0.53854513,0.7008846,-3.632153,0.027556163208779468,nan,nan,nan,nan,10.599117994308472,0.0010259151458740234,1.2004815,0.77273786,-0.00019658427,-0.08757880144705693,0.005081219835840978,9.602566260872402,-0.12866531,0.0517963,-0.0013197241,0.73521924,0.68373936,-3.0,0.0,1.1686476,0.9170011,0.0,-0.10962177,0.029401382,9.8735075,0.17191657,-0.14584489,0.0,0.046235554,0.7300038448023679,-0.11087555438280106,0.04347597807645798,-0.004770699888467789
20.705700874328613,0.65394944,0.7606965,-3.6306977,0.026889969617491814,nan,nan,nan,nan,10.703474521636963,0.0007681846618652344,1.1699698,0.66354203,0.001106112,-0.1007206619540987,0.0103509512683162,9.61813718694261,-0.1190899,0.045105815,-0.0020023596,0.8555067,0.77328867,-3.0,0.0,1.1358687,0.79677594,0.0,-0.12384092,0.034151234,9.891478,0.17064154,-0.12630172,0.0,0.04477134,0.7306035739564449,-0.09114125370979309,0.04177316650748253,-0.0041723959147930145
20.809966325759888,0.7569098,0.80498475,-3.628843,0.02609078195599103,nan,nan,nan,nan,10.807684183120728,0.0014295578002929688,1.1375865,0.55203086,0.0026179992,-0.11201464767459877,0.014596073759506112,9.632119297115121,-0.11119237,0.042271692,-0.002093565,0.97195834,0.8494628,-3.0,0.0,1.0982636,0.6630627,0.0,-0.13589704,0.038734544,9.908721,0.1585395,-0.104775555,0.0,0.043169905,0.7311416947951187,-0.08193594217300415,0.04071842506527901,-0.002894386649131775
20.904762744903564,0.8561117,0.8374407,-3.6264944,0.02513974070179663,nan,nan,nan,nan,10.902117252349854,0.0007500648498535156,1.1013771,0.4312871,0.0040236977,-0.12158761710639564,0.018725024934689527,9.643913229135785,-0.08702289,0.04118246,-0.0030792046,1.073899,0.9059567,-3.0,0.0,1.0601171,0.53202295,0.0,-0.14481294,0.04273856,9.92283,0.13900861,-0.08385744,0.0,0.041616693,0.7315952969795492,-0.05499267578125,0.04170501232147217,-0.002247944474220276
21.00304102897644,0.95173025,0.85749936,-3.6237576,0.02409094676128523,nan,nan,nan,nan,11.000367403030396,0.0008246898651123047,1.0618322,0.30329615,0.0056018042,-0.12916026730261487,0.022863212029564428,9.658481187997376,-0.060120136,0.045009665,-0.00380654,1.1759439,0.951199,-3.0,0.0,1.0164703,0.38777065,0.0,-0.1519365,0.046744302,9.935183,0.111329496,-0.06099038,0.0,0.03991043,0.7321552072921773,-0.033553630113601685,0.04190533608198166,-0.0014082789421081543
21.106712579727173,1.043224,0.86471057,-3.6211212,0.02290682788073288,nan,nan,nan,nan,11.10411787033081,0.0009725093841552734,1.0190322,0.17045224,0.006577891,-0.1335622909593282,0.027206884366838713,9.667876251293338,-0.023942808,0.045345902,-0.004267522,1.2788315,0.9832439,-3.0,0.0,0.9661795,0.22907859,0.0,-0.15697275,0.050787598,9.944939,0.07584221,-0.03597409,0.0,0.03801629,0.7325160766788298,-0.02882237359881401,0.04080556333065033,-0.00011811405420303345
21.20222806930542,1.1236156,0.85999805,-3.618797,0.02185256984993319,nan,nan,nan,nan,11.199607133865356,0.0028357505798339844,0.97659755,0.047524698,0.007084994,-0.13549191166104504,0.03106617121155364,9.676331756589928,-0.0214019,0.04124889,-0.0039031303,1.3687341,0.9979956,-3.0,0.0,0.91626143,0.079524435,0.0,-0.15928848,0.054331176,9.950466,0.039532874,-0.012479154,0.0,0.036190275,0.7328407072542626,-0.02892741560935974,0.04150018468499184,0.0005956720560789108
21.313653707504272,1.2211404,0.83837235,-3.6163864,0.020580932744499916,nan,nan,nan,nan,11.310912609100342,0.0008227825164794922,0.91930044,-0.10957134,0.007307333,-0.13670998813452367,0.03579227571156185,9.678641650890928,-0.002237943,0.042055395,-0.0022828982,1.4672908,0.9970718,-3.0,0.0,0.85392576,-0.09609632,0.0,-0.15914352,0.05823614,9.952424,-0.0043860683,0.015080356,0.0,0.033956006,0.7329293659097039,-0.0009770458564162254,0.04274559020996094,0.0007984824478626251
21.40568733215332,1.2933037,0.80879784,-3.615371,0.0196603620461794,nan,nan,nan,nan,11.403382778167725,0.0016641616821289062,0.87145174,-0.23274928,0.0069520986,-0.1371089731950683,0.03950900897247234,9.679242807971308,0.014287014,0.042304315,-0.0015966346,1.5437331,0.98148173,-3.0,0.0,0.79895055,-0.24071623,0.0,-0.15669602,0.061286535,9.950361,-0.0398906,0.03780495,0.0,0.032004286,0.7329524378618343,0.01949554681777954,0.04582855477929115,0.0004567839205265045
21.50355339050293,1.3615184,0.768867,-3.6148314,0.01875203001259408,nan,nan,nan,nan,11.501230239868164,0.0016341209411621094,0.82095766,-0.35379583,0.006025267,-0.13481729949792814,0.043372239603233,9.67670347233302,0.03771679,0.046015006,-0.0013098439,1.6189423,0.9505776,-3.0,0.0,0.7378467,-0.39016953,0.0,-0.15183876,0.06431275,9.944741,-0.0742801,0.061369516,0.0,0.02983259,0.7328549752093441,0.024501170963048935,0.049773309379816055,0.0005080215632915497
21.61347270011902,1.4417969,0.7038216,-3.6145606,0.01766711179935159,nan,nan,nan,nan,11.611244201660156,0.0013453960418701172,0.7521081,-0.50132245,0.00439872,-0.12896983260176575,0.04853457193558497,9.669895687261588,0.06975404,0.045500252,-0.0007493646,1.6961848,0.89872074,-3.0,0.0,0.6658271,-0.5510623,0.0,-0.14367221,0.06745385,9.934719,-0.10659361,0.08688722,0.0,0.027243674,0.7325936213918088,0.056763678789138794,0.04470633715391159,-0.0002686474472284317
21.712700128555298,1.4991645,0.6420377,-3.614835,0.016830067863379053,nan,nan,nan,nan,11.710065364837646,0.0007946491241455078,0.694113,-0.6095575,0.0027720884,-0.1221351362849558,0.05244781304662394,9.659720447370777,0.08714595,0.041932985,-0.0013297471,1.7586724,0.83748245,-3.0,0.0,0.5984125,-0.6867072,0.0,-0.13400346,0.07002514,9.923062,-0.1279949,0.1085676,0.0,0.024770757,0.7322028179505833,0.05780889838933945,0.04606612026691437,-0.00032797083258628845
21.804319381713867,1.5514511,0.57178074,-3.6155481,0.01602646444403425,nan,nan,nan,nan,11.802029132843018,0.0015625953674316406,0.6332445,-0.7099442,0.0010939129,-0.1135786423430282,0.05604101319793897,9.648817864889274,0.10966079,0.035521332,6.959861e-05,1.8107382,0.7688856,-3.0,0.0,0.53360015,-0.80347663,0.0,-0.12314291,0.07219212,9.910668,-0.14024858,0.12738596,0.0,0.02233447,0.7317838507536635,0.07043847441673279,0.04304751008749008,-0.0005149245262145996
21.90401816368103,1.6100857,0.47118044,-3.6167552,0.015101220108264486,nan,nan,nan,nan,11.901740312576294,0.0014417171478271484,0.5525273,-0.8234598,-0.0009765072,-0.10030976174872214,0.05975785737420303,9.637931502545245,0.122284845,0.031037314,-0.0017636713,1.860357,0.6829511,-3.0,0.0,0.461321,-0.9179283,0.0,-0.10949639,0.07428113,9.896394,-0.1444492,0.14599639,0.0,0.019539993,0.7313652706258252,0.10845666378736496,0.028762582689523697,-0.0007159262895584106
22.002562046051025,1.6559558,0.36753416,-3.6185057,0.014300814782491969,nan,nan,nan,nan,11.99985384941101,0.0008685588836669922,0.47387123,-0.91388077,-0.0034178887,-0.08698464496450299,0.06294151882379184,9.626192273581394,0.13932134,0.025931083,2.9271847e-05,1.9020566,0.58793306,-3.0,0.0,0.3884314,-1.0165058,0.0,-0.09435979,0.076057024,9.882405,-0.13915275,0.16217652,0.0,0.016635137,0.7309136328235164,0.13826219737529755,0.01484333910048008,-0.0010431483387947083
22.107295513153076,1.6914431,0.26537022,-3.6203792,0.013702740474344225,nan,nan,nan,nan,12.104546308517456,0.0006632804870605469,0.3996873,-0.9830235,-0.005410394,-0.07301363189890461,0.06514817862327926,9.611904703909525,0.15916745,0.018178785,-0.0011353598,1.9385794,0.4767387,-3.0,0.0,0.3090343,-1.1046406,0.0,-0.07659153,0.07762929,9.868566,-0.12361067,0.17677529,0.0,0.013374337,0.7303635822037462,0.14480330049991608,0.016324758529663086,-0.0008468944579362869
22.203458070755005,1.7203717,0.15909462,-3.622344,0.013207665016367012,nan,nan,nan,nan,12.200762271881104,0.0006554126739501953,0.32504898,-1.0356554,-0.0068394286,-0.05693177438085005,0.06649554100636101,9.599366464475166,0.17825037,0.008498393,-0.0012389206,1.9647537,0.36723363,-3.0,0.0,0.23487902,-1.1688343,0.0,-0.05904567,0.07876657,9.85769,-0.101286285,0.18749456,0.0,0.010246766,0.7298805413613088,0.1519637107849121,0.015058276243507862,-0.00033133290708065033
22.304373741149902,1.7427459,0.050731882,-3.623866,0.012730450547816248,nan,nan,nan,nan,12.301724672317505,0.001016855239868164,0.25036463,-1.0703036,-0.007386973,-0.03958773544143811,0.0674085301771501,9.589542330736293,0.1826774,0.01012367,-0.0018689046,1.9844999,0.24659008,-3.0,0.0,0.15614727,-1.217832,0.0,-0.039673306,0.07963072,9.848936,-0.07113133,0.19572866,0.0,0.006855226,0.7295018420956682,0.14835767447948456,0.020234063267707825,0.00041013583540916443
22.40877389907837,1.7552114,-0.030926432,-3.624693,0.01236482800079917,nan,nan,nan,nan,12.406951904296875,0.0024149417877197266,0.19428806,-1.0842451,-0.0073046936,-0.026514263285323678,0.06827461163539028,9.583432556996119,0.18003985,0.015510056,-0.0013001069,1.996583,0.11666117,-3.0,0.0,0.07342583,-1.2480564,0.0,-0.018776992,0.08016225,9.84334,-0.03456446,0.20083152,0.0,0.0032364482,0.7292662255940545,0.13525307178497314,0.05455530807375908,0.0011989055201411247
22.516207218170166,1.7678338,-0.16477604,-3.6252673,0.011752005506134007,nan,nan,nan,nan,12.513458251953125,0.0011098384857177734,0.10020693,-1.0850327,-0.0061790366,-0.00568064915537708,0.071486848167986,9.5815303185815,0.16950895,0.030241005,6.556895e-05,1.9999285,-0.016911376,-3.0,0.0,-0.01062611,-1.2564574,0.0,0.0027222538,0.0803098,9.841758,0.005047319,0.20225316,0.0,-0.0004689008,0.7291928525935911,0.13581739366054535,0.027086736634373665,1.6791746020317078e-05
22.60512113571167,1.7705283,-0.25123703,-3.625405,0.011434805856325236,nan,nan,nan,nan,12.602827787399292,0.001567840576171875,0.036255676,-1.0706458,-0.0048559173,0.007589674526432278,0.07351847077778961,9.583221841319467,0.16279137,0.024032494,-0.0011678691,1.9958272,-0.12885852,-3.0,0.0,-0.081133485,-1.2461605,0.0,0.020739658,0.08012894,9.843695,0.038115032,0.20051084,0.0,-0.0035752829,0.7292580982431126,0.1406690925359726,0.02827884815633297,-0.0010796915739774704
