time,x,y,z,yaw,platform,trajectory,controller,feedforward,traj_time,comp_time,vx,vy,vz,roll,pitch,f,p,q,r,x_ref,y_ref,z_ref,yaw_ref,vx_ref,vy_ref,vz_ref,roll_ref,pitch_ref,f_ref,u_ff_df,u_ff_dphi,u_ff_dpsi,u_ff_dth,throttle,p_cmd,q_cmd,r_cmd
10.003316402435303,-0.012087364,-0.0019888813,-2.6373546,0.0023396447966354973,SIM,fig8_heading,contraction,1.0,3.814697265625e-06,0.0032672882080078125,0.016951783,-0.006447696,-0.19332819,-3.6321123259618407e-06,-0.0017035458924712366,9.808992287144065,0.0064497776,-7.75305e-06,-0.0075674993,2.3968453e-06,2.3968453e-06,-3.0,0.7853982,0.62831855,0.62831855,0.0,-1.7147792e-07,4.286948e-08,9.81,8.0344144e-08,-0.0449519,-1.0039882e-06,0.011237975,0.7379154701044491,0.8725311756134033,-0.8853021860122681,0.7738717198371887
10.11402678489685,-0.011209025,-0.0032708151,-2.6584406,0.0013174285235908311,nan,nan,nan,nan,0.1102447509765625,0.0024025440216064453,0.013827931,-0.0059643392,-0.18778075,0.001338309772699864,-0.0033485461973086217,9.802801339328289,0.08963306,-0.14676525,-0.0070956205,0.069244206,0.069170386,-3.0,0.78379595,0.6276487,0.62564063,0.0,-0.0049486286,0.0012384718,9.810128,0.0023093151,-0.04475922,-0.029118603,0.011225566,0.737679409337668,0.915517270565033,-0.9371973276138306,0.7473803758621216
10.205012559890747,-0.01064339,-0.0039891996,-2.6754308,0.0021068339191976874,nan,nan,nan,nan,0.20105695724487305,0.0019724369049072266,0.019370696,-0.0001910716,-0.20536938,0.01592098522234036,-0.02126085677542089,9.792888531759383,0.277874,-0.32902983,0.029343734,0.12617853,0.12573133,-3.0,0.780047,0.6260916,0.61942655,0.0,-0.008994976,0.0022567082,9.810422,0.004158298,-0.044312157,-0.053546093,0.011196737,0.7373012788169647,0.864658534526825,-0.8701915144920349,0.7339163422584534
10.306627988815308,-0.008867995,-0.0036518164,-2.6946867,0.005502739079970547,nan,nan,nan,nan,0.3027184009552002,0.0027892589569091797,0.04981611,0.026525764,-0.23449905,0.06256447956975496,-0.07482232455164661,9.784314275309445,0.80553734,-0.807298,0.11158324,0.18969429,0.18817131,-3.0,0.7731757,0.62327397,0.60822135,0.0,-0.013461559,0.0033925124,9.8109455,0.006117175,-0.0435062,-0.08184213,0.011144626,0.736974053813233,0.685850977897644,-0.5067772269248962,0.7474401593208313
10.401872873306274,0.002160594,0.0054634,-2.7257311,0.02191126238985852,nan,nan,nan,nan,0.39800500869750977,0.0026226043701171875,0.1719895,0.15063877,-0.2650392,0.15456712610088405,-0.14290964441583287,9.776201748661697,0.74887425,-0.19752918,0.29649177,0.24891713,0.24546589,-3.0,0.76406056,0.619607,0.5937137,0.0,-0.017559605,0.0044513647,9.81161,0.007800416,-0.042463064,-0.109740555,0.011076914,0.7366643180782378,0.22195196151733398,0.1847362369298935,0.772116482257843
10.51342248916626,0.02622316,0.030234652,-2.7544203,0.0608312491909616,nan,nan,nan,nan,0.5099821090698242,0.003574371337890625,0.30132627,0.33166695,-0.2775524,0.2034301627457557,-0.14008492681653073,9.776233822200446,0.43212527,0.40965217,0.45350412,0.31799972,0.3107715,-3.0,0.7498308,0.6140367,0.57184035,0.0,-0.022229917,0.00568621,9.812584,0.009533489,-0.040891062,-0.14490879,0.0109742945,0.7366655428968287,-0.15121273696422577,0.5592357516288757,0.7142957448959351
10.615970611572266,0.0718988,0.08757638,-2.7889423,0.1400520615758024,nan,nan,nan,nan,0.6124627590179443,0.0034301280975341797,0.40432486,0.5884619,-0.28454417,0.21605846217739522,-0.09186237818029297,9.765628661680966,-0.19505554,0.67799354,0.5937073,0.38061434,0.36815748,-3.0,0.733206,0.60775477,0.5474094,0.0,-0.026333066,0.0068051247,9.81363,0.010841246,-0.039136257,-0.1800815,0.010858889,0.7362604453548747,-0.7397006154060364,0.477560818195343,0.48011112213134766
10.710490465164185,0.11535375,0.15513903,-2.8165622,0.22448348942689564,nan,nan,nan,nan,0.7070550918579102,0.0050470829010009766,0.4242207,0.7767189,-0.29156214,0.16996992763337174,-0.049335332438033896,9.745595550704747,-0.7830095,0.5150372,0.63575435,0.4377895,0.41872865,-3.0,0.71451026,0.6009623,0.52127564,0.0,-0.029948218,0.007826542,9.814702,0.01177988,-0.03726027,-0.21578881,0.010734472,0.7354946168691344,-1.0408599376678467,0.23218414187431335,0.2651880979537964
10.803540706634521,0.15990333,0.23870137,-2.8452346,0.31512473320858164,nan,nan,nan,nan,0.8002068996429443,0.003396749496459961,0.4055879,0.9033648,-0.30603734,0.08217120761372633,-0.018649405363952765,9.714353316891938,-1.1669139,0.24728593,0.6119216,0.4934228,0.46596274,-3.0,0.692628,0.5933513,0.49234146,0.0,-0.03332411,0.00882013,9.815832,0.012430619,-0.035184566,-0.2547147,0.010595497,0.7342987118383145,-1.0135293006896973,-0.06869050860404968,0.07180014252662659
10.908867597579956,0.20962651,0.34662312,-2.8815167,0.4136012079805593,nan,nan,nan,nan,0.9049606323242188,0.0027780532836914062,0.38489255,0.9351225,-0.3300816,-0.04399535044461478,-0.009721606406494221,9.683785067070273,-1.2100531,-0.13607787,0.5090435,0.55508363,0.51567805,-3.0,0.66342264,0.58371395,0.45623305,0.0,-0.03687652,0.009921037,9.817158,0.012820753,-0.032595992,-0.30394167,0.0104201315,0.7331267431620749,-0.6350002288818359,-0.2333534061908722,-0.08022837340831757
11.0026113986969,0.25706488,0.43996826,-2.9170368,0.47539902109152965,nan,nan,nan,nan,0.9992566108703613,0.005482912063598633,0.4293592,0.8537373,-0.3471857,-0.14424962789073378,-0.02320081378914529,9.656229772735385,-0.82614946,-0.24408345,0.37253082,0.60967827,0.557046,-3.0,0.6324407,0.57407707,0.42071787,0.0,-0.03983176,0.010895498,9.818371,0.012855008,-0.030051762,-0.35421354,0.0102454135,0.7320687031663232,-0.1581690013408661,-0.1341681331396103,-0.16817978024482727
11.10451602935791,0.30418795,0.5044102,-2.947319,0.49384279608941706,nan,nan,nan,nan,1.1010286808013916,0.0035724639892578125,0.52352226,0.7318559,-0.35169876,-0.19507545648521185,-0.0386166729432047,9.643401493746783,-0.4143157,-0.1574901,0.24976516,0.66753167,0.59778804,-3.0,0.59331715,0.5626719,0.37944937,0.0,-0.042741604,0.011927864,9.819667,0.012555901,-0.02709745,-0.41605327,0.010039389,0.7315756210667086,0.2054314911365509,0.05273912847042084,-0.2709624171257019
11.206212282180786,0.3625479,0.55351573,-2.9775407,0.47963370474642075,nan,nan,nan,nan,1.202282428741455,0.0028884410858154297,0.64733976,0.5851118,-0.35027215,-0.21114669147407236,-0.04521834683108672,9.62223465071991,0.035595696,0.049760863,0.12113367,0.7238869,0.63401324,-3.0,0.5476946,0.5503101,0.33565488,0.0,-0.045328252,0.012933272,9.820909,0.011922444,-0.02396451,-0.48673663,0.009816922,0.7307613110074004,0.4723227620124817,0.2142273485660553,-0.3822607100009918
11.30355715751648,0.44010916,0.58817375,-3.0101078,0.43580165464635434,nan,nan,nan,nan,1.3000819683074951,0.005203962326049805,0.774733,0.41570586,-0.34703496,-0.18954885711501354,-0.033662856241215344,9.604507623482494,0.40880713,0.22639626,-0.011237931,0.7770847,0.6646766,-3.0,0.4963526,0.53743005,0.2910592,0.0,-0.047517277,0.0138821965,9.822032,0.01101109,-0.020776317,-0.56491965,0.00958595,0.7300786447648644,0.5863943696022034,0.2637012302875519,-0.484394907951355
11.405951738357544,0.5533283,0.6037025,-3.0507114,0.358958112286063,nan,nan,nan,nan,1.402101755142212,0.0019600391387939453,0.8733362,0.214816,-0.34811038,-0.1335208276428714,-0.003794182278531455,9.579207036960868,0.59532934,0.28006607,-0.16520776,0.83118707,0.6919081,-3.0,0.4340816,0.52303356,0.24246287,0.0,-0.049460925,0.014847169,9.823095,0.00977489,-0.017304162,-0.65782124,0.009328653,0.7291032292647566,0.5598589777946472,0.19202466309070587,-0.582939088344574
11.503540515899658,0.6447036,0.59771127,-3.0826395,0.29396133674799646,nan,nan,nan,nan,1.5000720024108887,0.003910064697265625,0.8901316,0.08749144,-0.353189,-0.08367957323752766,0.020200556785786583,9.545640225280076,0.5840566,0.23611058,-0.28025985,0.8817146,0.7133064,-3.0,0.3648091,0.50830925,0.19412498,0.0,-0.050987978,0.015748369,9.823984,0.008347458,-0.013852241,-0.7580846,0.009066316,0.7278071349857845,0.4413847029209137,0.13928428292274475,-0.7117069363594055
11.604682683944702,0.7321831,0.5812372,-3.1149693,0.2292107535668789,nan,nan,nan,nan,1.6012709140777588,0.004344940185546875,0.86454684,-0.0018348484,-0.35925376,-0.03931791579481189,0.03890322811075553,9.528003509212285,0.48813397,0.17477366,-0.39764398,0.9323475,0.7303661,-3.0,0.2824209,0.49220127,0.1428256,0.0,-0.05220523,0.016651515,9.824745,0.0066679604,-0.010190373,-0.8716063,0.008780114,0.7271252262431082,0.2899322509765625,0.09008229523897171,-0.858441948890686
11.71343183517456,0.8321306,0.55379677,-3.1568103,0.1464955128705489,nan,nan,nan,nan,1.7095513343811035,0.002883434295654297,0.7941236,-0.05907785,-0.36676642,0.0028929675975424424,0.0547664695309007,9.51424521224573,0.31270912,0.111275256,-0.5439803,0.9846661,0.7428072,-3.0,0.1811407,0.4739876,0.08681,0.0,-0.053092845,0.017584907,9.825362,0.0046951333,-0.0061931727,-0.9995951,0.008457295,0.726592834988427,0.09937047958374023,0.01965213567018509,-1.0115212202072144
11.806176662445068,0.89455336,0.5341164,-3.1870759,0.08465272284649783,nan,nan,nan,nan,1.8022818565368652,0.0033359527587890625,0.7316305,-0.06818861,-0.37172183,0.019474154611823245,0.06096830891467375,9.49260767685249,0.14751555,0.055674173,-0.6537421,1.0278654,0.7486087,-3.0,0.08339972,0.45761314,0.038253542,0.0,-0.053506717,0.018355817,9.825715,0.002909365,-0.0027289519,-1.107453,0.008167624,0.7257547692679762,-0.013574529439210892,0.0007406165823340416,-1.1545759439468384
11.903849124908447,0.94966865,0.51684433,-3.2178032,0.016812844444683686,nan,nan,nan,nan,1.8999278545379639,0.002704620361328125,0.6669168,-0.06150971,-0.37707943,0.021586130460140476,0.06329389597989965,9.471939697731283,-0.011566951,0.0141973235,-0.7767646,1.0716774,0.74983644,-3.0,-0.029836303,0.43962497,-0.013120677,0.0,-0.053594306,0.019137943,9.825906,0.0009829407,0.0009360012,-1.2087638,0.007849835,0.7249533640612439,-0.08148491382598877,-0.031668536365032196,-1.2982441186904907
12.008899688720703,0.9978955,0.50300246,-3.2489405,-0.058771373753468824,nan,nan,nan,nan,2.00549578666687,0.0037183761596679688,0.60400563,-0.049789578,-0.38226503,0.013011731580408782,0.062445805135752375,9.455129973161963,-0.10923127,-0.017339827,-0.89920586,1.1170249,0.74552256,-3.0,-0.162042,0.4193511,-0.06855357,0.0,-0.053286556,0.019947873,9.825899,-0.0010944303,0.0048906268,-1.2896672,0.007492003,0.724300918513357,-0.11234375089406967,-0.05956168845295906,-1.4314820766448975
12.106028079986572,1.0474181,0.4904993,-3.2868319,-0.1622286649005304,nan,nan,nan,nan,2.102555274963379,0.0038237571716308594,0.5322279,-0.039537992,-0.38856965,-0.005017958208427528,0.05799889000691527,9.438781932163979,-0.15931334,-0.055372845,-1.0559539,1.1567926,0.7364129,-3.0,-0.28929976,0.39998686,-0.11905622,0.0,-0.05263665,0.02065856,9.825703,-0.0029455104,0.008494082,-1.3257358,0.0071503674,0.7236658360249129,-0.09810745716094971,-0.07916207611560822,-1.4855756759643555
12.212262868881226,1.095253,0.48134452,-3.3314571,-0.30013900238451563,nan,nan,nan,nan,2.208350896835327,0.0026247501373291016,0.45453128,-0.039780583,-0.39368683,-0.02834255531589372,0.047303179819631946,9.418260033894324,-0.1489734,-0.07643989,-1.2153623,1.19796,0.7209432,-3.0,-0.42951855,0.3781278,-0.17319708,0.0,-0.051532898,0.02139476,9.825289,-0.004840596,0.012358191,-1.3165395,0.0067646797,0.7228678300685706,-0.056106504052877426,-0.07672595232725143,-1.4680029153823853
12.315301418304443,1.1312054,0.47529835,-3.3731012,-0.4426736500760458,nan,nan,nan,nan,2.3117918968200684,0.0044896602630615234,0.38648695,-0.05367983,-0.3940427,-0.04626610075119436,0.03412944663299866,9.394792176056647,-0.10481445,-0.07697628,-1.3327706,1.2359374,0.7003446,-3.0,-0.5632275,0.35603705,-0.2248213,0.0,-0.050063014,0.022074439,9.8247,-0.006515251,0.016044151,-1.2619728,0.006374668,0.7219542024390477,-0.019513621926307678,-0.07064986974000931,-1.39081609249115
12.417280673980713,1.1498286,0.4718846,-3.3985236,-0.5352199071299449,nan,nan,nan,nan,2.413848876953125,0.004597902297973633,0.3461955,-0.06746551,-0.39116618,-0.053780477618924544,0.02498329025051227,9.377734272051596,-0.060363937,-0.08057174,-1.385028,1.2711332,0.67486966,-3.0,-0.68782395,0.33358672,-0.274103,0.0,-0.048244853,0.02270487,9.82396,-0.007946338,0.01956459,-1.175549,0.005977889,0.7212894044907227,-0.02013554237782955,-0.07918018102645874,-1.3253099918365479
12.50430703163147,1.1754681,0.4649226,-3.4389591,-0.6889518814953928,nan,nan,nan,nan,2.5007951259613037,0.004736661911010742,0.28552476,-0.0962478,-0.38146368,-0.05938919904333256,0.00852800667594189,9.363865214455863,-0.0014960425,-0.086120754,-1.4236686,1.299288,0.649269,-3.0,-0.7862635,0.31397793,-0.31452185,0.0,-0.046417404,0.023209596,9.823224,-0.008961392,0.022453444,-1.087442,0.0056308727,0.7207484397278365,0.02506239339709282,-0.07080323249101639,-1.166231393814087
12.609919786453247,1.1993905,0.45251593,-3.4838235,-0.8643507964717672,nan,nan,nan,nan,2.606452703475952,0.002965211868286133,0.22645427,-0.13657902,-0.36548844,-0.054244705442853924,-0.011060938027028344,9.343940912056704,0.0892641,-0.08401161,-1.4013557,1.3311789,0.613539,-3.0,-0.8952252,0.28959137,-0.3613738,0.0,-0.04386637,0.0237818,9.822224,-0.009910665,0.025804112,-0.97505677,0.0051985895,0.7199705875394068,0.05424083024263382,-0.05161244422197342,-0.9689766764640808
12.709680318832397,1.2154667,0.43822202,-3.5183218,-0.9972880404576598,nan,nan,nan,nan,2.7058401107788086,0.002928495407104492,0.1927761,-0.17098372,-0.35075694,-0.04144590424316735,-0.024750684890721075,9.329032300133246,0.13875413,-0.078002594,-1.3328364,1.358799,0.57553893,-3.0,-0.987009,0.2661334,-0.40286925,0.0,-0.041152637,0.024277853,9.821207,-0.010495603,0.02877376,-0.87311804,0.004781927,0.7193880071927727,0.06188768148422241,-0.035628948360681534,-0.8139411807060242
12.807644605636597,1.2278689,0.42306688,-3.5460677,-1.1004859137208998,nan,nan,nan,nan,2.804090738296509,0.0024394989013671875,0.17616068,-0.20002358,-0.33823562,-0.02686351150149857,-0.033385479003239515,9.316506951320903,0.15427998,-0.054577272,-1.2487996,1.3837887,0.53405297,-3.0,-1.0681981,0.2424903,-0.4411474,0.0,-0.038189266,0.024727074,9.82016,-0.010765492,0.031515077,-0.7813352,0.004361083,0.7188981971317253,0.0453968420624733,-0.02444104477763176,-0.6940699815750122
12.904081106185913,1.2401507,0.40473118,-3.5729675,-1.1954929134850651,nan,nan,nan,nan,2.9002318382263184,0.0027642250061035156,0.17075907,-0.22870575,-0.3259231,-0.011059627971112262,-0.03872008640407376,9.306112391371267,0.15121755,-0.029561596,-1.1494023,1.4059738,0.48995507,-3.0,-1.1394343,0.21895704,-0.47571385,0.0,-0.035038594,0.025126232,9.819125,-0.010727201,0.033992313,-0.7024619,0.0039412724,0.7184914625824917,0.007458023726940155,-0.014180595986545086,-0.5895034670829773
13.002922534942627,1.2602373,0.3713802,-3.611511,-1.3212066462555743,nan,nan,nan,nan,2.9989562034606934,0.003142833709716797,0.18193477,-0.26993817,-0.30725998,0.009573604887811893,-0.04045263437855828,9.295596612039938,0.10342517,0.0061982903,-0.9834195,1.4263821,0.4413692,-3.0,-1.205272,0.19442229,-0.50799733,0.0,-0.031566463,0.025493743,9.81808,-0.010379353,0.03630754,-0.6332829,0.003502622,0.7180797535639737,-0.06862539052963257,0.019151553511619568,-0.4636944532394409
13.118132591247559,1.2756954,0.34564385,-3.6357598,-1.394031388525879,nan,nan,nan,nan,3.1143157482147217,0.0030667781829833984,0.1984475,-0.2958174,-0.29381078,0.01791219682330414,-0.038500141386846654,9.286151213366525,0.04311255,0.022842746,-0.87038714,1.4471368,0.38079846,-3.0,-1.2743584,0.16533525,-0.5413062,0.0,-0.027236791,0.02586782,9.816925,-0.009592444,0.038698044,-0.56698513,0.002981337,0.7177097530319515,-0.06279173493385315,0.009748222306370735,-0.39751845598220825
13.212104558944702,1.2990865,0.30849707,-3.6651936,-1.4758720372529313,nan,nan,nan,nan,3.20816969871521,0.0019550323486328125,0.22453813,-0.32760802,-0.27529946,0.022257140081536786,-0.03497375111239753,9.283095942642525,-0.019955307,0.013359592,-0.72561616,1.461532,0.3288706,-3.0,-1.3254677,0.1413828,-0.56469125,0.0,-0.023524107,0.026127482,9.816066,-0.008671011,0.040377453,-0.52363724,0.0025511289,0.7175900299539415,-0.14231999218463898,0.0045050885528326035,-0.32891348004341125
13.31130313873291,1.3175472,0.28103364,-3.6841648,-1.5248381670747393,nan,nan,nan,nan,3.307777166366577,0.0034096240997314453,0.24208413,-0.34832466,-0.26166862,0.020691132455897265,-0.03337099046929892,9.280091216918066,-0.07308671,0.0083901845,-0.6400042,1.4743388,0.271544,-3.0,-1.3757236,0.11572383,-0.5856905,0.0,-0.019424677,0.02635864,9.815261,-0.007446288,0.041886345,-0.48696074,0.0020894238,0.7174722683026336,-0.15359747409820557,-0.021251605823636055,-0.29519009590148926
13.407358407974243,1.3447636,0.24269472,-3.707971,-1.581878065796575,nan,nan,nan,nan,3.403862237930298,0.003791332244873047,0.2606906,-0.3744551,-0.24277833,0.013372260139048353,-0.032339982503137854,9.278902201671139,-0.118988134,-0.008971222,-0.5375059,1.484261,0.21444935,-3.0,-1.4211464,0.09078086,-0.60208607,0.0,-0.015341183,0.026537834,9.8146105,-0.0060574897,0.04306501,-0.45978126,0.0016398795,0.7174256629780403,-0.15671168267726898,-0.027696214616298676,-0.2565116882324219
13.503756284713745,1.3759087,0.1995067,-3.7320874,-1.6344154730399243,nan,nan,nan,nan,3.4999964237213135,0.0023190975189208984,0.26964408,-0.4023993,-0.2215999,0.0013935477054364265,-0.03390328212757443,9.279103256165968,-0.14246587,-0.024253909,-0.44540626,1.4917827,0.15593581,-3.0,-1.4643352,0.06567804,-0.6145879,0.0,-0.01115568,0.026673729,9.814102,-0.004502749,0.0439641,-0.43989745,0.0011868716,0.7174335438352679,-0.1285993903875351,-0.020796960219740868,-0.2231871485710144
13.609217166900635,1.4046844,0.15769644,-3.752588,-1.6754332765708766,nan,nan,nan,nan,3.605736494064331,0.003458261489868164,0.26525968,-0.42904374,-0.20105802,-0.010328230056583232,-0.0370967955225312,9.28138687904923,-0.12952016,-0.039213244,-0.3742506,1.4972621,0.09042272,-3.0,-1.5100354,0.037945442,-0.6237353,0.0,-0.0064690383,0.026772762,9.813723,-0.0026526325,0.044622142,-0.42580062,0.0006859086,0.7175230504205241,-0.08879990875720978,-0.02175041288137436,-0.20779600739479065
13.702831983566284,1.4254633,0.12495605,-3.7666152,-1.7020473007905454,nan,nan,nan,nan,3.699096202850342,0.002669811248779297,0.25440273,-0.44979814,-0.18515301,-0.01764034637379197,-0.04014057398426707,9.286279444508242,-0.10653024,-0.03194856,-0.33097228,1.4996591,0.031973794,-3.0,-1.5494595,0.013396198,-0.6277473,0.0,-0.0022875029,0.026816094,9.813554,-0.00094443513,0.0449108,-0.41973665,0.00024218234,0.71771477743486,-0.059916187077760696,-0.028037628158926964,-0.20950740575790405
13.804454326629639,1.4548631,0.071252935,-3.7853582,-1.7375235160688618,nan,nan,nan,nan,3.800503969192505,0.002155303955078125,0.22694124,-0.48371425,-0.15934446,-0.025285034424236907,-0.043987699424433035,9.293814559318113,-0.06038332,-0.017452614,-0.2770108,1.4996643,-0.031723276,-3.0,-1.5919657,-0.013291189,-0.62775624,0.0,0.0022695798,0.026816187,9.813554,0.0009370495,0.044911444,-0.4197232,-0.00024028403,0.7180099603731086,-0.021506547927856445,0.017780136317014694,-0.21121960878372192
13.901903867721558,1.4747914,0.026706506,-3.7976053,-1.7613820698021674,nan,nan,nan,nan,3.8979978561401367,0.00222015380859375,0.19993086,-0.5103098,-0.13913064,-0.028176950492368458,-0.04507652165070186,9.304401071257875,-0.031392694,0.0024323475,-0.24957873,1.4971185,-0.09275204,-3.0,-1.6331483,-0.03892666,-0.6234952,0.0,0.006635678,0.026770165,9.813733,0.0027198445,0.044604868,-0.42616582,-0.00070363993,0.7184244776075138,-0.0025430917739868164,0.03392573446035385,-0.23299360275268555
14.002679586410522,1.4911206,-0.020075379,-3.8080056,-1.7829784360215393,nan,nan,nan,nan,3.9988012313842773,0.002579212188720703,0.16990764,-0.53577256,-0.11945164,-0.02898109575356289,-0.04405028423396651,9.316584639064953,-0.011717414,0.03157908,-0.23271678,1.4918613,-0.15519723,-3.0,-1.676729,-0.06536351,-0.6147191,0.0,0.011102847,0.02667515,9.814096,0.0044824462,0.043973535,-0.4396926,-0.0011811927,0.7189012361644243,0.004367083311080933,0.052505992352962494,-0.2691706418991089
14.101995468139648,1.506553,-0.08316372,-3.8183892,-1.8088218170888304,nan,nan,nan,nan,4.098119020462036,0.002194643020629883,0.13031936,-0.5644399,-0.09498773,-0.028577807057862614,-0.038934658986626625,9.330013983212394,-0.0012564294,0.06795548,-0.22657192,1.4840807,-0.21564227,-3.0,-1.721358,-0.09129695,-0.60178703,0.0,0.01542651,0.026534574,9.814623,0.0060879416,0.04304351,-0.4602658,-0.0016491873,0.7194263825036334,0.007932499051094055,0.08069171011447906,-0.3133961856365204
14.213147163391113,1.5161073,-0.15005706,-3.826002,-1.834944751791941,nan,nan,nan,nan,4.209220886230469,0.002054929733276367,0.09135204,-0.58645636,-0.07248082,-0.028321089855105175,-0.030855248894071652,9.344388930313274,-0.0060581653,0.088453576,-0.2393614,1.4723341,-0.28147218,-3.0,-1.7741941,-0.12011824,-0.58239156,0.0,0.020134691,0.026322447,9.81539,0.0076718396,0.04164925,-0.49258283,-0.0021685532,0.7199880874483297,0.006530005484819412,0.0916839987039566,-0.3792363107204437
14.307627201080322,1.520149,-0.19950132,-3.8300803,-1.8549242539199229,nan,nan,nan,nan,4.303715944290161,0.0018496513366699219,0.064895846,-0.5962774,-0.05765181,-0.028583533854114607,-0.02402230904110625,9.352382521890089,-0.010846635,0.09571062,-0.25899908,1.4598334,-0.3355662,-3.0,-1.8223785,-0.14442912,-0.5619198,0.0,0.024002861,0.02609683,9.81617,0.008800786,0.04017837,-0.52863616,-0.0026058878,0.7203002522821207,0.0006551109254360199,0.08828771114349365,-0.4486687183380127
14.415079593658447,1.5218815,-0.25973606,-3.833247,-1.8814913043700514,nan,nan,nan,nan,4.411639451980591,0.003217458724975586,0.03424695,-0.60073054,-0.041404635,-0.029588171362717408,-0.015614641783241234,9.367862798534322,-0.018538017,0.09731406,-0.29559863,1.44276,-0.39475733,-3.0,-1.8821259,-0.17191589,-0.53424186,0.0,0.028234689,0.025788903,9.817177,0.009803895,0.038190898,-0.58060104,-0.0030993859,0.7209044071914777,-0.005513135343790054,0.08296964317560196,-0.5403741598129272
14.50612759590149,1.5196589,-0.3195134,-3.8344958,-1.912339318688996,nan,nan,nan,nan,4.50229811668396,0.0043790340423583984,0.0034422874,-0.59603304,-0.0267347,-0.0315700131182437,-0.007518525434822232,9.381790531538416,-0.02790309,0.09260102,-0.34289023,1.4261378,-0.44200665,-3.0,-1.937116,-0.1947364,-0.50760823,0.0,0.031612024,0.025489341,9.818093,0.010385701,0.036279626,-0.63408864,-0.003508244,0.7214475439093683,0.0025300197303295135,0.07626625895500183,-0.6242213249206543
14.607481241226196,1.5133603,-0.3780228,-3.83474,-1.9488455373347957,nan,nan,nan,nan,4.604084491729736,0.0038323402404785156,-0.028081205,-0.5822653,-0.014483134,-0.034311859457056726,-0.0004681601179077344,9.39430164363234,-0.029501272,0.0800705,-0.405328,1.4050263,-0.49200547,-3.0,-2.0051978,-0.2200216,-0.47422627,0.0,0.035185106,0.025109181,9.819171,0.010735326,0.033885665,-0.7057596,-0.0039602835,0.7219350933438409,0.01473265141248703,0.06594382226467133,-0.732379674911499
14.706898927688599,1.5043792,-0.42969358,-3.8344257,-1.9883058148980468,nan,nan,nan,nan,4.703372240066528,0.0034210681915283203,-0.05706217,-0.56265754,-0.0051433477,-0.036751365626180754,0.004689604222441801,9.407122344635415,-0.018918045,0.06848313,-0.47601992,1.3819723,-0.5373349,-3.0,-2.0792503,-0.24430121,-0.43834138,0.0,0.038423724,0.024694404,9.820241,0.010755933,0.03131406,-0.78792673,-0.0043933485,0.7224343705594631,0.025234149768948555,0.056241586804389954,-0.8529221415519714
14.81133770942688,1.4914179,-0.48311952,-3.8337781,-2.03905591865637,nan,nan,nan,nan,4.808130264282227,0.00269317626953125,-0.088157855,-0.5347861,0.0024428358,-0.0385038943805327,0.008651238227270541,9.421209712736298,-0.0075402055,0.055416025,-0.5638764,1.3550575,-0.581128,-3.0,-2.166879,-0.2694598,-0.39719826,0.0,0.04155181,0.024210624,9.821354,0.010432081,0.028367788,-0.8869813,-0.004841063,0.7229825835100177,0.03433826193213463,0.04959476366639137,-0.9919223785400391
14.90293574333191,1.4735239,-0.5366262,-3.8326118,-2.1041198420839944,nan,nan,nan,nan,4.899068593978882,0.0019383430480957031,-0.120686986,-0.49849313,0.0077613313,-0.03954855277854419,0.01146023904024096,9.434172460846597,0.0030927667,0.046564557,-0.672156,1.3295763,-0.615528,-3.0,-2.2517679,-0.29088038,-0.3589921,0.0,0.044008397,0.02375303,9.822279,0.009869219,0.025633724,-0.9808988,-0.0052214595,0.7234866696539999,0.052757881581783295,0.040415141731500626,-1.1078128814697266
15.005040407180786,1.4558852,-0.57810956,-3.831383,-2.1682792538684312,nan,nan,nan,nan,5.001571178436279,0.0036995410919189453,-0.14593635,-0.4648139,0.009507873,-0.03961534021662483,0.012265771183451957,9.447015497498207,0.014573558,0.02608825,-0.77365595,1.2985442,-0.65001225,-3.0,-2.3579063,-0.3145174,-0.31344253,0.0,0.046470463,0.023196258,9.823245,0.008936453,0.022376282,-1.0899335,-0.005640427,0.7239857591289222,0.049362197518348694,0.03155625984072685,-1.2591851949691772
15.11060643196106,1.4306312,-0.6259288,-3.829983,-2.2632369938001746,nan,nan,nan,nan,5.107149600982666,0.0031425952911376953,-0.1742491,-0.4203488,0.0084555745,-0.03919915821376607,0.011233455235073686,9.453130682148032,0.013863216,0.018096048,-0.9158693,1.2640791,-0.6805209,-3.0,-2.4786625,-0.33825722,-0.2641149,0.0,0.04864821,0.02257847,9.824124,0.007671941,0.018850932,-1.1952587,-0.006060477,0.7242232802975489,0.047986265271902084,0.03085250034928322,-1.389285922050476
15.212027549743652,1.406834,-0.66267246,-3.829387,-2.3572959176922117,nan,nan,nan,nan,5.20810341835022,0.002183198928833008,-0.19597833,-0.38221437,0.005375632,-0.038958630811276374,0.008766339996236328,9.460218636207278,0.011177285,-0.0004985646,-1.042305,1.2288109,-0.7047201,-3.0,-2.6036096,-0.36033916,-0.21501128,0.0,0.050375257,0.021946853,9.824827,0.006209265,0.015343587,-1.2754939,-0.006450648,0.7244984888979972,0.0372525192797184,0.019486231729388237,-1.4977308511734009
15.302034854888916,1.3853304,-0.69040596,-3.8293664,-2.4449646918085337,nan,nan,nan,nan,5.298079252243042,0.003167390823364258,-0.21329987,-0.35087684,0.0014506595,-0.03875107239241049,0.005376114580482927,9.466911050416524,0.006486277,-0.0056073787,-1.149994,1.195524,-0.72204655,-3.0,-2.7205472,-0.37947816,-0.16994058,0.0,0.051611625,0.021351177,9.82532,0.004730108,0.012125732,-1.3185309,-0.0067885104,0.7247582450024125,0.02093718945980072,0.00845680758357048,-1.5664684772491455
15.405192136764526,1.3548948,-0.7224436,-3.829902,-2.5714353352849852,nan,nan,nan,nan,5.401410341262817,0.0026471614837646484,-0.23561797,-0.31123143,-0.004193431,-0.03908398695680404,-0.00027362216393234107,9.470792219415301,-0.004368795,-0.012043548,-1.283773,1.1552048,-0.73688096,-3.0,-2.8575492,-0.40079126,-0.11700584,0.0,0.052670047,0.020630173,9.825714,0.0028716365,0.008347768,-1.325084,-0.007164559,0.7249088447432013,0.004651753231883049,0.012866014614701271,-1.5788476467132568
15.504467964172363,1.3271686,-0.74566865,-3.8309085,-2.6886994238882034,nan,nan,nan,nan,5.500979900360107,0.0032792091369628906,-0.2554822,-0.27759418,-0.008811046,-0.03974276475250327,-0.005959214213476116,9.472953572478142,-0.010968544,-0.024233414,-1.3840762,1.114305,-0.7459555,-3.0,-2.9878905,-0.42061886,-0.06516398,0.0,0.053317446,0.019899283,9.825906,0.00096831133,0.0046487967,-1.2858417,-0.0075143725,0.7249926976476362,-0.012952663004398346,-0.009159564971923828,-1.5471570491790771
15.612947702407837,1.2867161,-0.7719028,-3.83298,-2.860472048218957,nan,nan,nan,nan,5.60956883430481,0.0033681392669677734,-0.28490224,-0.23192205,-0.011694394,-0.03942427367026502,-0.016213425019869776,9.47378138124477,-0.008059371,-0.038774546,-1.4804683,1.0674938,-0.7499373,-3.0,-3.1231937,-0.44140726,-0.008122375,0.0,0.053601503,0.019063242,9.825895,-0.0011709839,0.00057943247,-1.199804,-0.007881308,0.7250248111855219,-0.02254631742835045,0.0011677201837301254,-1.4168740510940552
15.713481187820435,1.2512523,-0.7885924,-3.834637,-3.0036281413331825,nan,nan,nan,nan,5.7100160121917725,0.0032510757446289062,-0.31210473,-0.19538139,-0.011233527,-0.03738631586339847,-0.02497583026664496,9.474094842453484,0.0022076913,-0.05417556,-1.5119272,1.0222236,-0.7480985,-3.0,3.0446575,-0.45982522,0.044713374,0.0,0.053470325,0.018255124,9.825678,-0.0031496594,-0.0031897994,-1.093565,-0.008206732,0.7250369710534073,-0.032306965440511703,-0.034320928156375885,-1.275539755821228
15.80588436126709,1.2160883,-0.80089724,-3.8363163,-3.135421317616011,nan,nan,nan,nan,5.802395820617676,0.004227876663208008,-0.3412053,-0.16283795,-0.008336972,-0.03349011128550661,-0.035227454802942315,9.474293061699715,0.0049452567,-0.062404785,-1.501412,0.97899055,-0.74173284,-3.0,2.9485936,-0.47604594,0.09303444,0.0,0.053016193,0.017483639,9.825305,-0.0049198293,-0.0066372883,-0.98538923,-0.00849374,0.7250446603216012,-0.045991845428943634,-0.04485296085476875,-1.1240017414093018
15.902519226074219,1.1746178,-0.81128895,-3.838156,-3.2761380889424263,nan,nan,nan,nan,5.898855209350586,0.0033833980560302734,-0.37916073,-0.12838897,-0.0046030045,-0.026651178134989628,-0.04830997797989767,9.474773857523683,0.013092032,-0.09885209,-1.4538132,0.93228495,-0.730348,-3.0,2.859061,-0.49222204,0.14289069,0.0,0.052203942,0.0166504,9.824745,-0.0066701784,-0.01019502,-0.8714588,-0.008780483,0.7250633108909529,-0.07227864861488342,-0.025842104107141495,-0.9511674046516418
16.011736631393433,1.1255176,-0.8197158,-3.8397205,-3.420862280426719,nan,nan,nan,nan,6.00827693939209,0.0037491321563720703,-0.42874247,-0.09233929,-0.000849775,-0.017849670733547818,-0.06055812892057344,9.475558543563817,0.014734728,-0.08903647,-1.3532993,0.87746483,-0.711668,-3.0,2.770491,-0.5095979,0.1983004,0.0,0.050871063,0.01567257,9.823914,-0.0084773395,-0.01415036,-0.7491368,-0.009089247,0.7250937486610541,-0.11386055499315262,-0.01040493045002222,-0.7677249908447266
16.11387538909912,1.0705711,-0.8251748,-3.8407004,-3.5530870649208843,nan,nan,nan,nan,6.11043381690979,0.004144906997680664,-0.48686755,-0.05563095,0.0020807502,-0.009207718444845137,-0.06988419366763376,9.47631979847792,-0.0057580434,-0.07601777,-1.2199357,0.8246189,-0.6888305,-3.0,2.6993403,-0.52485454,0.24853699,0.0,0.04924128,0.0147300195,9.822971,-0.009941344,-0.017738044,-0.6457648,-0.009361153,0.7251232763394017,-0.1457604467868805,0.005197341553866863,-0.6019489765167236
16.207764625549316,1.0237464,-0.826909,-3.841139,-3.6443363893682563,nan,nan,nan,nan,6.204034090042114,0.0021104812622070312,-0.53590214,-0.025268035,0.0033675123,-0.00462047099091345,-0.07524847141152224,9.47714567412156,-0.045516413,-0.039857797,-1.1009996,0.7748711,-0.6634745,-3.0,2.6429217,-0.5379905,0.29297778,0.0,0.04743147,0.013842714,9.821987,-0.011055065,-0.020913439,-0.5614188,-0.009595983,0.7251553091957542,-0.1642960160970688,-0.01067718118429184,-0.4829402565956116
16.302148818969727,0.96243614,-0.82554626,-3.8412435,-3.7405101086626904,nan,nan,nan,nan,6.298163652420044,0.0026216506958007812,-0.59580946,0.015587015,0.0045389966,-0.0026545762610150625,-0.07852699914936578,9.477618807465761,-0.07821889,-0.019208025,-0.94854975,0.72364116,-0.63386333,-3.0,2.5936809,-0.5503668,0.33585358,0.0,0.04531755,0.012928888,9.820904,-0.011925946,-0.023978718,-0.4864028,-0.009817939,0.7251736597709605,-0.188762366771698,0.01104353740811348,-0.36318397521972656
16.40462875366211,0.8956225,-0.8204555,-3.8410041,-3.8217229685847123,nan,nan,nan,nan,6.40114164352417,0.0035178661346435547,-0.6533814,0.0621309,0.005107402,-0.005025185384053277,-0.08088792678412249,9.47785106761846,-0.11840967,0.0031844887,-0.79533327,0.66630983,-0.5969632,-3.0,2.5473738,-0.56292593,0.38035962,0.0,0.042682704,0.011906063,9.819639,-0.012565868,-0.027162587,-0.41464266,-0.01004397,0.7251826678616973,-0.19754402339458466,0.016406424343585968,-0.2574281096458435
16.50504755973816,0.8237194,-0.8108572,-3.8405554,-3.8878149360010816,nan,nan,nan,nan,6.50156044960022,0.003791332244873047,-0.70417184,0.1159217,0.0058776904,-0.011658605495880714,-0.0804544428501861,9.4781019084854,-0.13276704,0.014036797,-0.6405567,0.6092089,-0.5567019,-3.0,2.5088625,-0.5741645,0.4210374,0.0,0.03980718,0.010887123,9.81836,-0.012856007,-0.030074647,-0.35375032,-0.010246998,0.7251923964719218,-0.18770012259483337,0.01296933926641941,-0.17028039693832397
16.606435775756836,0.7479157,-0.79518276,-3.8396652,-3.9398847140435285,nan,nan,nan,nan,6.602503538131714,0.002763986587524414,-0.74530154,0.1778124,0.007223535,-0.020421746546625208,-0.08108329093099842,9.47851915657054,-0.14383993,-0.0037575462,-0.50094926,0.55072355,-0.51226217,-3.0,2.475915,-0.58443815,0.45892587,0.0,0.03663247,0.009843202,9.817061,-0.012805168,-0.032788973,-0.30021763,-0.010433288,0.7252085787332347,-0.16617220640182495,0.022366849705576897,-0.09623539447784424
16.707853078842163,0.6755183,-0.77454686,-3.8384187,-3.9765797145162547,nan,nan,nan,nan,6.704394102096558,0.004374027252197266,-0.7748602,0.24212061,0.009600051,-0.029627629461498994,-0.08143414191007725,9.479439545669587,-0.13661775,0.020216947,-0.3825623,0.49069145,-0.46369368,-3.0,2.4477973,-0.59374857,0.4938427,0.0,0.033161957,0.008771356,9.815775,-0.012405092,-0.035292234,-0.25269237,-0.01060274,0.7252442732085115,-0.1378900706768036,0.024384502321481705,-0.038186222314834595
16.81044912338257,0.58177096,-0.7391296,-3.8362558,-4.00991920411524,nan,nan,nan,nan,6.806959867477417,0.004134416580200195,-0.79864657,0.3317759,0.014396886,-0.040939917999932796,-0.079782449261534,9.480421467241825,-0.12029986,0.035334688,-0.25808883,0.4293589,-0.41139373,-3.0,2.4240968,-0.60202855,0.52535856,0.0,0.02942392,0.0076759504,9.814538,-0.011658027,-0.037553288,-0.21027337,-0.010753979,0.7252823521220633,-0.08405394107103348,0.06889194995164871,0.014439120888710022
16.90329384803772,0.51407516,-0.70672864,-3.8346817,-4.0262661958648325,nan,nan,nan,nan,6.899368762969971,0.0030083656311035156,-0.80632555,0.39977324,0.01850975,-0.04797606326717374,-0.0770998749148375,9.482152116340579,-0.09407133,0.05397128,-0.18126981,0.37341863,-0.36166248,-3.0,2.406281,-0.60853744,0.5504397,0.0,0.025868708,0.006676555,9.813502,-0.010705134,-0.039353855,-0.17584908,-0.010873251,0.7253494618848176,-0.048357732594013214,0.06791190057992935,0.04769298434257507
17.01003360748291,0.42665365,-0.65636957,-3.832442,-4.039512898878913,nan,nan,nan,nan,7.006762504577637,0.004979133605957031,-0.80602825,0.48847723,0.024704609,-0.05405753987131856,-0.07110709851168884,9.484118146677497,-0.044357188,0.08202987,-0.09545108,0.3077097,-0.30116552,-3.0,2.3893812,-0.6149559,0.5754363,0.0,0.021543004,0.0055023,9.812426,-0.0092933215,-0.041149437,-0.13945457,-0.010991212,0.7254256916479259,-0.004462450742721558,0.08764758706092834,0.07659393548965454
17.114412546157837,0.34711632,-0.6010743,-3.8298786,-4.045075974325013,nan,nan,nan,nan,7.111000061035156,0.003988742828369141,-0.7974235,0.5672518,0.03091701,-0.05641005270236232,-0.06329069603842452,9.486815835763695,-0.012721585,0.094717965,-0.032877352,0.24333514,-0.24011193,-3.0,2.376556,-0.6199959,0.59524834,0.0,0.01717668,0.0043515726,9.811541,-0.007648831,-0.04257339,-0.10703332,-0.011084091,0.7255302774813891,0.02513112500309944,0.09147639572620392,0.09603286534547806
17.21620464324951,0.2817217,-0.5488476,-3.8270967,-4.045711560291689,nan,nan,nan,nan,7.212738037109375,0.004064083099365234,-0.7857297,0.6287149,0.036284916,-0.0562633442769771,-0.05575484059994418,9.489271741439582,0.0124950465,0.093237296,0.01094952,0.1800562,-0.17875427,-3.0,2.3671858,-0.6237754,0.6102117,0.0,0.012787951,0.0032201738,9.810853,-0.0058289585,-0.043649342,-0.07745523,-0.011153894,0.7256254767622575,0.0397748239338398,0.07847331464290619,0.11101716011762619
17.31174325942993,0.2367702,-0.5095379,-3.8247383,-4.044250369807342,nan,nan,nan,nan,7.308270454406738,0.0035130977630615234,-0.77547276,0.6682253,0.0402513,-0.05514013983845656,-0.05036712928033382,9.49108147815335,0.028483799,0.092628144,0.038439993,0.12033737,-0.11994948,-3.0,2.361058,-0.6262933,0.6202308,0.0,0.008581356,0.0021522467,9.810385,-0.003971934,-0.044370007,-0.051006995,-0.01120047,0.7256956204466928,0.04227391257882118,0.045997608453035355,0.12657830119132996
17.408912420272827,0.14973615,-0.4255142,-3.8193686,-4.037724513053346,nan,nan,nan,nan,7.39700984954834,0.0028493404388427734,-0.75127834,0.73756105,0.04749318,-0.05142809919880609,-0.04071182981838861,9.494661711384536,0.04136203,0.07201379,0.079574935,0.06469006,-0.06462987,-3.0,2.3575926,-0.627734,0.62598133,0.0,0.004623793,0.0011570202,9.810112,-0.002158835,-0.044783734,-0.027189944,-0.011227147,0.7258343672041074,0.07004182785749435,0.08159160614013672,0.12925440073013306
17.505255222320557,0.078037284,-0.34856415,-3.814644,-4.029184703466413,nan,nan,nan,nan,7.5013885498046875,0.0019328594207763672,-0.7285353,0.786497,0.052757245,-0.046453126826568436,-0.032181631088808116,9.498409795244218,0.06534515,0.090270124,0.10727499,-0.0008727431,0.00087274297,-3.0,2.3561947,-0.6283184,0.62831813,0.0,-6.2438805e-05,-1.5609703e-05,9.81,2.9255014e-05,-0.04495187,0.00036557406,-0.011237973,0.7259795907450188,0.0800071731209755,0.08138147741556168,0.13795779645442963
17.607783555984497,0.009153199,-0.26842764,-3.8096797,-4.018584583065961,nan,nan,nan,nan,7.604292392730713,0.003537416458129883,-0.70482373,0.82414097,0.057773978,-0.03973616455053941,-0.022700395463824297,9.502665111687957,0.078336895,0.08953279,0.12889989,-0.065508515,0.06544602,-3.0,2.357628,-0.6277191,0.6259218,0.0,-0.004682182,-0.0011716585,9.810115,0.0021859005,-0.04477945,0.027536351,-0.01122687,0.7261444328309002,0.08119970560073853,0.06822307407855988,0.14618363976478577
17.71990466117859,-0.073098615,-0.16566998,-3.802519,-4.0032089475447314,nan,nan,nan,nan,7.71638822555542,0.0035047531127929688,-0.6752507,0.8540616,0.06362564,-0.030162081694499188,-0.011409939691702675,9.508198424917639,0.08346678,0.08535374,0.1459171,-0.13577521,0.13521785,-3.0,2.3623986,-0.6257392,0.61802256,0.0,-0.009673613,-0.002428329,9.810489,0.004462482,-0.044211157,0.05773764,-0.011190214,0.7263587266574278,0.07474397867918015,0.05530102550983429,0.15382635593414307
17.805651903152466,-0.12029432,-0.10351562,-3.7978342,-3.993136811411132,nan,nan,nan,nan,7.802153587341309,0.003661632537841797,-0.6577932,0.86322755,0.06671304,-0.024353232205325703,-0.005507201562761077,9.512959640440522,0.080076635,0.06752768,0.1572447,-0.18934256,0.18782806,-3.0,2.368371,-0.6232928,0.6082958,0.0,-0.0134370085,-0.0033862232,9.810943,0.006106721,-0.043511555,0.081681386,-0.011144971,0.726543068824663,0.06921390444040298,0.03592269495129585,0.1673537939786911
17.90770721435547,-0.17615221,-0.027575795,-3.7917302,-3.980063799485896,nan,nan,nan,nan,7.904215097427368,0.003657817840576172,-0.63755226,0.8666687,0.070375636,-0.017468352105838303,-3.765401030553228e-05,9.518911157664833,0.07485803,0.049017485,0.16603674,-0.25276423,0.24914971,-3.0,2.3782194,-0.6193336,0.59263575,0.0,-0.017823074,-0.00452014,9.811659,0.007903958,-0.042385574,0.11161687,-0.011071873,0.7267734315892187,0.060360994189977646,0.013709592632949352,0.18820682168006897
18.01235818862915,-0.2303762,0.04761472,-3.7850416,-3.9661347159494325,nan,nan,nan,nan,8.008869647979736,0.003554105758666992,-0.6198735,0.86322165,0.07362952,-0.011180381021716812,0.0031811329086774975,9.526337852892455,0.06565032,0.02303798,0.17490897,-0.31731665,0.31013525,-3.0,2.3916008,-0.61409867,0.5720827,0.0,-0.02218442,-0.005674002,9.8125725,0.009517754,-0.040908474,0.14454414,-0.010975436,0.7270607924425203,0.05349783971905708,0.0022068051621317863,0.21627363562583923
18.10760521888733,-0.28810897,0.12827459,-3.7775457,-3.949789365969666,nan,nan,nan,nan,8.104174375534058,0.004162788391113281,-0.6040898,0.8530774,0.07630112,-0.004986872823470101,0.0049462203193468834,9.533109799963409,0.059707854,0.00865708,0.190346,-0.37557533,0.363612,-3.0,2.4069066,-0.60830456,0.54953754,0.0,-0.026008092,-0.0067150905,9.81354,0.010746332,-0.039289072,0.177112,-0.010868977,0.7273227215292355,0.04567718505859375,0.010308493860065937,0.2447117269039154
18.210883378982544,-0.3447925,0.20704179,-3.769737,-3.9318007781165747,nan,nan,nan,nan,8.207013368606567,0.0021047592163085938,-0.5920445,0.8382765,0.078375496,0.0007373891455373371,0.005977686068317611,9.540160528835827,0.05650498,0.010829564,0.20722117,-0.43776485,0.41870725,-3.0,2.4270737,-0.60096544,0.5212877,0.0,-0.02994669,-0.007826102,9.814701,0.011779534,-0.037261136,0.21577257,-0.010734532,0.7275953346548084,0.03840513527393341,0.01991145685315132,0.283679336309433
18.303020477294922,-0.39201143,0.27109945,-3.7629955,-3.9154119194687595,nan,nan,nan,nan,8.29916787147522,0.0018432140350341797,-0.5852024,0.8225318,0.079488665,0.005088221969285822,0.007237190359525414,9.548185965237197,0.047413476,0.019273069,0.22416852,-0.49280638,0.46545115,-3.0,2.4487004,-0.5934411,0.49268097,0.0,-0.033287548,-0.008809122,9.815819,0.012424917,-0.03520892,0.25425723,-0.010597135,0.7279055118283679,0.033033497631549835,0.02531879022717476,0.32536858320236206
18.40436339378357,-0.45314065,0.35168535,-3.754184,-3.8918575972889196,nan,nan,nan,nan,8.400432109832764,0.0021467208862304688,-0.5784775,0.7973739,0.08016356,0.010102140754007172,0.009543031265081048,9.557796194818792,0.04349153,0.026368704,0.25069347,-0.55243987,0.5136087,-3.0,2.476799,-0.58415383,0.4578684,0.0,-0.036728673,-0.009873842,9.8171,0.012811528,-0.03271319,0.30167878,-0.010428122,0.7282767686263153,0.021645985543727875,0.039046868681907654,0.3741800785064697
18.502090454101562,-0.50013906,0.41155586,-3.7475064,-3.8715557554618965,nan,nan,nan,nan,8.498129844665527,0.002413034439086914,-0.5742702,0.7748634,0.07955129,0.013620294666601529,0.011728476838203772,9.566684394520697,0.03901015,0.03368189,0.27827752,-0.6090317,0.5565719,-3.0,2.5087535,-0.57419753,0.42115796,0.0,-0.0397979,-0.010883959,9.8183565,0.012856376,-0.030083276,0.35357562,-0.010247594,0.7286199662824944,0.0205003060400486,0.041132017970085144,0.4349931478500366
18.60342311859131,-0.5613683,0.4862437,-3.7390006,-3.8415653902672178,nan,nan,nan,nan,8.599478483200073,0.0016527175903320312,-0.56934005,0.7405227,0.07793152,0.0179146469884659,0.015250320852834731,9.57480488066095,0.034842044,0.04287717,0.31956184,-0.66665995,0.59719974,-3.0,2.5476317,-0.56285316,0.38009894,0.0,-0.042699598,-0.0119123105,9.819647,0.01256303,-0.027143935,0.41504642,-0.010042659,0.7289333810812625,0.010049374774098396,0.04890628904104233,0.5012523531913757
18.70261573791504,-0.618348,0.5511501,-3.7317188,-3.809821316141276,nan,nan,nan,nan,8.698709964752197,0.0018310546875,-0.5646362,0.70345443,0.07546011,0.021539928022832777,0.01895315065511971,9.580176984486164,0.028434658,0.046582863,0.36635506,-0.7219203,0.63281137,-3.0,2.592164,-0.55076313,0.33724287,0.0,-0.045242444,-0.012898189,9.820866,0.011950297,-0.024078075,0.48407233,-0.00982506,0.7291406474560023,0.0036353394389152527,0.04853405803442001,0.5786594152450562
18.80428695678711,-0.6799269,0.61724406,-3.7244916,-3.770154929008976,nan,nan,nan,nan,8.80042839050293,0.0023453235626220703,-0.55839735,0.6580283,0.071620606,0.025323878924272458,0.022670741160548014,9.586577076581301,0.026122073,0.043857086,0.42334053,-0.7772714,0.6647777,-3.0,2.6454363,-0.53738266,0.2908971,0.0,-0.047524493,-0.013885526,9.822036,0.011007356,-0.020764735,0.565216,-0.0095851,0.7293874998062061,-0.005193892866373062,0.04785237833857536,0.6687742471694946
18.90679097175598,-0.731238,0.66980416,-3.718942,-3.7315744690722052,nan,nan,nan,nan,8.903520584106445,0.002405881881713867,-0.55120075,0.6167471,0.06735443,0.028377283712462287,0.02539510859791405,9.592109640059055,0.020032851,0.04439135,0.47899148,-0.83192945,0.6922518,-3.0,2.7084458,-0.5228264,0.24177334,0.0,-0.049485456,-0.014860407,9.823109,0.009755796,-0.017254908,0.6591978,-0.009324959,0.7296008250740251,0.0013054609298706055,0.04332739859819412,0.7835380434989929
19.010523080825806,-0.79483485,0.7317503,-3.712196,-3.6745013597497853,nan,nan,nan,nan,8.996666431427002,0.002153158187866211,-0.53906727,0.560853,0.06001312,0.03271530639581144,0.027869563446481393,9.596562182237388,0.031212926,0.033313554,0.5639031,-0.8799829,0.7126425,-3.0,2.7742085,-0.5088355,0.19582886,0.0,-0.0509406,-0.01571748,9.823956,0.008400597,-0.013973894,0.75442713,-0.009075679,0.7297724620718378,0.006213309243321419,0.03992778807878494,0.8973650932312012
19.10617232322693,-0.8386475,0.7721704,-3.707678,-3.6271767850385985,nan,nan,nan,nan,9.102942705154419,0.004488945007324219,-0.5287533,0.51833105,0.05379455,0.03662642580046338,0.028873745572757015,9.599091729247005,0.03199053,0.035435658,0.63474804,-0.9331702,0.73060423,-3.0,2.8606308,-0.49192762,0.14196837,0.0,-0.052222222,-0.016666193,9.824757,0.0066387267,-0.010129193,0.87354875,-0.008775258,0.7298699535425953,0.010919896885752678,0.031271062791347504,1.039651870727539
19.21243977546692,-0.90732485,0.8317252,-3.7015808,-3.5351232916293625,nan,nan,nan,nan,9.208958148956299,0.003794431686401367,-0.5095311,0.44254562,0.04086482,0.04483789885318634,0.028359058439231477,9.600490262238301,0.04876807,0.017517932,0.7692563,-0.9843849,0.74275565,-3.0,2.9598594,-0.47409007,0.087119155,0.0,-0.05308916,-0.017579887,9.825359,0.00470632,-0.0062152306,0.9988906,-0.008459109,0.7299238489986745,-0.014159654267132282,0.030393730849027634,1.1717153787612915
19.30336618423462,-0.9488895,0.86265844,-3.6990857,-3.466867297743997,nan,nan,nan,nan,9.299853324890137,0.003635406494140625,-0.49670628,0.38909042,0.030703072,0.050381360075177684,0.026782885704301984,9.600090981845272,0.034464024,0.016806984,0.86806554,-1.0267538,0.7485143,-3.0,3.0555074,-0.4580508,0.0395291,0.0,-0.053499985,-0.018335976,9.825708,0.0029568647,-0.0028199502,1.1047261,-0.008175361,0.7299084622762774,-0.004544076044112444,0.00684706587344408,1.3048293590545654
19.40888810157776,-1.0009061,0.8948023,-3.699683,-3.3543690152466326,nan,nan,nan,nan,9.405382871627808,0.0035381317138671875,-0.47626048,0.30762675,-0.03821419,0.05719392228822606,0.02046877923779311,9.595842085920735,0.037665125,-0.017017217,1.0150708,-1.0740732,0.74975705,-3.0,-3.1051478,-0.43859792,-0.015991734,0.0,-0.05358864,-0.01918072,9.825911,0.00087492564,0.001140817,1.2138041,-0.007831703,0.7297447064334884,-0.019488884136080742,0.010197301395237446,1.429589033126831
19.513259172439575,-1.0361656,0.91227335,-3.7083232,-3.260036003880642,nan,nan,nan,nan,9.509787321090698,0.0032591819763183594,-0.46150783,0.24583068,-0.08863953,0.06205829007837127,0.01342865383796199,9.577957165532272,0.04511921,-0.035107747,1.1303848,-1.1188233,0.74522346,-3.0,-2.9740095,-0.41850916,-0.070799135,0.0,-0.05326522,-0.01998,9.825894,-0.0011778832,0.0050508375,1.292111,-0.0074771475,0.7290550095039398,0.005118501838296652,-0.005100255832076073,1.5494284629821777
19.61325764656067,-1.0760913,0.92669386,-3.7252033,-3.1351420088416906,nan,nan,nan,nan,9.609891891479492,0.003612995147705078,-0.4460569,0.17005005,-0.13321847,0.06761831825868558,0.002135933395317924,9.565439459376496,0.048986193,-0.044659745,1.2676418,-1.1597221,0.7355254,-3.0,-2.8425617,-0.3984957,-0.12284622,0.0,-0.05257333,-0.02071093,9.825681,-0.0030817164,0.00876454,1.3267511,-0.0071240603,0.7285719055420362,0.003649401478469372,0.007267749402672052,1.6011061668395996
19.708714723587036,-1.1088164,0.9340307,-3.7422483,-3.0184415105244544,nan,nan,nan,nan,9.704947233200073,0.003873586654663086,-0.43612558,0.1036933,-0.16044544,0.07180621542141186,-0.0095844769207023,9.538870399885338,0.05391736,-0.045938615,1.3751528,-1.1966722,0.72152954,-3.0,-2.7165556,-0.3788426,-0.17147475,0.0,-0.05157474,-0.021371717,9.825306,-0.004782224,0.012235246,1.3176153,-0.006777294,0.7275454599558664,0.01790837198495865,0.006233494728803635,1.6114236116409302
19.803190231323242,-1.1377,0.9362568,-3.7582428,-2.9044695183721227,nan,nan,nan,nan,9.7997145652771,0.00450897216796875,-0.42905247,0.040873334,-0.17763855,0.07439483603863661,-0.020794215828395357,9.511371370845003,0.047925603,-0.029203746,1.4584184,-1.2316221,0.7030236,-3.0,-2.5936553,-0.3586512,-0.21887435,0.0,-0.050254192,-0.021997182,9.824778,-0.006330511,0.015619452,1.270334,-0.0064208386,0.7264815801902881,0.038857243955135345,0.008013402111828327,1.5833439826965332
19.917572021484375,-1.1771932,0.93144333,-3.7798884,-2.73513717691898,nan,nan,nan,nan,9.913677215576172,0.005167245864868164,-0.42058566,-0.05091543,-0.19020821,0.0743542388791949,-0.03636015330175324,9.484285026185674,0.034353994,-0.028233478,1.5417417,-1.2710761,0.6749166,-3.0,-2.45397,-0.33362487,-0.27402192,0.0,-0.0482482,-0.022703847,9.823961,-0.007944147,0.019558799,1.175713,-0.005978565,0.7254321617770387,0.046039581298828125,0.04053131118416786,1.474649429321289
20.00199294090271,-1.2050719,0.9221262,-3.7937734,-2.6098553751735722,nan,nan,nan,nan,9.998148918151855,0.002710103988647461,-0.41484296,-0.1184159,-0.19205114,0.07185283110932383,-0.04606607182428801,9.455891768329307,0.024854505,-0.018613942,1.5692593,-1.2984567,0.65009934,-3.0,-2.3582091,-0.31458074,-0.31331575,0.0,-0.04647668,-0.02319469,9.823248,-0.008933514,0.022367219,1.0902259,-0.005641548,0.7243304990493074,0.05203718692064285,0.002407791092991829,1.3661335706710815
20.105857133865356,-1.24112,0.90198237,-3.8093631,-2.4462017444854967,nan,nan,nan,nan,10.10188341140747,0.0018880367279052734,-0.40763295,-0.20768015,-0.18592526,0.06588322840257432,-0.060746127006954254,9.42876324891345,0.01728286,-0.05115975,1.5600871,-1.3298533,0.61518556,-3.0,-2.2508335,-0.290658,-0.35940376,0.0,-0.043983944,-0.023758007,9.822269,-0.009876438,0.025663177,0.9798896,-0.005217514,0.7232763621923154,0.054350435733795166,0.03997821360826492,1.2139344215393066
20.205687284469604,-1.2740793,0.8749111,-3.8214262,-2.2980011129211224,nan,nan,nan,nan,10.201760292053223,0.0023217201232910156,-0.40215558,-0.29232523,-0.17491572,0.057328169663361406,-0.07232983322616549,9.406657269590065,-0.0018775372,-0.028927572,1.5096416,-1.3577116,0.5771787,-3.0,-2.158153,-0.2671054,-0.40121943,0.0,-0.04126975,-0.02425831,9.82125,-0.010477701,0.02865565,0.87714624,-0.0047992095,0.7224162650673752,0.05987446755170822,0.05154208093881607,1.0663567781448364
20.305163145065308,-1.2984827,0.8494276,-3.8288667,-2.190722021431059,nan,nan,nan,nan,10.301273584365845,0.0020186901092529297,-0.39870083,-0.3556428,-0.16449532,0.04914273424197546,-0.07879303317335018,9.389342506669925,-0.007792889,-0.006495902,1.4506168,-1.3831048,0.53529406,-3.0,-2.0755987,-0.24317403,-0.44009042,0.0,-0.038277928,-0.024714772,9.82019,-0.010762095,0.031439353,0.7838151,-0.0043732654,0.7217418780487077,0.09002059698104858,0.03802497684955597,0.9549686908721924
20.40613079071045,-1.3335909,0.8047287,-3.83725,-2.044447672032372,nan,nan,nan,nan,10.40264105796814,0.004027128219604492,-0.39436415,-0.44544244,-0.14784011,0.03662515044033454,-0.08301645326055462,9.375336510383057,-0.0041342443,0.03600794,1.3374563,-1.4065008,0.4888075,-3.0,-2.0004673,-0.21836236,-0.47654164,0.0,-0.034956593,-0.025135722,9.819098,-0.010722402,0.034051657,0.7006308,-0.0039306525,0.7211959080367767,0.11206798255443573,0.0811409130692482,0.807386040687561
20.50670599937439,-1.3683059,0.7507807,-3.8428137,-1.9110586849728763,nan,nan,nan,nan,10.503211259841919,0.003993034362792969,-0.38778877,-0.5299504,-0.13053799,0.02674809975991921,-0.08010528955884455,9.368722409524485,0.01594781,0.07360852,1.201642,-1.4272072,0.4392045,-3.0,-1.9336313,-0.1933569,-0.5093124,0.0,-0.031411752,-0.025508607,9.818036,-0.01035747,0.036401883,0.6305655,-0.0034835516,0.7209379409366892,0.11688489466905594,0.08579634130001068,0.6680812835693359
20.612053155899048,-1.4016752,0.68928677,-3.8454053,-1.7919040117328024,nan,nan,nan,nan,10.608520746231079,0.004129886627197266,-0.3763507,-0.6056872,-0.11329941,0.020935654491767042,-0.07494629048945556,9.36542338396655,0.044199217,0.06254442,1.0628022,-1.4461744,0.38393077,-3.0,-1.8705285,-0.16680616,-0.53975105,0.0,-0.027460722,-0.025850462,9.81698,-0.009641335,0.03858639,0.5699617,-0.003007729,0.7208092363406104,0.12618030607700348,0.09072736650705338,0.5465746521949768
20.710662841796875,-1.4302415,0.62743115,-3.8450015,-1.6944886292472177,nan,nan,nan,nan,10.707192420959473,0.003320455551147461,-0.35916644,-0.6678303,-0.097486414,0.019336740540341624,-0.06994435477209326,9.36437047546962,0.0628993,0.072252415,0.93145597,-1.4613938,0.32942188,-3.0,-1.8166364,-0.14163321,-0.5644657,0.0,-0.023563525,-0.026124986,9.816074,-0.0086818095,0.040361248,0.5240427,-0.0025556302,0.720768154541565,0.1312676966190338,0.09400676935911179,0.4521094262599945
20.814532995224,-1.4585284,0.5558874,-3.8418605,-1.6025113567822622,nan,nan,nan,nan,10.810821056365967,0.002761363983154297,-0.3327947,-0.72580075,-0.07972584,0.021056597046519965,-0.06302198180765939,9.365686409429179,0.08259165,0.08587194,0.7956182,-1.4746898,0.26975983,-3.0,-1.7643877,-0.1149361,-0.58626884,0.0,-0.019297078,-0.026364978,9.815238,-0.0074052084,0.041927915,0.48598042,-0.0020752368,0.7208194985615479,0.128919780254364,0.09229134023189545,0.36711710691452026
20.90570378303528,-1.4778138,0.4980376,-3.8372781,-1.5409723903347503,nan,nan,nan,nan,10.90190315246582,0.002015829086303711,-0.3061705,-0.763081,-0.0653763,0.024675930211509156,-0.05723459111443607,9.37049506842391,0.09145645,0.08558925,0.6952321,-1.4840828,0.21562833,-3.0,-1.7213472,-0.09129091,-0.6017905,0.0,-0.015425512,-0.026534611,9.814623,-0.0060875854,0.04304376,0.46026012,-0.0016490783,0.7210070881642924,0.12774400413036346,0.06996437907218933,0.31647056341171265
21.007739782333374,-1.4975781,0.425787,-3.8300474,-1.4770692371715337,nan,nan,nan,nan,11.00390911102295,0.002009153366088867,-0.267062,-0.79922384,-0.048338298,0.030242912545623057,-0.05088340967008809,9.377944036268158,0.09071344,0.07865488,0.584243,-1.4920377,0.15352952,-3.0,-1.675537,-0.06465349,-0.61501294,0.0,-0.010983549,-0.026678337,9.814084,-0.0044365497,0.043994673,0.43923405,-0.0011683723,0.721297583304856,0.11351567506790161,0.059093598276376724,0.2703521251678467
21.106030702590942,-1.5098108,0.36994904,-3.8237693,-1.4358095103298707,nan,nan,nan,nan,11.102144479751587,0.002215862274169922,-0.2328271,-0.8205904,-0.035844073,0.03498975209035271,-0.04685793728397547,9.382984770454925,0.091504104,0.06938815,0.5112941,-1.4971242,0.09266217,-3.0,-1.6330869,-0.0388888,-0.62350464,0.0,-0.006629248,-0.026770271,9.813732,-0.002717253,0.044605542,0.42615154,-0.0007029557,0.7214940966075312,0.11394771933555603,0.032341212034225464,0.25352293252944946
21.206666469573975,-1.5240474,0.2747737,-3.811755,-1.3780916871447175,nan,nan,nan,nan,11.203197717666626,0.0034079551696777344,-0.16746715,-0.8465141,-0.014888243,0.043986178199474146,-0.0423495082280132,9.394460399665396,0.09428491,0.042894535,0.40702304,-1.4997118,0.029398758,-3.0,-1.5904118,-0.012316889,-0.62783563,0.0,-0.0021032775,-0.026817044,9.813551,-0.0008685048,0.044917155,0.41960385,-0.00022267076,0.721941277870662,0.053761232644319534,0.06154194846749306,0.2259392887353897
21.314210414886475,-1.5292293,0.19729817,-3.8008912,-1.3398815597663676,nan,nan,nan,nan,11.310256958007812,0.003812074661254883,-0.10784956,-0.85967976,0.0020567807,0.04958368154693005,-0.038571053564957936,9.409682245024007,0.055273786,0.058378693,0.34184304,-1.4995222,-0.037845284,-3.0,-1.5455313,0.015857648,-0.6275181,0.0,0.0027075652,-0.026813617,9.813564,0.0011174293,0.04489431,0.4200811,0.00028667945,0.7225340201347163,0.02624969556927681,0.060071785002946854,0.2289571762084961
21.413087129592896,-1.5282296,0.11942163,-3.788499,-1.3069448443888263,nan,nan,nan,nan,11.409594058990479,0.002985239028930664,-0.0450458,-0.86563635,0.018540788,0.052368847662114026,-0.034111595400087236,9.424075002886811,0.028889328,0.06235833,0.2943709,-1.4966495,-0.09997752,-3.0,-1.5034957,0.04197224,-0.622711,0.0,0.007152587,-0.026761688,9.813766,0.0029277778,0.04454844,0.4273605,0.0007586734,0.7230940367193351,-0.001252792775630951,0.06951183080673218,0.2416253536939621
21.51289701461792,-1.5201019,0.03494982,-3.7734735,-1.2754002927162504,nan,nan,nan,nan,11.509427309036255,0.003539562225341797,0.023655035,-0.8642281,0.0354616,0.05331241417416699,-0.0286222073752187,9.441457753546993,0.0071545974,0.071563125,0.26061973,-1.491152,-0.16172299,-3.0,-1.4601817,0.06814433,-0.6135374,0.0,0.01156966,-0.026662333,9.814145,0.0046613095,0.04388853,0.44154075,0.0012314004,0.7237698229392618,-0.03149605542421341,0.08658638596534729,0.2632569372653961
21.60237193107605,-1.5079114,-0.036094908,-3.7601292,-1.25072788873737,nan,nan,nan,nan,11.59852933883667,0.003716707229614258,0.07976508,-0.8567447,0.04850795,0.05252845492717961,-0.0227178664914629,9.457632212110322,-0.016787233,0.08924332,0.24633603,-1.4840431,-0.21589005,-3.0,-1.4200451,0.09140416,-0.6017246,0.0,0.01544423,-0.026533892,9.814625,0.0060942597,0.043039024,0.46036685,0.0016511208,0.7243980760783856,-0.045070260763168335,0.09369322657585144,0.2933410108089447
21.703649044036865,-1.4895598,-0.11265683,-3.7448628,-1.224647782866937,nan,nan,nan,nan,11.69978141784668,0.0022382736206054688,0.13641693,-0.8417058,0.061029397,0.04994399249190362,-0.014922292607626675,9.472136693664352,-0.024905806,0.09307864,0.24367413,-1.4734564,-0.27596653,-3.0,-1.3720328,0.117679,-0.58423793,0.0,0.019740956,-0.026342705,9.815318,0.007547402,0.041781947,0.48942986,0.002124633,0.7249610067445563,-0.048581719398498535,0.09250485897064209,0.3385758101940155
21.81220769882202,-1.4686648,-0.18123172,-3.7296364,-1.2007052632751052,nan,nan,nan,nan,11.809061527252197,0.005227565765380859,0.18284962,-0.8212379,0.0713628,0.04737051214549948,-0.007535223816468095,9.496388314284841,-0.028469147,0.09772411,0.25346944,-1.4590576,-0.33856696,-3.0,-1.3163818,0.14579816,-0.5606551,0.0,0.024217421,-0.026082834,9.816216,0.008857957,0.04008752,0.5309298,0.002630493,0.7259012698509132,-0.03526248037815094,0.08421488851308823,0.4059605002403259
21.91458249092102,-1.4355288,-0.27114743,-3.7080278,-1.1660326117243796,nan,nan,nan,nan,11.911086797714233,0.003786325454711914,0.23623917,-0.78351134,0.08245445,0.04375747380905182,0.0023834428702182997,9.513461570807259,-0.026482066,0.088778414,0.28450495,-1.4428548,-0.39446273,-3.0,-1.2597868,0.17177631,-0.53439456,0.0,0.028213628,-0.025790611,9.817171,0.009799605,0.038201854,0.5803042,0.0030968825,0.7265624996048954,-0.04220861196517944,0.07387196272611618,0.46929800510406494
22.018200159072876,-1.4061347,-0.33932787,-3.6903596,-1.1352707095412775,nan,nan,nan,nan,12.014665603637695,0.0047566890716552734,0.27141142,-0.7463831,0.08910199,0.04214537893157999,0.009143466800552558,9.526127442934078,-0.01119701,0.07846737,0.32189333,-1.4237101,-0.44826102,-3.0,-1.1965845,0.1978287,-0.5037442,0.0,0.03205903,-0.025445608,9.818222,0.01044562,0.036002427,0.6421271,0.0035635827,0.727052652599623,-0.0292121022939682,0.06332091987133026,0.5580253601074219
22.115257740020752,-1.3749582,-0.4030965,-3.6719773,-1.1005262258406672,nan,nan,nan,nan,12.111782312393188,0.0036323070526123047,0.300662,-0.703053,0.09438957,0.04238644476022979,0.014776291947678377,9.544343557872338,0.00661762,0.06681842,0.37065187,-1.4033251,-0.495646,-3.0,-1.1309388,0.22191831,-0.47155815,0.0,0.035445236,-0.02507856,9.819254,0.0107483305,0.033694398,0.7116975,0.003994149,0.7277570219009805,-0.027180537581443787,0.05008411034941673,0.6535474061965942
22.20336627960205,-1.3448433,-0.45700336,-3.654656,-1.0639857931813301,nan,nan,nan,nan,12.199713468551636,0.0031833648681640625,0.32416803,-0.6584865,0.09696878,0.043486501704257385,0.01837984197716791,9.564045851149125,0.007529383,0.050231393,0.4284235,-1.3828641,-0.5357292,-3.0,-1.065218,0.24341409,-0.4397186,0.0,0.038309015,-0.024710443,9.820202,0.010760841,0.031412717,0.78468835,0.0043775425,0.7285181015646739,-0.027386274188756943,0.041209280490875244,0.7528859972953796
