time,x,y,z,yaw,platform,trajectory,controller,feedforward,traj_time,comp_time,vx,vy,vz,roll,pitch,f,p,q,r,x_ref,y_ref,z_ref,yaw_ref,vx_ref,vy_ref,vz_ref,roll_ref,pitch_ref,f_ref,u_ff_df,u_ff_dphi,u_ff_dpsi,u_ff_dth,throttle,p_cmd,q_cmd,r_cmd
10.03312349319458,0.009978546,0.024028154,-2.6328635,0.014629208462318896,SIM,figure_eight,contraction,0.0,0.03187155723571777,0.0001671314239501953,-0.01417734,-0.015987512,-0.19079845,-0.003690466540220042,0.0003010787723984887,9.812412660121918,0.010028133,-0.0015266105,-0.021536754,0.0400483,0.040040273,-3.0,0.0,1.2563851,1.2556294,0.0,-0.0064452793,0.0016116304,9.810217,0.013579033,-0.20211297,0.0,0.05055747,0.7380458569384081,2.056440591812134,-2.1564202308654785,-0.05823231115937233
10.106920003890991,0.008336442,0.02128188,-2.647832,0.011849246686276117,nan,nan,nan,nan,0.10587334632873535,0.00040030479431152344,-0.012622817,-0.016857674,-0.20245492,0.012304987526079565,-0.021173956643436354,9.785547367297113,0.5869149,-0.7789763,-0.0121411905,0.13294627,0.13265222,-3.0,0.0,1.2538576,1.2455318,0.0,-0.021350067,0.005348891,9.812377,0.04463662,-0.20040457,0.0,0.05042321,0.7370211219406503,2.0073375701904297,-2.1227800846099854,-0.024445772171020508
10.201164722442627,0.008561356,0.020417156,-2.6648865,0.004063394654568453,nan,nan,nan,nan,0.20013737678527832,0.00032448768615722656,0.045568235,0.027671436,-0.26217696,0.10974816663363744,-0.14045751646740667,9.571061755381523,1.654471,-1.9247354,0.0028456838,0.25083774,0.2488571,-3.0,0.0,1.2467146,1.2171035,0.0,-0.040037658,0.010086041,9.818368,0.08189091,-0.19560587,0.0,0.05004725,0.7287889295425866,1.4084968566894531,-1.3384923934936523,0.12305097281932831
10.300811290740967,0.02415904,0.032279737,-2.6882992,-0.02576129236478472,nan,nan,nan,nan,0.2996354103088379,0.00026798248291015625,0.2745362,0.22843502,-0.23439422,0.2819409456565708,-0.29609325486763405,9.594967345558107,1.221155,-0.8845587,0.024846302,0.37431258,0.36769855,-3.0,0.0,1.2344325,1.1686034,0.0,-0.059120253,0.015036023,9.82828,0.11635104,-0.1874559,0.0,0.04941251,0.7297109887412623,0.040624067187309265,0.06340599060058594,0.359032541513443
10.400642156600952,0.06883306,0.07096312,-2.7046518,-0.02438804701356187,nan,nan,nan,nan,0.399371862411499,0.0002052783966064453,0.56668323,0.52427965,-0.15716597,0.3346224769751911,-0.31338774773997735,9.73838702019304,-0.13662942,0.46687448,0.08817886,0.49661523,0.48106185,-3.0,0.0,1.2172807,1.1016771,0.0,-0.07728332,0.019923015,9.841323,0.14386287,-0.17628223,0.0,0.048549574,0.7352188556411764,-1.0752702951431274,0.8737945556640625,0.199618399143219
10.500545024871826,0.15585354,0.15044515,-2.7138278,0.014458136273374736,nan,nan,nan,nan,0.49927377700805664,0.0002613067626953125,0.8490067,0.8355592,-0.0965252,0.24516089428508997,-0.23687616498425013,9.83714283045381,-1.2419126,0.99183655,0.1417589,0.617166,0.5870467,-3.0,0.0,1.19531,1.0173144,0.0,-0.094218366,0.024721438,9.856716,0.16275439,-0.16230989,0.0,0.047481272,0.738987911703192,-1.3621695041656494,0.8384895324707031,-0.13004502654075623
10.60056734085083,0.26673645,0.24983835,-2.7191222,0.032447315283017725,nan,nan,nan,nan,0.5993037223815918,0.000274658203125,1.0434946,1.0053054,-0.09315603,0.10357599917070245,-0.156927725883804,9.849891637600955,-1.4113382,0.7370397,0.12258662,0.73543555,0.68390906,-3.0,0.0,1.1685939,0.91680133,0.0,-0.10964876,0.029409943,9.873539,0.17192419,-0.14581226,0.0,0.046233095,0.7394730937759453,-0.9381400346755981,0.5083423256874084,-0.1732158362865448
10.701082229614258,0.39816248,0.3562612,-2.7265282,0.01650840155375966,nan,nan,nan,nan,0.6998097896575928,0.0002703666687011719,1.1952084,1.0234168,-0.11313097,-0.020074409041445262,-0.10623449601273682,9.817218498922882,-1.0072407,0.48653314,0.06366752,0.8513423,0.7703609,-3.0,0.0,1.1371031,0.801242,0.0,-0.123376794,0.033987086,9.890852,0.17087363,-0.12702432,0.0,0.04482526,0.738229020236565,-0.39622730016708374,0.4352293014526367,0.003323793411254883
10.800772428512573,0.54420066,0.45342645,-2.7368696,-0.020189038246973462,nan,nan,nan,nan,0.7995119094848633,0.000377655029296875,1.3129061,0.9297956,-0.13161626,-0.09139432693133903,-0.06780542216505125,9.77885238949209,-0.44269186,0.4794246,0.020688457,0.9629699,0.84399915,-3.0,0.0,1.101385,0.6739904,0.0,-0.1350336,0.038381197,9.90742,0.15986188,-0.106527396,0.0,0.04329999,0.7367655335014257,-0.05557125806808472,0.4751756489276886,0.1641872227191925
10.900635242462158,0.6975415,0.5320665,-2.749582,-0.061248126920865446,nan,nan,nan,nan,0.8993856906890869,0.000263214111328125,1.3781652,0.7881257,-0.14612812,-0.1144001070853164,-0.02237325660827616,9.742493139542635,-0.075789265,0.49306145,0.024019605,1.0710018,0.9044981,-3.0,0.0,1.0612736,0.5359276,0.0,-0.14458303,0.04262482,9.922449,0.13967772,-0.08447855,0.0,0.04166286,0.7353759471118848,0.008080586791038513,0.40939831733703613,0.2748327851295471
11.00063443183899,0.8610157,0.594453,-2.7660623,-0.09442159292384661,nan,nan,nan,nan,0.9993693828582764,0.00021719932556152344,1.3743827,0.6323658,-0.15913829,-0.11477683108542236,0.028210493969903494,9.712566872276359,0.01388555,0.3898772,0.072692625,1.1749293,0.9508113,-3.0,0.0,1.0169333,0.3892692,0.0,-0.15187553,0.04670447,9.935071,0.111642994,-0.061227217,0.0,0.039928194,0.7342302713812854,-0.08702640980482101,0.23339369893074036,0.36162495613098145
11.100625276565552,1.0008271,0.6340495,-2.7830436,-0.10722855339612504,nan,nan,nan,nan,1.099353313446045,0.0003209114074707031,1.3103851,0.5019564,-0.16847329,-0.1152278391593574,0.06255234077925098,9.691237945146852,-0.06574061,0.20178586,0.14126492,1.2742218,0.98213464,-3.0,0.0,0.9685809,0.23647323,0.0,-0.15679854,0.050606232,9.944573,0.07758056,-0.037137374,0.0,0.038105324,0.7334126524297496,-0.20793837308883667,0.05698510259389877,0.40423309803009033
11.200535535812378,1.1346006,0.6619255,-2.8024657,-0.10092568162822124,nan,nan,nan,nan,1.1992642879486084,0.0002486705780029297,1.2015876,0.36775917,-0.17422359,-0.12511045778512844,0.07980044408694731,9.67592209745198,-0.18287073,0.016614787,0.22310004,1.3684201,0.99796826,-3.0,0.0,0.9164465,0.08006427,0.0,-0.15928419,0.05431877,9.950453,0.039666858,-0.012563883,0.0,0.036196973,0.732824982560632,-0.2380635291337967,-0.06856751441955566,0.3891780972480774
11.301344633102417,1.2399617,0.67471856,-2.82035,-0.08071277767939722,nan,nan,nan,nan,1.3002493381500244,0.0003159046173095703,1.0878146,0.23606889,-0.17565452,-0.14130079730877637,0.08143242408845786,9.661779714412983,-0.20777906,-0.09832416,0.2863327,1.4581517,0.998007,-3.0,0.0,0.8600837,-0.079297885,0.0,-0.15929027,0.05787287,9.952449,-0.00018956311,0.012443597,0.0,0.0341753,0.7322819254342101,-0.20159095525741577,-0.12502101063728333,0.3241642415523529
11.400554180145264,1.3364697,0.67426366,-2.8391318,-0.049654679641394264,nan,nan,nan,nan,1.3992881774902344,0.0001895427703857422,0.96892893,0.07810772,-0.17337301,-0.15766354769648872,0.07468884926354469,9.649929353184993,-0.18742122,-0.14574353,0.32186297,1.5404562,0.9824545,-3.0,0.0,0.8014436,-0.23436615,0.0,-0.15684877,0.061155286,9.950521,-0.03836604,0.03680588,0.0,0.032092694,0.7318265741389022,-0.09438688308000565,-0.12488257139921188,0.209834024310112
11.501726388931274,1.4120473,0.65901184,-2.855723,-0.018759081632026345,nan,nan,nan,nan,1.5004591941833496,0.0002505779266357422,0.8715107,-0.081903845,-0.16854063,-0.16848729907087212,0.06710343493227011,9.637076960392289,-0.09022211,-0.13415554,0.32005095,1.6183732,0.950878,-3.0,0.0,0.73833936,-0.38901192,0.0,-0.15188603,0.06428974,9.944798,-0.074027136,0.061186552,0.0,0.029850168,0.7313324035153984,-0.006670929491519928,-0.09959226846694946,0.09388284385204315
11.601337194442749,1.4770195,0.62787217,-2.871406,0.008932367995309234,nan,nan,nan,nan,1.6002485752105713,0.00034427642822265625,0.786125,-0.24866715,-0.16234721,-0.1713699193892303,0.06097402465123647,9.623068562038235,-0.020803941,-0.10279461,0.2826676,1.6888232,0.90469396,-3.0,0.0,0.6731741,-0.5354053,0.0,-0.1446139,0.06715283,9.935876,-0.10373453,0.08439546,0.0,0.027509945,0.730793409365035,0.06804107129573822,-0.06636548042297363,-0.013691242784261703
11.701374530792236,1.5338597,0.58073825,-2.8865418,0.030317027780361425,nan,nan,nan,nan,1.7002778053283691,0.0004761219024658203,0.7111126,-0.41542053,-0.15633634,-0.16777126968422357,0.057337181242160806,9.605268956162027,0.06754494,-0.065839,0.21875791,1.7527815,0.84414077,-3.0,0.0,0.60519725,-0.6737103,0.0,-0.13505597,0.06978144,9.924307,-0.1262396,0.10648248,0.0,0.025022272,0.730107976559599,0.12735888361930847,-0.0344177708029747,-0.0996059700846672
11.801095724105835,1.5842211,0.5177139,-2.9011552,0.043813183075621064,nan,nan,nan,nan,1.7999908924102783,0.0003857612609863281,0.6429947,-0.574494,-0.15058438,-0.15720520705536115,0.05557634026686431,9.583505530245594,0.12952118,-0.03628769,0.13868314,1.8096492,0.77052057,-3.0,0.0,0.53505653,-0.8009995,0.0,-0.12340212,0.07214655,9.9109535,-0.14006254,0.12698507,0.0,0.022389915,0.7292690401678356,0.16721054911613464,-0.0073437318205833435,-0.15644417703151703
11.900599479675293,1.6332669,0.43286932,-2.9157963,0.04804805445703692,nan,nan,nan,nan,1.8993306159973145,0.000347137451171875,0.57254004,-0.7315046,-0.14409705,-0.14061145794488433,0.0552416718291493,9.56048955935984,0.18092564,-0.0061991704,0.047678158,1.8592432,0.68516004,-3.0,0.0,0.4630903,-0.91532516,0.0,-0.1098477,0.074233964,9.896742,-0.14446191,0.14557111,0.0,0.01960942,0.7283807836295795,0.2146250307559967,0.008508145809173584,-0.17834675312042236
12.00279450416565,1.6772858,0.3335206,-2.929797,0.04062617405270167,nan,nan,nan,nan,2.0016207695007324,0.00022721290588378906,0.5016101,-0.86602783,-0.1381595,-0.1194535855350905,0.05586571680076324,9.5370691852644,0.22988424,0.0093600815,-0.030523535,1.9027414,0.58613616,-3.0,0.0,0.38710487,-1.0181432,0.0,-0.0940731,0.076086365,9.88216,-0.13897309,0.16244657,0.0,0.016581466,0.7274758217109768,0.23323769867420197,0.018812984228134155,-0.1527266800403595
12.10077691078186,1.7131615,0.231889,-2.9420497,0.026331292971437346,nan,nan,nan,nan,2.099517822265625,0.00020647048950195312,0.43506175,-0.96575034,-0.13300113,-0.09625505760267808,0.05690792303581893,9.51389018613844,0.2596522,0.01772098,-0.08431271,1.9370155,0.48228458,-3.0,0.0,0.31288168,-1.1008325,0.0,-0.077478975,0.07756163,9.869189,-0.12457664,0.17614174,0.0,0.013534548,0.7265790918001526,0.22101342678070068,0.030531570315361023,-0.09889392554759979
12.201211214065552,1.747103,0.11455553,-2.9545584,0.007505731544174495,nan,nan,nan,nan,2.199965715408325,0.000354766845703125,0.36255825,-1.0446979,-0.12719586,-0.06965904561088047,0.05880415800766747,9.492086133249094,0.2637706,0.030545507,-0.11074766,1.9645665,0.3681645,-3.0,0.0,0.23549685,-1.1683717,0.0,-0.05919499,0.0787584,9.85777,-0.10149911,0.18741706,0.0,0.010273115,0.7257345570419214,0.19828377664089203,0.03901959955692291,-0.027269575744867325
12.300877094268799,1.7737942,0.0027525278,-2.9652236,-0.009279898852472074,nan,nan,nan,nan,2.2996132373809814,0.00021886825561523438,0.29548958,-1.0903003,-0.12081598,-0.04604508212437294,0.061893645828766886,9.47516091439872,0.24170066,0.04623597,-0.10890706,1.9841684,0.2491605,-3.0,0.0,0.1578013,-1.2170056,0.0,-0.04008641,0.07961617,9.849087,-0.07181956,0.19558938,0.0,0.006927092,0.72507832488531,0.16220314800739288,0.05222011357545853,0.03655695170164108
12.400554895401001,1.7973124,-0.11927825,-2.9762423,-0.0236122108602079,nan,nan,nan,nan,2.3992862701416016,0.00021123886108398438,0.22207475,-1.1125067,-0.11300752,-0.023228945511973388,0.06680505301068362,9.461461873240758,0.2106221,0.057685897,-0.081913754,1.995997,0.12622301,-3.0,0.0,0.07946731,-1.2465863,0.0,-0.020315593,0.08013641,9.843616,-0.037349395,0.2005829,0.0,0.003502058,0.7245467502415447,0.13332024216651917,0.05074761062860489,0.0898074358701706
12.500988006591797,1.8134161,-0.23053332,-2.9859016,-0.03225561120978723,nan,nan,nan,nan,2.4997808933258057,0.00027871131896972656,0.15228052,-1.1111469,-0.10440993,-0.0048436853503331274,0.07190265631851123,9.453164585344481,0.18163177,0.057966214,-0.04356625,2.0,0.00027528603,-3.0,0.0,0.00017296732,-1.256637,0.0,-4.4313383e-05,0.08031296,9.841723,-8.217385e-05,0.20228356,0.0,7.632752e-06,0.7242245969245282,0.10647633671760559,0.054712723940610886,0.12144207954406738
12.602020263671875,1.8232515,-0.32998127,-2.9941716,-0.03565872581941985,nan,nan,nan,nan,2.600907564163208,0.0002894401550292969,0.08646881,-1.0946625,-0.09544431,0.009586166124034378,0.07698757753099272,9.44949325924738,0.15190193,0.05938829,-0.0035469614,1.9959816,-0.12646465,-3.0,0.0,-0.07962006,-1.2465477,0.0,0.020354474,0.08013574,9.843622,0.037419632,0.20057636,0.0,-0.0035087722,0.7240820076534561,0.09190502017736435,0.06513364613056183,0.1328485608100891
12.701412439346313,1.8281289,-0.44289133,-3.00282,-0.03445058493402531,nan,nan,nan,nan,2.700320243835449,0.0004229545593261719,0.005425556,-1.0594937,-0.08367842,0.02430039123149535,0.08307706774986423,9.450607757046805,0.13028574,0.06424843,0.039822847,1.9841789,-0.24907985,-3.0,0.0,-0.15774938,-1.2170316,0.0,0.04007345,0.07961662,9.849082,0.07179798,0.19559376,0.0,-0.0069248374,0.7241252961472371,0.09680169820785522,0.042532894760370255,0.1228773444890976
12.801402568817139,1.8251017,-0.54121614,-3.009611,-0.029642791785896995,nan,nan,nan,nan,2.800285577774048,0.00028586387634277344,-0.07337817,-1.0135863,-0.07174467,0.03697656295402157,0.08779330484378223,9.457673702575253,0.12484935,0.03728995,0.06970384,1.9645072,-0.3684584,-3.0,0.0,-0.23569192,-1.1682254,0.0,0.059242133,0.07875582,9.857796,0.101566225,0.18739253,0.0,-0.010281433,0.7243996869722921,0.10925570130348206,0.028690800070762634,0.0991281047463417
12.901243209838867,1.8131093,-0.64008796,-3.0154393,-0.022208175408412488,nan,nan,nan,nan,2.9000062942504883,0.0002536773681640625,-0.16129354,-0.9499161,-0.058521874,0.05105267863491796,0.08997403484975952,9.469299780689166,0.13063394,0.021379841,0.089219,1.9371643,-0.48176062,-3.0,0.0,-0.31251776,-1.1011946,0.0,0.07739514,0.07756806,9.86913,0.12448615,0.17620198,0.0,-0.0135194035,0.7248509377799999,0.11956003308296204,0.009484604001045227,0.06594007462263107
13.000592470169067,1.7937987,-0.723097,-3.0194035,-0.014691485235159576,nan,nan,nan,nan,2.9993433952331543,0.00021982192993164062,-0.24272281,-0.8785495,-0.04600306,0.06431315046853739,0.09026905515785866,9.486593202911303,0.13005517,0.0026158055,0.09113893,1.9023678,-0.58711755,-3.0,0.0,-0.38782915,-1.0172498,0.0,0.09422968,0.07607035,9.882294,0.13907155,0.16229923,0.0,-0.016610775,0.725521646863526,0.13178282976150513,0.007633015513420105,0.03470667451620102
13.100647687911987,1.7637005,-0.8036206,-3.0220702,-0.0070634611576260095,nan,nan,nan,nan,3.0994153022766113,0.00021219253540039062,-0.33024988,-0.7883325,-0.0326328,0.07885465692688662,0.08922388091021416,9.508490956388403,0.13015476,-0.008018917,0.08336533,1.8598233,-0.6840114,-3.0,0.0,-0.46216977,-0.91668075,0.0,0.109665036,0.07425853,9.896561,0.14445603,0.14579256,0.0,-0.019573307,0.7263700540632567,0.13312706351280212,-0.004649557173252106,0.0038059204816818237
13.201077938079834,1.7279098,-0.8678553,-3.023492,-0.0013711467479632297,nan,nan,nan,nan,3.199878454208374,0.00032639503479003906,-0.40892828,-0.69292307,-0.02153553,0.09213681005648464,0.08759191891652152,9.532874809913329,0.1324778,-0.010467945,0.06544695,1.8097192,-0.7704158,-3.0,0.0,-0.53496313,-0.80115867,0.0,0.1233855,0.07214947,9.910935,0.14007457,0.12701082,0.0,-0.02238636,0.7273136340134805,0.1385837197303772,-0.0004753619432449341,-0.01803607866168022
13.300603151321411,1.6807019,-0.9249297,-3.0239775,0.002626393306127711,nan,nan,nan,nan,3.2993359565734863,0.0002028942108154297,-0.49206963,-0.57599014,-0.0104035195,0.10619940999343437,0.08568750360079913,9.559545474462197,0.1226041,-0.021571511,0.041199204,1.753015,-0.84388065,-3.0,0.0,-0.60493016,-0.67422473,0.0,0.13501486,0.06979109,9.924257,0.12631041,0.10656497,0.0,-0.025012387,0.7283443256975707,0.11755159497261047,-0.015056818723678589,-0.03311801329255104
13.400572299957275,1.6295576,-0.96506894,-3.0232072,0.003935277690829485,nan,nan,nan,nan,3.3993051052093506,0.0002193450927734375,-0.5659387,-0.4563459,-0.00083870825,0.11785659818601898,0.08333876246798866,9.587793391160655,0.104623266,-0.027945729,0.018898482,1.6891236,-0.9044549,-3.0,0.0,-0.6728765,-0.5360428,0.0,0.14457622,0.06716511,9.935829,0.103852324,0.08449688,0.0,-0.027499175,0.7294344038922247,0.10532943159341812,-0.011398427188396454,-0.03569791465997696
13.500593185424805,1.5666134,-0.9943357,-3.0211463,0.0033104213056022597,nan,nan,nan,nan,3.499323844909668,0.0002636909484863281,-0.64237386,-0.31707484,0.008123206,0.1283576006390747,0.08080003422121051,9.614507859759025,0.0965414,-0.01642252,-0.0015005788,1.6185331,-0.9507937,-3.0,0.0,-0.73820096,-0.38933718,0.0,0.15187277,0.06429621,9.944782,0.07409823,0.061237957,0.0,-0.029845228,0.7304638303531603,0.07212775945663452,-0.02313462644815445,-0.031022686511278152
13.600708723068237,1.507199,-1.0075601,-3.0187452,0.0018224836555659069,nan,nan,nan,nan,3.5994415283203125,0.0002231597900390625,-0.70492905,-0.19264704,0.01425363,0.13567750477227863,0.07883200394210643,9.640213618688279,0.06281602,-0.03436735,-0.013720501,1.5414735,-0.98215556,-3.0,0.0,-0.800671,-0.23633617,0.0,0.15680185,0.061196018,9.950473,0.03883945,0.037115812,0.0,-0.032065295,0.7314530374620185,0.07557129114866257,-0.007201045751571655,-0.022395413368940353
13.701274871826172,1.4294302,-1.0093482,-3.0154734,-0.0003686478303966262,nan,nan,nan,nan,3.7001748085021973,0.0003390312194824219,-0.7759851,-0.041635305,0.019966256,0.14166769056347334,0.07629083845171114,9.665707327835253,0.054108955,-0.026352657,-0.021924675,1.4577868,-0.9980405,-3.0,0.0,-0.86032796,-0.078629225,0.0,0.15929551,0.057858363,9.952449,2.2354912e-05,0.012338648,0.0,-0.034184,0.7324327827459639,0.041471343487501144,-0.02409616857767105,-0.013710324652493
13.801790952682495,1.3504411,-0.9975339,-3.0123792,-0.002099677627602811,nan,nan,nan,nan,3.800750494003296,0.00034499168395996094,-0.8393185,0.10078524,0.023253089,0.14592608189833428,0.07420568688337559,9.685388891808682,0.040664446,-0.025013756,-0.024340818,1.3684065,-0.99796706,-3.0,0.0,-0.9164546,0.0800878,0.0,0.15928401,0.054318238,9.950452,-0.039672695,-0.012567577,0.0,-0.03619726,0.7331882787962335,0.02360985428094864,-0.030555754899978638,-0.0069078002125024796
13.901233911514282,1.2570038,-0.9695397,-3.009242,-0.0037080019754817117,nan,nan,nan,nan,3.900132894515991,0.00032067298889160156,-0.9054925,0.2565335,0.025112212,0.14748947204644788,0.0702626485258171,9.702132450751954,-0.005815571,-0.053428303,-0.021977887,1.2747194,-0.98225594,-3.0,0.0,-0.9683224,0.23567642,0.0,0.15681759,0.05062582,9.9446125,-0.077393584,-0.03701202,0.0,-0.038095735,0.7338303925810892,-0.01916414313018322,-0.05221419036388397,-0.001124545931816101
14.001936435699463,1.1630222,-0.92958903,-3.0066788,-0.004647938399566065,nan,nan,nan,nan,4.00083065032959,0.00031185150146484375,-0.96310675,0.39856657,0.024869353,0.14613978095473668,0.06575111513465748,9.71379454519599,-0.019287853,-0.050270427,-0.018696982,1.1747258,-0.9507334,-3.0,0.0,-1.0170262,0.38956964,0.0,0.15186328,0.046696473,9.935049,-0.111705795,-0.061274707,0.0,-0.039931756,0.7342773054193448,-0.03197956085205078,-0.053379759192466736,0.0035059060901403427
14.100765705108643,1.0624814,-0.8764987,-3.0048954,-0.00540333396979778,nan,nan,nan,nan,4.099493980407715,0.0001666545867919922,-1.0166095,0.5375031,0.022455491,0.14349538791654834,0.06112562618804529,9.716838054400862,-0.042766903,-0.060675453,-0.013335283,1.0721904,-0.9050976,-3.0,0.0,-1.0607996,0.5343269,0.0,0.14467752,0.042671487,9.9226055,-0.139404,-0.08422391,0.0,-0.041643932,0.7343938941228623,-0.05726713687181473,-0.06142784655094147,0.006556376814842224
14.200602531433105,0.9564323,-0.81080157,-3.003694,-0.0065435209024612695,nan,nan,nan,nan,4.1993303298950195,0.00021839141845703125,-1.0642384,0.67152977,0.018516494,0.13802342779584675,0.05536762451971078,9.714746260191305,-0.06367138,-0.058246426,-0.009083077,0.96424454,-0.8447785,-3.0,0.0,-1.1009448,0.67244685,0.0,0.13515675,0.03843131,9.907604,-0.15967831,-0.10627988,0.0,-0.043281615,0.734313765039722,-0.07917395234107971,-0.059951093047857285,0.012870145961642265
14.300638675689697,0.84537256,-0.7328746,-3.0026069,-0.0076482851429283474,nan,nan,nan,nan,4.299367189407349,0.00018358230590820312,-1.1061605,0.798051,0.014081248,0.13039258556777902,0.049600936489306635,9.706848819102152,-0.09819708,-0.068247415,-0.004442555,0.85227835,-0.7710201,-3.0,0.0,-1.1368263,0.8002401,0.0,0.12348131,0.034023985,9.890992,-0.17082267,-0.12686218,0.0,-0.044813164,0.7340111647926064,-0.10388413071632385,-0.05877853184938431,0.019186995923519135
14.400522708892822,0.72005934,-0.6356991,-3.001638,-0.00845863946585513,nan,nan,nan,nan,4.399250507354736,0.00022220611572265625,-1.1449676,0.9235763,0.008722197,0.11794718633502457,0.042288145419117296,9.694244409794912,-0.1383662,-0.0723007,0.0024243293,0.73712474,-0.6852334,-3.0,0.0,-1.1681737,0.9152384,0.0,0.10985938,0.029476766,9.873788,-0.17198227,-0.14555693,0.0,-0.04621388,0.7335279560966466,-0.13924622535705566,-0.06667958945035934,0.023643765598535538
14.501205682754517,0.610604,-0.5448895,-3.0012858,-0.008352687124161783,nan,nan,nan,nan,4.500084161758423,0.00040912628173828125,-1.1723877,1.0161641,0.0033001467,0.10458187938825295,0.03589458351005059,9.676545022572384,-0.16277844,-0.07401274,0.006480931,0.6179334,-0.58769965,-3.0,0.0,-1.1951535,1.0167189,0.0,0.094322555,0.024751924,9.856821,-0.16284516,-0.16221169,0.0,-0.047473796,0.7328488932995704,-0.12517264485359192,-0.04243980348110199,0.026839766651391983
14.600693941116333,0.48866037,-0.43869328,-3.0017385,-0.007142516811671731,nan,nan,nan,nan,4.599441766738892,0.00016760826110839844,-1.1965966,1.1011713,-0.002943873,0.08902868301933602,0.029840438573793593,9.656092158700332,-0.1609328,-0.05719665,0.013437681,0.49805915,-0.48236826,-3.0,0.0,-1.2170479,1.1007745,0.0,0.077492364,0.0199806,9.841494,-0.14414075,-0.17613211,0.0,-0.04853804,0.7320634154176486,-0.13229486346244812,-0.04087712988257408,0.022457562386989594
14.70066213607788,0.35479277,-0.3168885,-3.0035536,-0.005012966181257281,nan,nan,nan,nan,4.69941782951355,0.0002357959747314453,-1.2159619,1.1744285,-0.009899545,0.07190189382574833,0.023701691856755636,9.634932041759594,-0.16998139,-0.05719401,0.016063767,0.37548062,-0.3688041,-3.0,0.0,-1.2342924,1.1680532,0.0,0.059297584,0.015082779,9.82839,-0.11664806,-0.18736368,0.0,-0.049405348,0.7312498999627919,-0.15692372620105743,-0.05264509469270706,0.013263961300253868
14.800786256790161,0.21982023,-0.19093573,-3.0065196,-0.0022724620684158696,nan,nan,nan,nan,4.799575328826904,0.0002739429473876953,-1.2290149,1.2265955,-0.016284142,0.053252524171440635,0.017414671678430915,9.612397498185738,-0.18945046,-0.06252023,0.017208854,0.25119576,-0.2492066,-3.0,0.0,-1.2466861,1.2169907,0.0,0.040093824,0.010100412,9.818392,-0.08199859,-0.19558686,0.0,-0.050045755,0.7303825608698189,-0.1730787307024002,-0.06103978678584099,0.002147059887647629
14.900968313217163,0.09524186,-0.0730587,-3.0099223,0.0006110791868107514,nan,nan,nan,nan,4.899770021438599,0.0002105236053466797,-1.2349766,1.2547523,-0.021329006,0.0344500181305879,0.0112328179055321,9.58976544335018,-0.20203227,-0.064091496,0.014761244,0.12586978,-0.12562026,-3.0,0.0,-1.254146,1.2466825,0.0,0.020218609,0.0050643035,9.812132,-0.042308208,-0.20059915,0.0,-0.05043849,0.7295104447600914,-0.1686735600233078,-0.050669606775045395,-0.008141933009028435
15.000942945480347,-0.028406873,0.044667743,-3.014086,0.0034573699428812592,nan,nan,nan,nan,4.999747037887573,0.0002503395080566406,-1.234669,1.2634581,-0.025538327,0.015320369725750233,0.005597318509323879,9.567741185422047,-0.19510339,-0.052553438,0.009930247,0.0003173987,-0.0003173987,-3.0,0.0,-1.2566371,1.256637,0.0,5.1092346e-05,1.2773086e-05,9.81,-0.00010772448,-0.20228356,0.0,-0.050570894,0.7286607612576628,-0.16289660334587097,-0.04008086398243904,-0.018893979489803314
15.100774049758911,-0.16058403,0.16977268,-3.0191278,0.005807522440855734,nan,nan,nan,nan,5.099541187286377,0.00019121170043945312,-1.2276454,1.2513986,-0.02791298,-0.004852971934992152,0.00019285324023110562,9.550620384211644,-0.19177608,-0.0528477,0.0021957087,-0.1250059,0.124761485,-3.0,0.0,-1.2541801,1.2468187,0.0,-0.020080427,-0.0050295605,9.812102,0.042023417,-0.20062217,0.0,-0.050440304,0.7279995745487184,-0.1615094542503357,-0.040434256196022034,-0.028471913188695908
15.201086044311523,-0.2905624,0.29052722,-3.0244267,0.0071519596956623015,nan,nan,nan,nan,5.199997901916504,0.00028228759765625,-1.2142537,1.2179933,-0.028715745,-0.02449316492731551,-0.004702156370100408,9.536942641804917,-0.18302403,-0.043465234,-0.006736615,-0.2506639,0.24868739,-3.0,0.0,-1.2467283,1.2171583,0.0,-0.040010378,-0.010079062,9.8183565,0.08183862,-0.19561511,0.0,-0.050047968,0.7274709290626423,-0.1558021754026413,-0.03805800899863243,-0.0342094711959362
15.301038980484009,-0.4078358,0.39588666,-3.0293562,0.007306504366643034,nan,nan,nan,nan,5.299968957901001,0.0002815723419189453,-1.1967672,1.1687914,-0.0276214,-0.04182913028421545,-0.008410078442016022,9.529164562332435,-0.17583767,-0.03280642,-0.015239786,-0.3747241,0.36808807,-3.0,0.0,-1.2343832,1.1684097,0.0,-0.05918273,-0.015052497,9.828319,0.11645575,-0.18742341,0.0,-0.04940999,0.7271701367782522,-0.14979688823223114,-0.028606168925762177,-0.03616761416196823
15.40067720413208,-0.53149205,0.5019169,-3.0342193,0.006273442120128189,nan,nan,nan,nan,5.399437665939331,0.00021314620971679688,-1.173247,1.0972532,-0.024596415,-0.05963973769747985,-0.0116095327129766,9.525876674498422,-0.16234171,-0.030507796,-0.023333529,-0.49669564,0.48113462,-3.0,0.0,-1.2172678,1.1016268,0.0,-0.077294976,-0.019926222,9.841332,0.14387839,-0.17627387,0.0,-0.048548933,0.7270429513459822,-0.13779592514038086,-0.031810227781534195,-0.034022435545921326
15.500594139099121,-0.6419714,0.5903666,-3.0378847,0.004309074237512249,nan,nan,nan,nan,5.499349117279053,0.00022125244140625,-1.1477438,1.0150253,-0.020193415,-0.07474568055976749,-0.0146971422542721,9.528293196638103,-0.14865722,-0.028916078,-0.028489985,-0.61725616,0.5871234,-3.0,0.0,-1.1952915,1.0172445,0.0,-0.09423061,-0.024725022,9.856729,0.16276507,-0.16229835,0.0,-0.047480397,0.7271364318585363,-0.13022130727767944,-0.023205485194921494,-0.028315819799900055
15.600657224655151,-0.74844176,0.66833544,-3.0406322,0.0016730713215620668,nan,nan,nan,nan,5.599406957626343,0.0001888275146484375,-1.1185799,0.9188931,-0.014512628,-0.08858821727469902,-0.017355169795754133,9.536906693247136,-0.1353354,-0.022508992,-0.031151365,-0.73555654,0.68400395,-3.0,0.0,-1.1685638,0.9166895,0.0,-0.109663844,-0.029414725,9.873557,0.17192842,-0.14579399,0.0,-0.046231717,0.7274695391496333,-0.122499480843544,-0.016132928431034088,-0.021013125777244568
15.700810194015503,-0.85873127,0.7407342,-3.0426502,-0.001699173764792436,nan,nan,nan,nan,5.699603319168091,0.00020360946655273438,-1.0839663,0.8009915,-0.0077784816,-0.10220041339483525,-0.019542521344329877,9.549575600740486,-0.11710424,-0.017231913,-0.03163119,-0.8511073,0.77019525,-3.0,0.0,-1.1371727,0.80149347,0.0,-0.12335054,-0.03397782,9.890817,0.17088631,-0.127065,0.0,-0.044828303,0.7279592069697312,-0.10114368796348572,-0.01956118643283844,-0.009782707318663597
15.801243782043457,-0.96391886,0.79928714,-3.0445333,-0.005094554257828385,nan,nan,nan,nan,5.800129413604736,0.0002562999725341797,-1.0467993,0.6709116,-0.0007269616,-0.11312927695675055,-0.021855640070771454,9.566756944325741,-0.09276671,-0.016142236,-0.027620856,-0.9636499,0.84441507,-3.0,0.0,-1.1011503,0.67316717,0.0,-0.13509932,-0.038407933,9.907518,0.1597641,-0.10639538,0.0,-0.04329019,0.7286227669724069,-0.08225876092910767,-0.021722301840782166,0.0015243291854858398
15.90069317817688,-1.0567912,0.84016424,-3.046023,-0.007946992810542307,nan,nan,nan,nan,5.899467468261719,0.00017833709716796875,-1.0109468,0.5424541,0.0051525896,-0.12173915772502025,-0.023728791562508178,9.585586909470136,-0.075362645,-0.017148502,-0.021198967,-1.0710888,0.9045421,-3.0,0.0,-1.061239,0.5358105,0.0,-0.14458998,-0.042628244,9.922461,0.13965772,-0.08445991,0.0,-0.04166148,0.7293493143264276,-0.07621297985315323,-0.023278430104255676,0.010230135172605515
16.000677824020386,-1.1526167,0.8706387,-3.0466783,-0.010308097530587576,nan,nan,nan,nan,5.99946403503418,0.000217437744140625,-0.9700817,0.39652506,0.011018798,-0.12901127435906679,-0.026105114242615857,9.60293081176,-0.062238596,-0.021765169,-0.012563355,-1.1750259,0.9508483,-3.0,0.0,-1.0168893,0.38912657,0.0,-0.15188134,-0.04670826,9.935082,0.111613154,-0.06120467,0.0,-0.039926507,0.7300178913858955,-0.05572228878736496,-0.028913959860801697,0.018612578511238098
16.10137677192688,-1.2363778,0.88527584,-3.046403,-0.01165458860646501,nan,nan,nan,nan,6.100201606750488,0.000225067138671875,-0.9303113,0.25683904,0.01608831,-0.13516354860114324,-0.028364176786354056,9.624633645531707,-0.056686442,-0.02069644,-0.0029190308,-1.2750432,0.98233473,-3.0,0.0,-0.968154,0.23515745,0.0,-0.15682997,-0.050638556,9.944638,0.07727176,-0.036930367,0.0,-0.03808949,0.7308536477594959,-0.06931172311306,-0.028612583875656128,0.020671196281909943
16.20174741744995,-1.3092704,0.88645345,-3.0458503,-0.012205315826077132,nan,nan,nan,nan,6.200749158859253,0.0003516674041748047,-0.8923146,0.124767296,0.01969581,-0.1404390998661787,-0.03055130935114403,9.64308838334399,-0.054851316,-0.023094201,0.0018883856,-1.3697808,0.99808544,-3.0,0.0,-0.9156437,0.07772336,0.0,-0.15930256,-0.05437252,9.950511,0.039085757,-0.012196472,0.0,-0.036167935,0.7315635819057147,-0.05205025523900986,-0.03422556072473526,0.0227879136800766
16.300867080688477,-1.3902763,0.872651,-3.0449414,-0.011956743030503397,nan,nan,nan,nan,6.299704551696777,0.00023484230041503906,-0.8447666,-0.03526837,0.023172114,-0.14482608530795127,-0.033560531598471055,9.662649681833562,-0.01997828,-0.032016855,0.009593757,-1.4576832,0.99805,-3.0,0.0,-0.8603973,-0.07843948,0.0,-0.159297,-0.057854246,9.952449,2.5090114e-05,0.012308868,0.0,-0.034186468,0.7323153430123027,-0.0005516074597835541,-0.03958575427532196,0.023996446281671524
16.400997400283813,-1.4599621,0.8448171,-3.0439062,-0.010949839693474933,nan,nan,nan,nan,6.399826765060425,0.000232696533203125,-0.7978721,-0.18396729,0.025088333,-0.14501674197560627,-0.03686590909957954,9.677755702701386,0.022874888,-0.034770094,0.014967946,-1.5408882,0.9823279,-3.0,0.0,-0.8011157,-0.23520242,0.0,-0.1568289,-0.061172582,9.950501,-0.038567048,0.03693745,0.0,-0.032081068,0.7328953625849935,0.01911463961005211,-0.040354013442993164,0.02120956778526306
16.501022815704346,-1.5292782,0.79945534,-3.0425057,-0.0092062976631523,nan,nan,nan,nan,6.499867916107178,0.0002448558807373047,-0.7429498,-0.34107366,0.025616199,-0.1411062151073078,-0.04048018329966552,9.68767996810841,0.057798363,-0.034474343,0.019502208,-1.6179367,0.9511076,-3.0,0.0,-0.73871684,-0.38812447,0.0,-0.15192214,-0.0642721,9.944841,-0.07383303,0.06104629,0.0,-0.029863635,0.7332761740985975,0.05179153382778168,-0.037525080144405365,0.016444765031337738
16.60106348991394,-1.5869491,0.7450657,-3.0409858,-0.007054466936980364,nan,nan,nan,nan,6.5999414920806885,0.00032329559326171875,-0.68840927,-0.47811958,0.024612458,-0.1349636956623971,-0.0436407387629445,9.693551463936446,0.08008804,-0.031091068,0.01846289,-1.6886163,0.9048585,-3.0,0.0,-0.673379,-0.53496605,0.0,-0.14463985,-0.067144364,9.935907,-0.103653334,0.08432559,0.0,-0.027517365,0.7335013818839766,0.05385797470808029,-0.034513168036937714,0.008465172722935677
16.701003074645996,-1.6427943,0.6745431,-3.0390375,-0.0043910526390012194,nan,nan,nan,nan,6.699864625930786,0.0002701282501220703,-0.6250557,-0.6154073,0.021910176,-0.12690332984011132,-0.04673258973084815,9.69455228818114,0.07506301,-0.027129821,0.018034153,-1.7525314,0.84441906,-3.0,0.0,-0.60548323,-0.6731593,0.0,-0.13509996,-0.069771096,9.924358,-0.12616366,0.10639413,0.0,-0.02503286,0.7335397628120572,0.07457756996154785,-0.027212508022785187,-0.0009480416774749756
16.801279544830322,-1.6882399,0.60053086,-3.0372298,-0.0018977918137895802,nan,nan,nan,nan,6.800183057785034,0.0002741813659667969,-0.5640204,-0.7305281,0.018435756,-0.11886521802385192,-0.048961196231597004,9.69107728558126,0.09757038,-0.017953334,0.013944955,-1.8097522,0.7703663,-3.0,0.0,-0.534919,-0.80123377,0.0,-0.12337766,-0.07215086,9.910927,-0.14008027,0.12702298,0.0,-0.02238468,0.733406490324894,0.07484732568264008,-0.027014024555683136,-0.010168943554162979
16.902042388916016,-1.7300206,0.51211196,-3.0351076,0.0007957066121982229,nan,nan,nan,nan,6.901191473007202,0.00040721893310546875,-0.49521592,-0.8412729,0.013871536,-0.10853201997454764,-0.05108048479727634,9.68237123432103,0.10335841,-0.017636413,0.007838726,-1.8601038,0.6834544,-3.0,0.0,-0.46172374,-0.9173366,0.0,-0.10957644,-0.07427041,9.896473,-0.14445259,0.1458997,0.0,-0.019555802,0.733072492924651,0.0885138064622879,-0.02204737812280655,-0.02039654366672039
17.003836631774902,-1.759571,0.43183848,-3.0335102,0.0027991119383408355,nan,nan,nan,nan,7.002946853637695,0.0002224445343017578,-0.43521258,-0.92270416,0.009397147,-0.09912322795465967,-0.05275958280887627,9.673549037897022,0.10368227,-0.018711107,0.0018762759,-1.9032543,0.58478475,-3.0,0.0,-0.38610825,-1.0193696,0.0,-0.093857475,-0.07610833,9.881975,-0.13883625,0.16264886,0.0,-0.016541129,0.7327338865390052,0.06641356647014618,-0.02950763702392578,-0.028856800869107246
17.10127329826355,-1.7874719,0.33183673,-3.0323417,0.0047440630736387684,nan,nan,nan,nan,7.10025691986084,0.00032711029052734375,-0.36261177,-1.0048422,0.003924069,-0.08868790247878261,-0.05503880547985296,9.65767142581287,0.10421299,-0.014269661,-0.0068892865,-1.9372467,0.4814705,-3.0,0.0,-0.3123163,-1.101395,0.0,-0.07734872,-0.07757162,9.869098,-0.124435954,0.1762353,0.0,-0.013511016,0.7321240956812021,0.09740347415208817,-0.01806078851222992,-0.034798674285411835
17.202247619628906,-1.8062246,0.23459698,-3.031927,0.005895444795674505,nan,nan,nan,nan,7.201475620269775,0.0004889965057373047,-0.29414657,-1.0682398,-0.0003786484,-0.07777343678679155,-0.05660412646018731,9.643345457413226,0.115803316,-0.011222117,-0.01450925,-1.9649212,0.3663994,-3.0,0.0,-0.23432548,-1.1692476,0.0,-0.058911853,-0.07877387,9.857617,-0.101095244,0.18756382,0.0,-0.010223153,0.7315734664722299,0.11047214269638062,-0.018897786736488342,-0.038069650530815125
17.315072536468506,-1.8188437,0.12416253,-3.0323768,0.006341902213787717,nan,nan,nan,nan,7.3150794506073,0.001857757568359375,-0.21882349,-1.1227129,-0.004667343,-0.06462786248615372,-0.058257511760179126,9.62628164196852,0.13349304,-0.009501566,-0.022906283,-1.9865154,0.2302913,-3.0,0.0,-0.1456785,-1.2228609,0.0,-0.037053514,-0.07971923,9.848015,-0.06672925,0.19657642,0.0,-0.0063998387,0.7309170720911314,0.12889374792575836,-0.02459421008825302,-0.03619205206632614
17.401275157928467,-1.8233986,0.018979382,-3.0333123,0.006157260933725903,nan,nan,nan,nan,7.400262117385864,0.00041413307189941406,-0.14854188,-1.1588099,-0.008168382,-0.05028818304966144,-0.05954138973664658,9.614291765191588,0.15606026,-0.009381656,-0.028563878,-1.9960741,0.12500682,-3.0,0.0,-0.07869859,-1.2467799,0.0,-0.020119902,-0.08013982,9.843579,-0.03699579,0.2006156,0.0,-0.0034682706,0.7304555090166677,0.16376091539859772,-0.0072476863861083984,-0.03354484587907791
17.503875255584717,-1.8207033,-0.09668387,-3.0348625,0.005521019271564169,nan,nan,nan,nan,7.503120183944702,0.00048351287841796875,-0.07220616,-1.1802554,-0.011244662,-0.032278906332227936,-0.06057633502370163,9.5991771906102,0.18542336,0.00060805964,-0.03294111,-1.9999962,-0.0039215228,-3.0,0.0,0.00246397,-1.2566274,0.0,0.00063125585,-0.08031278,9.841725,0.0011705786,0.20228194,0.0,0.00010873065,0.7298732470913949,0.18200521171092987,-0.0013448968529701233,-0.028018565848469734
17.602838277816772,-1.8118978,-0.2030234,-3.036334,0.004766941486434582,nan,nan,nan,nan,7.601822853088379,0.0002758502960205078,-0.0026119314,-1.1812465,-0.0131329885,-0.01309572749190959,-0.06095410512456989,9.586195827447803,0.20067725,-0.0046886597,-0.03293966,-1.9959083,-0.12760565,-3.0,0.0,0.080341354,-1.2463641,0.0,0.020538066,-0.080132514,9.843657,0.03775117,0.2005453,0.0,0.0035404721,0.7293727972880885,0.18313778936862946,-0.005341172218322754,-0.022574635222554207
17.70223641395569,-1.7959764,-0.31525302,-3.0379858,0.004073462731248917,nan,nan,nan,nan,7.7011635303497314,0.0003170967102050781,0.072056554,-1.1600498,-0.014455424,0.008416740578549152,-0.0619412208286112,9.577578290202649,0.20331943,-0.0077396315,-0.030335644,-1.9840456,-0.2501058,-3.0,0.0,0.15840977,-1.2166992,0.0,0.040238336,-0.07961078,9.849142,0.07207223,0.19553776,0.0,0.006953525,0.729040391956866,0.17549581825733185,0.003497019410133362,-0.017569607123732567
17.81123447418213,-1.7779518,-0.4060018,-3.0395117,0.0036417252868435595,nan,nan,nan,nan,7.810450077056885,0.0009057521820068359,0.13395022,-1.1240733,-0.015207527,0.02650411306950591,-0.06270546111046871,9.568166718208225,0.1971945,-0.0033223745,-0.027347317,-1.9620714,-0.38030255,-3.0,0.0,0.24357028,-1.1622161,0.0,0.06114181,-0.0786496,9.858842,0.10424193,0.18638593,0.0,0.010617008,0.7286771873330974,0.1739797741174698,-0.030093401670455933,-0.013188371434807777
17.902970790863037,-1.7538272,-0.49875432,-3.0412579,0.0034176323360407684,nan,nan,nan,nan,7.90193247795105,0.00028061866760253906,0.19949096,-1.0664467,-0.014015935,0.045325516300393554,-0.06346793163244158,9.567166174380104,0.18590719,-0.016822265,-0.024873337,-1.9365608,-0.483881,-3.0,0.0,0.31399107,-1.0997256,0.0,0.0777344,-0.07754196,9.86937,0.12485139,0.17595766,0.0,0.013580702,0.7286385645621466,0.1543082892894745,-0.027752019464969635,-0.012398475781083107
18.001062631607056,-1.7223127,-0.58993286,-3.0433254,0.0035222407416281055,nan,nan,nan,nan,7.999964475631714,0.0003368854522705078,0.26908645,-0.9836021,-0.011531916,0.06382190606752636,-0.06496644457907252,9.569300108065358,0.15911524,-0.012226051,-0.02171002,-1.9021266,-0.58774996,-3.0,0.0,0.38829616,-1.016673,0.0,0.09433058,-0.07606002,9.8823805,0.13913459,0.1622041,0.0,0.016629668,0.7287209357577016,0.13011424243450165,-0.02009938657283783,-0.01160448044538498
18.101266860961914,-1.6883603,-0.6644607,-3.0448601,0.003926920026642883,nan,nan,nan,nan,8.100182294845581,0.00032448768615722656,0.33247504,-0.8915281,-0.00821513,0.07872362298984201,-0.06664732065874945,9.575572655794673,0.14505832,-0.026636945,-0.0184033,-1.8594686,-0.6847142,-3.0,0.0,0.46273288,-0.9158518,0.0,0.1097768,-0.0742435,9.896672,0.14445977,0.1456571,0.0,0.019595396,0.7289630069227172,0.11981215327978134,-0.028011392802000046,-0.012662773951888084
18.205332279205322,-1.6452721,-0.732335,-3.0453475,0.004751225296487242,nan,nan,nan,nan,8.20503306388855,0.0005309581756591797,0.40150237,-0.7761134,-0.003640729,0.09304589854308581,-0.06914746898011903,9.584724672359874,0.1236714,-0.026940707,-0.017023921,-1.806952,-0.7745296,-3.0,0.0,0.5386433,-0.7948703,0.0,0.12403763,-0.07203371,9.911656,0.13958691,0.12599348,0.0,0.022526322,0.7293160608199493,0.1005895659327507,-0.021709885448217392,-0.014757098630070686
18.30256175994873,-1.5998435,-0.7822798,-3.0451121,0.0058750235063666015,nan,nan,nan,nan,8.301851749420166,0.00044274330139160156,0.46564263,-0.6576657,0.0013738608,0.10436379553927241,-0.07120349797100567,9.599645496678999,0.09771798,-0.012685579,-0.01535536,-1.7514914,-0.84557223,-3.0,0.0,0.6066701,-0.6708696,0.0,0.13528222,-0.06972809,9.924575,0.12584671,0.10602696,0.0,0.02507679,0.7298912946229198,0.08198632299900055,-0.013719739392399788,-0.018148696050047874
18.40115237236023,-1.5497189,-0.8200919,-3.0440679,0.0071282657655133,nan,nan,nan,nan,8.40005898475647,0.0003504753112792969,0.5288707,-0.530584,0.0057067913,0.11342156657668977,-0.07251108130271233,9.615424869728734,0.08016049,-0.01803878,-0.013254152,-1.6886163,-0.9048585,-3.0,0.0,0.673379,-0.534966,0.0,0.14463985,-0.067144364,9.935907,0.10365331,0.08432558,0.0,0.027517365,0.7304991413921988,0.06927599012851715,-0.011921107769012451,-0.023152731359004974
18.502877473831177,-1.494354,-0.84558076,-3.042231,0.008200402668378286,nan,nan,nan,nan,8.502062320709229,0.0004546642303466797,0.59167635,-0.39768338,0.010349959,0.12066436272136027,-0.07351760136388608,9.632766130042723,0.059672896,-0.0078020515,-0.01651203,-1.6165093,-0.95185417,-3.0,0.0,0.7399495,-0.3852235,0.0,0.15203956,-0.0642144,9.9449835,0.07319756,0.060587842,0.0,0.02990759,0.7311665795992518,0.06740589439868927,-0.01549595594406128,-0.02761077880859375
18.601220846176147,-1.4280269,-0.85898554,-3.0392454,0.009002834170086502,nan,nan,nan,nan,8.600176334381104,0.00034546852111816406,0.6589802,-0.24855624,0.014215141,0.12745547616218134,-0.07479365565468976,9.650278015506913,0.060195427,-0.01787037,-0.019086095,-1.5408857,-0.9823286,-3.0,0.0,0.8011176,-0.23519765,0.0,0.15682901,-0.06117248,9.950501,0.038565896,0.036936693,0.0,0.032081135,0.7318399755136729,0.03436409309506416,0.010028168559074402,-0.028356589376926422
18.703895568847656,-1.3668463,-0.85848975,-3.0363276,0.0095655166466143,nan,nan,nan,nan,8.70333981513977,0.0005254745483398438,0.71532756,-0.11886931,0.016892213,0.1316401803003277,-0.07469409132114135,9.665474183184555,0.026051698,0.011166014,-0.020473992,-1.4550611,-0.9982815,-3.0,0.0,0.8621476,-0.073640764,0.0,0.15933333,-0.057750072,9.952447,-0.0012253922,0.011555707,0.0,0.03424884,0.7324238286534317,0.05229813605546951,-0.010311461985111237,-0.032118719071149826
18.8052237033844,-1.295006,-0.8450034,-3.0330675,0.009969167743620805,nan,nan,nan,nan,8.804396152496338,0.0004191398620605469,0.7749599,0.024249448,0.018544381,0.134176751174379,-0.07373858935630095,9.679401555580547,0.015430318,0.007141051,-0.024219928,-1.3650619,-0.99766463,-3.0,0.0,0.9184217,0.08583209,0.0,0.15923655,-0.054186143,9.950305,-0.04109749,-0.01346919,0.0,0.03626846,0.732958530354917,0.04468188434839249,-0.013151615858078003,-0.034840695559978485
18.90143346786499,-1.2112616,-0.8150399,-3.0296388,0.010162729474444868,nan,nan,nan,nan,8.900484323501587,0.00042057037353515625,0.8373289,0.17981511,0.019352186,0.1355546700806315,-0.07268302036716867,9.689105516520792,-0.0007570419,0.0075344592,-0.027649375,-1.2743793,-0.9821731,-3.0,0.0,0.9684991,0.23622106,0.0,0.15680459,-0.05061243,9.944586,-0.077521406,-0.037097704,0.0,0.038102295,0.7333308588733305,-0.0055733732879161835,0.014027118682861328,-0.03452574834227562
19.00468134880066,-1.1290404,-0.77376616,-3.0261796,0.010145207650042037,nan,nan,nan,nan,9.003981590270996,0.0006160736083984375,0.89217246,0.3219131,0.019307593,0.1349321549693131,-0.07116992383054965,9.697603862171524,-0.015130156,0.0056403633,-0.029741602,-1.1715187,-0.94949836,-3.0,0.0,1.0184855,0.39429748,0.0,0.151669,-0.046570554,9.934695,-0.11269145,-0.06202203,0.0,0.03998779,0.7336567763682204,-0.01835479587316513,0.009480670094490051,-0.035711534321308136
19.111397981643677,-1.0355635,-0.71444637,-3.0219967,0.00999889161701633,nan,nan,nan,nan,9.111307859420776,0.0008363723754882812,0.9480554,0.47277054,0.017686239,0.13213994545106528,-0.06942635381539719,9.699362221264746,-0.049800657,0.01987706,-0.0312216,-1.0596282,-0.89868534,-3.0,0.0,1.0657712,0.5511535,0.0,0.14366664,-0.04217831,9.920941,-0.14224054,-0.086901724,0.0,0.04184292,0.7337241928354763,-0.04991910606622696,0.014442279934883118,-0.036115728318691254
19.213414430618286,-0.9454236,-0.64715946,-3.0184264,0.00969038344980614,nan,nan,nan,nan,9.213208675384521,0.0008828639984130859,0.99639744,0.6053521,0.014766632,0.1268155357740081,-0.06746627046840148,9.697289770215285,-0.07741855,0.022489168,-0.033465654,-0.948928,-0.8353175,-3.0,0.0,1.106186,0.69085866,0.0,0.13366115,-0.03782908,9.905374,-0.16179742,-0.10923403,0.0,0.043501023,0.7336447332642579,-0.07022193819284439,0.013874441385269165,-0.035614073276519775
19.30581259727478,-0.85180795,-0.56810415,-3.0152276,0.009233294022768561,nan,nan,nan,nan,9.305227518081665,0.0010001659393310547,1.0413896,0.730173,0.010822323,0.11930472383012736,-0.06557768183591106,9.690957424014343,-0.09044715,0.012069,-0.03419914,-0.84561026,-0.7663095,-3.0,0.0,1.1387905,0.8073537,0.0,0.12273447,-0.0337611,9.889991,-0.17117067,-0.12801355,0.0,0.044899106,0.7334018929958416,-0.1151295155286789,0.034220218658447266,-0.03262215107679367
19.409133434295654,-0.75417286,-0.47817117,-3.0121696,0.0087384835065333,nan,nan,nan,nan,9.408655881881714,0.0007045269012451172,1.0839163,0.8446529,0.006541287,0.10852303263782459,-0.06266555514583749,9.679707982584366,-0.13163121,0.023972634,-0.03316114,-0.72612447,-0.67657727,-3.0,0.0,1.1708903,0.9253519,0.0,0.108482525,-0.029041506,9.872172,-0.17156592,-0.14720976,0.0,0.046338335,0.7329702904184563,-0.12885189056396484,0.03175923228263855,-0.030821774154901505
19.51049518585205,-0.6528571,-0.37956426,-3.0096464,0.007952215822529377,nan,nan,nan,nan,9.499914646148682,0.0005986690521240234,1.1232919,0.94510543,0.0021508783,0.09529510399242758,-0.0596560030515223,9.668494868620764,-0.14352313,0.020279882,-0.03522124,-0.6181364,-0.5878724,-3.0,0.0,1.195112,1.0165613,0.0,0.09435011,-0.024759987,9.856848,-0.16286911,-0.16218567,0.0,0.047471825,0.7325398319458293,-0.10886628925800323,0.007380351424217224,-0.02843213826417923
19.609360694885254,-0.56591725,-0.29199594,-3.0081284,0.00712638377903551,nan,nan,nan,nan,9.609201431274414,0.0008840560913085938,1.1539013,1.0169481,-0.0019830165,0.08379640822287868,-0.05764405589413246,9.65319473807467,-0.15591449,0.03070471,-0.033138916,-0.48617136,-0.47158855,-3.0,0.0,1.218944,1.1081262,0.0,0.0757673,-0.019506406,9.840098,-0.14181815,-0.1773554,0.0,0.048632104,0.7319520747674927,-0.12952488660812378,0.02249506115913391,-0.020451046526432037
19.701642513275146,-0.4496085,-0.17223927,-3.0072773,0.006198241013573632,nan,nan,nan,nan,9.700704336166382,0.00037670135498046875,1.1898249,1.0930336,-0.008063625,0.06649272142203858,-0.05305086210317422,9.632470552667513,-0.17922132,0.050643936,-0.029757427,-0.37389213,-0.36730048,-3.0,0.0,1.2344829,1.1688011,0.0,0.059056394,-0.015019194,9.82824,-0.11624396,-0.18748902,0.0,0.04941508,0.7311552083197153,-0.17121849954128265,0.06072226166725159,-0.0138016939163208
19.80173087120056,-0.33952662,-0.057776224,-3.007268,0.0054691260308049015,nan,nan,nan,nan,9.800888299942017,0.0003921985626220703,1.2175899,1.1440077,-0.012641375,0.04841151360476663,-0.04707953413442412,9.611066236540212,-0.19841217,0.065162696,-0.028511897,-0.24955918,-0.24760875,-3.0,0.0,1.2468158,1.2175056,0.0,0.03983702,-0.010034714,9.818284,-0.081506096,-0.19567361,0.0,0.050052542,0.730331289736092,-0.17541542649269104,0.059270694851875305,-0.009925547987222672
19.90108847618103,-0.23668504,0.048333127,-3.0077162,0.004908622931496888,nan,nan,nan,nan,9.899959564208984,0.0003247261047363281,1.2374855,1.1728218,-0.016095404,0.03063992958639044,-0.04101579740825634,9.590978579565421,-0.20635882,0.070198774,-0.022268401,-0.12563118,-0.12538308,-3.0,0.0,1.2541555,1.2467202,0.0,0.020180443,-0.0050547086,9.812123,-0.04222956,-0.20060553,0.0,0.050438996,0.7295572185074173,-0.16450364887714386,0.042406126856803894,-0.006404925137758255
20.001174449920654,-0.1134863,0.17274585,-3.0085154,0.004270017926572324,nan,nan,nan,nan,10.000121116638184,0.0003657341003417969,1.2540159,1.1838703,-0.01922929,0.009688925504720537,-0.034478409373554175,9.57321402271046,-0.19391295,0.052962903,-0.017598908,0.00015293759,0.00015293759,-3.0,0.0,1.2566371,1.2566371,0.0,-2.461869e-05,6.1546725e-06,9.81,5.190671e-05,-0.20228358,0.0,0.050570894,0.7288719914815828,-0.1620129942893982,0.05233396589756012,-0.0013824421912431717
20.10141897201538,0.0011405549,0.28430057,-3.0096023,0.0037062968177230546,nan,nan,nan,nan,10.100375413894653,0.0003752708435058594,1.2641133,1.1731267,-0.020679452,-0.008485035957403405,-0.029302718383632742,9.560868775888816,-0.18217552,0.043192234,-0.012431435,0.12605162,0.12580101,-3.0,0.0,1.2541387,1.2466537,0.0,-0.020247692,0.0050716167,9.812138,0.042368136,-0.20059428,0.0,0.05043811,0.7283954274100854,-0.1547338217496872,0.056690722703933716,0.004292048513889313
20.202219247817993,0.12638724,0.39883426,-3.0115993,0.003117562658401258,nan,nan,nan,nan,10.201228141784668,0.00035953521728515625,1.27014,1.1397974,-0.021545688,-0.027113837516683253,-0.023075229951331266,9.54853791524424,-0.17056662,0.06893782,-0.007387621,0.2521977,0.2501846,-3.0,0.0,1.2466062,1.2166737,0.0,-0.040250998,0.010140634,9.818458,0.082299694,-0.19553345,0.0,0.050041586,0.7279191114512626,-0.14554764330387115,0.07031060755252838,0.00809958204627037
20.302884340286255,0.24268858,0.4976992,-3.0136187,0.002553630132220288,nan,nan,nan,nan,10.302188873291016,0.0006852149963378906,1.2699537,1.0906608,-0.02109747,-0.043275544206412525,-0.01635116343404519,9.541829756319068,-0.16024972,0.068447396,-0.0040595867,0.37746444,0.37068087,-3.0,0.0,1.2340536,1.1671146,0.0,-0.059598632,0.015162183,9.828578,0.11715116,-0.18720642,0.0,0.04939316,0.7276598598034771,-0.13681943714618683,0.06744958460330963,0.011301238089799881
20.402294874191284,0.35911036,0.5886115,-3.0156376,0.002065440963859695,nan,nan,nan,nan,10.401602029800415,0.0005564689636230469,1.2638575,1.025612,-0.0192143,-0.05830780428546202,-0.00920412859393327,9.54009470578051,-0.14843112,0.07504112,0.00039630572,0.4993291,0.48351654,-3.0,0.0,1.2168424,1.0999787,0.0,-0.077676095,0.020031247,9.841644,0.14438416,-0.17599975,0.0,0.048527863,0.7275927901031672,-0.12949304282665253,0.06364283710718155,0.01318006869405508
20.502052783966064,0.47533265,0.6702691,-3.0175908,0.0016538473532520595,nan,nan,nan,nan,10.501165390014648,0.0004589557647705078,1.2517414,0.9457401,-0.016092649,-0.07233749960837052,-0.002422699947537188,9.54421032704181,-0.14002265,0.06126669,0.003538845,0.61942667,0.5889694,-3.0,0.0,1.1948482,1.0155579,0.0,-0.09452513,0.024811236,9.857024,0.16302063,-0.16202022,0.0,0.047459245,0.727751872656133,-0.12178935110569,0.06198945641517639,0.014631480909883976
20.607091665267944,0.60910445,0.75326186,-3.0187767,0.0014188611965832085,nan,nan,nan,nan,10.60609769821167,0.0004794597625732422,1.2305325,0.83658856,-0.01054223,-0.08766645244077545,0.00479217471740534,9.553159298596448,-0.12379,0.066035986,0.007935453,0.743369,0.69011337,-3.0,0.0,1.1666105,0.9094299,0.0,-0.11063541,0.029723769,9.874708,0.17217866,-0.1446083,0.0,0.04614249,0.7280976620629741,-0.09687730669975281,0.07327334582805634,0.013349052518606186
20.70526361465454,0.7122775,0.80814993,-3.0192132,0.0013458547523936826,nan,nan,nan,nan,10.705060482025146,0.0009884834289550781,1.2085559,0.73992074,-0.0058015725,-0.09864401074514434,0.010555113220502621,9.56384283870227,-0.113740556,0.068000704,0.0107804565,0.8573088,0.7745515,-3.0,0.0,1.1353321,0.7948366,0.0,-0.124041095,0.034222268,9.891748,0.17053685,-0.12598802,0.0,0.044747934,0.7285102633984415,-0.09922667592763901,0.06535863876342773,0.01359709445387125
20.810579776763916,0.8310149,0.86088425,-3.0192575,0.0013434225568377464,nan,nan,nan,nan,10.810379028320312,0.000774383544921875,1.1757007,0.6153016,-0.00045513286,-0.11029404424567815,0.017614250084115435,9.577728132901258,-0.109186314,0.06094704,0.013042129,0.97491664,0.8512448,-3.0,0.0,1.0972279,0.6594439,0.0,-0.13617863,0.03885082,9.909147,0.15809004,-0.10419569,0.0,0.04312686,0.7290461731350629,-0.08632858842611313,0.06005863845348358,0.011810112744569778
20.902101039886475,0.9288011,0.8942893,-3.0187259,0.0014392651099304418,nan,nan,nan,nan,10.901211738586426,0.00040984153747558594,1.1429669,0.50147945,0.0043754852,-0.1192002677219903,0.023216520651294426,9.594814370421235,-0.09042713,0.06116907,0.013033528,1.072939,0.9054744,-3.0,0.0,1.0605007,0.53331786,0.0,-0.14473693,0.04270087,9.922704,0.13923106,-0.08406341,0.0,0.041632004,0.7297050920124513,-0.07504613697528839,0.055052243173122406,0.010172083973884583
21.008822441101074,1.0321003,0.91830546,-3.017783,0.0015096444019399163,nan,nan,nan,nan,11.0085768699646,0.0007889270782470703,1.1026409,0.36987075,0.009418252,-0.1273477423900649,0.028845992543604648,9.616002763209407,-0.072779864,0.053971607,0.0132921375,1.184274,0.9543322,-3.0,0.0,1.0126451,0.37541723,0.0,-0.15242927,0.047071386,9.936086,0.108727284,-0.05903845,0.0,0.03976394,0.7305213933052722,-0.07903550565242767,0.04753287881612778,0.009837619960308075
21.111944913864136,1.1390808,0.9301615,-3.016098,0.0015809873045932454,nan,nan,nan,nan,11.1116943359375,0.0008869171142578125,1.0534099,0.22182058,0.014396883,-0.13457454412708528,0.034334494462116005,9.635841776726307,-0.07174165,0.046655346,0.012412601,1.286137,0.98493487,-3.0,0.0,0.9623436,0.21730502,0.0,-0.15723829,0.051075086,9.945502,0.07306079,-0.034122318,0.0,0.03787433,0.7312848937247094,-0.053642388433218,0.04674623906612396,0.007486112415790558
21.213008165359497,1.2329236,0.9276654,-3.0139687,0.0015740703232985792,nan,nan,nan,nan,11.212315082550049,0.0006253719329833984,1.0037538,0.080509745,0.017961746,-0.14035445942463948,0.0390622106780949,9.651943132577005,-0.04970874,0.045006495,0.013109312,1.3803341,0.9988789,-3.0,0.0,0.90936553,0.05948778,0.0,-0.15942709,0.0547895,9.950937,0.034550495,-0.009334541,0.0,0.035941113,0.731903973521022,-0.0351727232336998,0.044769369065761566,0.0061240848153829575
21.30909752845764,1.2998683,0.91671026,-3.011868,0.0014947522791763368,nan,nan,nan,nan,11.308651208877563,0.0007507801055908203,0.96375775,-0.02784669,0.020535106,-0.1439807124059356,0.04235721534639181,9.667492291179958,-0.040112656,0.04295333,0.011346224,1.465358,0.9972851,-3.0,0.0,0.855235,-0.0925351,0.0,-0.15917699,0.058159295,9.952433,-0.0034971263,0.014521337,0.0,0.03400261,0.7325013320037693,-0.06781789660453796,0.042109593749046326,0.0096060149371624
21.4187273979187,1.404696,0.8806635,-3.0078485,0.0012400424548969918,nan,nan,nan,nan,11.41798210144043,0.0005843639373779297,0.892369,-0.21110947,0.023584018,-0.14705845840395504,0.04773247018590543,9.67983305632836,-0.012033115,0.04219088,0.010472077,1.555332,0.9778025,-3.0,0.0,0.7900197,-0.26330158,0.0,-0.15611812,0.061751455,9.949739,-0.045278404,0.041359566,0.0,0.031687506,0.7329750904483687,0.012805471196770668,0.04087042808532715,0.00452452152967453
21.50443196296692,1.4694813,0.84459805,-3.0051897,0.0009858018947633412,nan,nan,nan,nan,11.50376582145691,0.0005528926849365234,0.8417066,-0.33347383,0.025034012,-0.1474422494903267,0.05118969523616834,9.694579369125428,0.008523882,0.03981844,0.010202273,1.6208116,0.94958323,-3.0,0.0,0.73622465,-0.3939747,0.0,-0.15168236,0.06438835,9.944551,-0.075109884,0.061970998,0.0,0.029774727,0.7335408013202954,0.03960636630654335,0.03881928324699402,0.0034448448568582535
21.616317749023438,1.5410271,0.7889795,-3.0019615,0.0005524885125613721,nan,nan,nan,nan,11.616408109664917,0.0013256072998046875,0.77712685,-0.47736353,0.025593784,-0.14458589282498124,0.055160322074568224,9.703685556349816,0.044225056,0.038362358,0.008169558,1.6996144,0.8958559,-3.0,0.0,0.6623654,-0.55837995,0.0,-0.1432205,0.067594215,9.934165,-0.107905336,0.08805249,0.0,0.027118012,0.7338899259323138,0.04285077005624771,0.03797849267721176,0.004708593711256981
21.701622247695923,1.6008128,0.72717476,-2.9991398,2.1012475575954426e-05,nan,nan,nan,nan,11.700798749923706,0.0006554126739501953,0.71529025,-0.6043727,0.024998905,-0.14064437418120948,0.058718052029617995,9.709836911631289,0.064293034,0.035110366,0.0074001043,1.753097,0.8437893,-3.0,0.0,0.6048364,-0.6744052,0.0,-0.13500042,0.069794476,9.92424,-0.12633522,0.10659393,0.0,0.025008915,0.7341256717339958,0.09851052612066269,0.030438579618930817,0.0023273183032870293
21.801029443740845,1.6644983,0.64138865,-2.9961352,-0.000635475021620896,nan,nan,nan,nan,11.799916744232178,0.00039196014404296875,0.63925004,-0.7449543,0.022879377,-0.12993847410667406,0.06195912229422995,9.713465992643043,0.13748592,0.025726574,0.006128833,1.80961,0.7705793,-3.0,0.0,0.5351089,-0.8009103,0.0,-0.123411424,0.0721449,9.910964,-0.14005575,0.12697065,0.0,0.02239191,0.7342647183569239,0.14185985922813416,0.024483874440193176,0.0008440595120191574
21.901196002960205,1.7244768,0.53520024,-2.9940193,-0.0014133991648538347,nan,nan,nan,nan,11.900057315826416,0.0002884864807128906,0.55497146,-0.8779703,0.017805213,-0.11291558928531836,0.06488756059726031,9.710786204489425,0.17498021,0.022162179,0.0056372164,1.8595794,0.6844947,-3.0,0.0,0.462557,-0.9161109,0.0,-0.1097419,0.07424821,9.896637,-0.1444587,0.14569947,0.0,0.0195885,0.7341620459763069,0.17568977177143097,0.014886491000652313,-0.0001583937555551529
22.000874996185303,1.7651281,0.44379878,-2.993729,-0.002111102234579318,nan,nan,nan,nan,11.999844312667847,0.0003235340118408203,0.4874508,-0.9653308,0.012212471,-0.09691992060452034,0.06669057026490455,9.702810293624657,0.18707494,0.019894008,0.0045966455,1.9020528,0.5879431,-3.0,0.0,0.38843876,-1.0164967,0.0,-0.094361395,0.07605686,9.882407,-0.13915375,0.16217501,0.0,0.016635437,0.7338563761123618,0.1408805251121521,0.02430858090519905,0.0030554942786693573
22.100789070129395,1.8026627,0.3380609,-2.9949327,-0.003009218128019249,nan,nan,nan,nan,12.099606275558472,0.00028777122497558594,0.41246793,-1.042159,0.005185776,-0.07971041256127462,0.0688216608917045,9.690449065084117,0.17190649,0.020771991,0.002426962,1.9370433,0.48218694,-3.0,0.0,0.31281385,-1.1008999,0.0,-0.07746335,0.077562824,9.869179,-0.1245598,0.17615297,0.0,0.013531724,0.7333823944091322,0.12372380495071411,0.026861194521188736,0.006593306548893452
22.200674772262573,1.8354545,0.21870776,-2.9979634,-0.004059071519999621,nan,nan,nan,nan,12.19945216178894,0.00024199485778808594,0.33011073,-1.104555,-0.0029566223,-0.062402626437345496,0.07113615767561576,9.675496973211427,0.16024129,0.020714084,0.0033707547,1.9644455,0.3687642,-3.0,0.0,0.23589495,-1.168073,0.0,-0.059291184,0.07875312,9.857822,-0.10163605,0.18736702,0.0,0.010290091,0.7328086638898033,0.12582466006278992,0.02093815803527832,0.00957974512130022
22.300703048706055,1.8585798,0.10595561,-3.002204,-0.004978708153432973,nan,nan,nan,nan,12.299480438232422,0.00020623207092285156,0.252847,-1.1446276,-0.010376665,-0.04769213715077,0.07333923459160485,9.655349879676955,0.15415117,0.017483963,0.0051023364,1.9841475,0.24932203,-3.0,0.0,0.15790525,-1.2169533,0.0,-0.040112372,0.07961524,9.849096,-0.07186276,0.19558057,0.0,0.0069316085,0.7320348930773375,0.12594088912010193,0.021076004952192307,0.012001844123005867
22.400617837905884,1.8753855,-0.017336816,-3.0077698,-0.0057300579258892596,nan,nan,nan,nan,12.399371147155762,0.0002257823944091797,0.16831332,-1.169702,-0.017271884,-0.0316950212269157,0.0751344554141482,9.633944756800789,0.15478377,0.013190276,0.006287454,1.9960037,0.12611693,-3.0,0.0,0.079400264,-1.2466033,0.0,-0.020298524,0.08013672,9.843612,-0.037318558,0.20058572,0.0,0.0034991116,0.7312119213023229,0.139550119638443,0.012714134529232979,0.012848906219005585
22.500667333602905,1.883459,-0.13073674,-3.0130565,-0.006194231105566851,nan,nan,nan,nan,12.499422788619995,0.00019812583923339844,0.09037972,-1.1767907,-0.021628672,-0.016189342324160198,0.07611290897469036,9.614856320435663,0.16619718,0.008319161,0.009070532,1.9999999,0.00072507054,-3.0,0.0,0.0004555753,-1.2566367,0.0,-0.00011671616,0.080312945,9.841723,-0.00021643606,0.20228353,0.0,2.0103756e-05,0.7304772486265273,0.1454802006483078,0.017224924638867378,0.01374703086912632
22.601427793502808,1.8843294,-0.25128028,-3.018754,-0.0063861600742105284,nan,nan,nan,nan,12.60030722618103,0.00026917457580566406,0.0070478343,-1.1657944,-0.024706017,0.001471976983021572,0.07690601304715883,9.598171998376507,0.1700436,0.008340237,0.010971195,1.9960291,-0.12571713,-3.0,0.0,-0.07914755,-1.2466671,0.0,0.020234194,0.080137834,9.8436,0.037202336,0.20059653,0.0,-0.0034880042,0.7298345076089399,0.15205033123493195,0.014151172712445259,0.01344066858291626
