time,x,y,z,yaw,platform,trajectory,controller,feedforward,traj_time,comp_time,vx,vy,vz,roll,pitch,f,p,q,r,x_ref,y_ref,z_ref,yaw_ref,vx_ref,vy_ref,vz_ref,roll_ref,pitch_ref,f_ref,u_ff_df,u_ff_dphi,u_ff_dpsi,u_ff_dth,throttle,p_cmd,q_cmd,r_cmd
10.020987033843994,0.030271763,0.0235454,-2.670906,0.0088778492099974,SIM,figure_eight,contraction,1.0,0.02041935920715332,0.00011396408081054688,-0.026987128,-0.010189737,-0.16274393,-0.004939017052558552,0.0021453896913707915,9.81382743805647,0.006245594,-0.008372112,-0.016256338,0.025659021,0.025656909,-3.0,0.0,1.2565336,1.2562234,0.0,-0.0041300245,0.0010325877,9.810089,0.008705127,-0.20221354,0.0,0.050565388,0.7380997825459055,1.6352406740188599,-1.8216760158538818,-0.020260905846953392
10.101961612701416,0.026581582,0.023141086,-2.6856992,0.007612628971188658,nan,nan,nan,nan,0.10143446922302246,0.00014972686767578125,-0.02635231,-0.009703324,-0.18345396,0.009239118760172867,-0.019162135163026672,9.764054538607597,0.40625164,-0.54448235,-0.004278529,0.12738004,0.12712143,-3.0,0.0,1.2540858,1.2464422,0.0,-0.020460155,0.0051250416,9.812183,0.042805802,-0.20055848,0.0,0.0504353,0.7362002980173076,1.8240571022033691,-2.0652453899383545,-0.010282028466463089
10.2013680934906,0.02396471,0.024188563,-2.7088215,0.0022651071822967148,nan,nan,nan,nan,0.2009880542755127,0.0002243518829345703,0.034308415,0.03524516,-0.24848098,0.09600267694654033,-0.1342625499037,9.561909608244898,1.4364951,-1.8281391,0.016514977,0.25189826,0.24989232,-3.0,0.0,1.2466301,1.2167686,0.0,-0.04020403,0.010128613,9.818438,0.082209736,-0.19554944,0.0,0.050042838,0.7284356185765413,1.2816901206970215,-1.3146302700042725,0.12963031232357025
10.301090717315674,0.034632117,0.03483845,-2.7338836,-0.01997050553800442,nan,nan,nan,nan,0.30071401596069336,0.0002040863037109375,0.23237646,0.19388576,-0.22979239,0.2387834335896644,-0.2790431315007016,9.580386161953212,1.1831406,-0.997303,0.035739973,0.37564397,0.36895865,-3.0,0.0,1.2342728,1.167976,0.0,-0.05932238,0.015089315,9.828406,0.11668953,-0.18735075,0.0,0.049404345,0.7291487167601877,0.17376714944839478,-0.07094983011484146,0.35939618945121765
10.415531396865845,0.06866244,0.06401795,-2.75359,-0.024741295645452688,nan,nan,nan,nan,0.4152367115020752,0.000213623046875,0.49312893,0.4310891,-0.17173682,0.3029391098692597,-0.3161173042389298,9.731172955185173,0.15972742,0.2042013,0.091594435,0.51590216,0.49844298,-3.0,0.0,1.2141099,1.089407,0.0,-0.08006392,0.020692006,9.843635,0.1474764,-0.17424245,0.0,0.0483929,0.7349427804936672,-0.9505366086959839,0.7984673976898193,0.24465411901474
10.501798629760742,0.14540213,0.13017666,-2.7693403,0.005900320765225731,nan,nan,nan,nan,0.5013411045074463,0.00019240379333496094,0.7891041,0.72409445,-0.11200176,0.24532318713390006,-0.2557787874137323,9.835577505379913,-0.97337234,0.9106912,0.15998662,0.6196366,0.5891478,-3.0,0.0,1.1948053,1.0153944,0.0,-0.09455359,0.024819573,9.857053,0.16304518,-0.16199328,0.0,0.04745719,0.7389283183730064,-1.2268906831741333,0.8537683486938477,0.005640655755996704
10.600999116897583,0.24812296,0.2173346,-2.7794392,0.02663790199565659,nan,nan,nan,nan,0.6004409790039062,0.0001430511474609375,1.0017213,0.9035618,-0.10313486,0.12249090783447071,-0.17739523679307534,9.869587207511064,-1.2620934,0.7748531,0.16526811,0.7367643,0.68495095,-3.0,0.0,1.1682634,0.91557217,0.0,-0.10981445,0.029462509,9.873734,0.17197007,-0.14561145,0.0,0.046217974,0.7402220323711113,-0.9429282546043396,0.5741005539894104,-0.09800282120704651
10.700905799865723,0.36274424,0.3056542,-2.7887278,0.017567791167842267,nan,nan,nan,nan,0.7003655433654785,0.00013637542724609375,1.156694,0.9461938,-0.118555814,0.013942270481801015,-0.12526604216823767,9.847132814899084,-1.0168818,0.5676552,0.12470411,0.8519742,0.77080595,-3.0,0.0,1.1369163,0.8005658,0.0,-0.12344736,0.034011994,9.890947,0.17083928,-0.12691487,0.0,0.044817094,0.7393681277385962,-0.5141171216964722,0.4680250883102417,0.01588018238544464
10.800880908966064,0.51639676,0.4027175,-2.8017936,-0.01779798391123811,nan,nan,nan,nan,0.8003547191619873,0.0001392364501953125,1.3002559,0.87178206,-0.13987786,-0.07078688702125635,-0.07787576344631009,9.807797936573621,-0.5336812,0.5227486,0.08003586,0.96389794,0.8445667,-3.0,0.0,1.1010646,0.67286676,0.0,-0.13512328,0.038417682,9.907555,0.15972835,-0.1063472,0.0,0.043286614,0.7378699353321054,-0.12619376182556152,0.5034515261650085,0.18422390520572662
10.901543140411377,0.6813024,0.4801176,-2.8169177,-0.06119362661535802,nan,nan,nan,nan,0.9014425277709961,0.0001919269561767578,1.3814152,0.728281,-0.15812461,-0.10514993882655388,-0.024863833805467195,9.770864895060656,-0.14478095,0.5403034,0.0763175,1.0731838,0.9055974,-3.0,0.0,1.060403,0.53298795,0.0,-0.14475632,0.042710483,9.922736,0.13917443,-0.08401094,0.0,0.041628104,0.7364604872736474,0.014784082770347595,0.4381488859653473,0.29891830682754517
11.001710414886475,0.8335985,0.5317869,-2.8327608,-0.09218397609749912,nan,nan,nan,nan,1.0014581680297852,0.0005154609680175781,1.3846288,0.586787,-0.17179343,-0.1107008201247561,0.02587147208796292,9.731334009245035,-0.014244818,0.44805127,0.10978462,1.1770525,0.9516212,-3.0,0.0,1.0159636,0.3861316,0.0,-0.15200292,0.04678783,9.935304,0.11098607,-0.06073135,0.0,0.039890997,0.7349489449901422,-0.04080570489168167,0.2723689675331116,0.3624535799026489
11.101595640182495,0.9647825,0.56489205,-2.848618,-0.1054598654995811,nan,nan,nan,nan,1.1012804508209229,0.0002243518829345703,1.3314747,0.4689873,-0.180678,-0.1104505972193056,0.06305143209457476,9.695223008468744,-0.034014747,0.2747947,0.16236523,1.2760874,0.98258746,-3.0,0.0,0.9676108,0.23348384,0.0,-0.15686966,0.05067963,9.944722,0.07687862,-0.036667075,0.0,0.038069334,0.733565483369502,-0.15346874296665192,0.09617701172828674,0.3927363157272339
11.201794385910034,1.103503,0.59047025,-2.8682258,-0.10142687348204081,nan,nan,nan,nan,1.201488971710205,0.00020241737365722656,1.2239969,0.34235656,-0.18554479,-0.11489817739407159,0.08666756632744654,9.668692966178057,-0.12589481,0.06324416,0.2299643,1.3704576,0.9981425,-3.0,0.0,0.9152438,0.076558076,0.0,-0.15931152,0.05439926,9.95054,0.03879639,-0.012013577,0.0,0.03615347,0.7325474388471851,-0.20542338490486145,-0.054104309529066086,0.37877798080444336
11.30146336555481,1.2130643,0.60380304,-2.8869367,-0.08202175883486491,nan,nan,nan,nan,1.3009827136993408,0.0001285076141357422,1.1056527,0.22702758,-0.18605046,-0.1253289085638391,0.09152812223760831,9.641074769273397,-0.17053796,-0.07995625,0.283877,1.4587823,0.9979484,-3.0,0.0,0.8596615,-0.08045367,0.0,-0.15928108,0.057897925,9.952448,-0.0004785479,0.012625002,0.0,0.034160256,0.7314861533494739,-0.20528654754161835,-0.13109298050403595,0.3192237615585327
11.401335000991821,1.3122455,0.60681295,-2.9071064,-0.050784574711296424,nan,nan,nan,nan,1.4010071754455566,0.00017189979553222656,0.9787124,0.09231828,-0.18265301,-0.13875462357840257,0.08483508083825364,9.61393805660307,-0.1776149,-0.1537152,0.31464416,1.5418329,0.9820493,-3.0,0.0,0.8003977,-0.23703241,0.0,-0.15678515,0.06121042,9.950456,-0.039006658,0.037225347,0.0,0.032055605,0.730441888258724,-0.13618126511573792,-0.14685875177383423,0.21237514913082123
11.50103211402893,1.3886898,0.59740525,-2.9252434,-0.019212691251614844,nan,nan,nan,nan,1.500565528869629,0.0001671314239501953,0.87386507,-0.044807043,-0.17669435,-0.15055582272969154,0.07483833103153503,9.587746485248205,-0.14700091,-0.16281295,0.3115596,1.6184516,0.95083666,-3.0,0.0,0.7382715,-0.38917145,0.0,-0.15187952,0.06429291,9.944791,-0.07406201,0.06121177,0.0,0.029847743,0.7294325951398656,-0.05985012277960777,-0.12530672550201416,0.10103762149810791
11.601036310195923,1.4589278,0.57144487,-2.9438808,0.011882910108011721,nan,nan,nan,nan,1.6005666255950928,0.0001819133758544922,0.7775059,-0.20595954,-0.16750367,-0.15829759812600253,0.06497911029119074,9.559477693811054,-0.049304772,-0.12867768,0.27431405,1.6890373,0.9045237,-3.0,0.0,0.672962,-0.5358595,0.0,-0.14458705,0.06716157,9.9358425,-0.10381848,0.084467724,0.0,0.02750227,0.7283417081281471,0.05058055371046066,-0.08424556255340576,-0.017185084521770477
11.701580286026001,1.5144447,0.532022,-2.960133,0.033795279268507,nan,nan,nan,nan,1.701303243637085,0.0002117156982421875,0.70139974,-0.35832772,-0.15773194,-0.15720522993750907,0.05873734130734731,9.52976920165121,0.03623186,-0.08449564,0.20996046,1.7534018,0.8434492,-3.0,0.0,0.60448754,-0.6750767,0.0,-0.13494666,0.06980707,9.924177,-0.12642744,0.10670162,0.0,0.024995992,0.7271935236646998,0.11228512972593307,-0.04521533101797104,-0.1006445586681366
11.801292657852173,1.5672346,0.4729338,-2.9765344,0.048446768294648446,nan,nan,nan,nan,1.8009543418884277,0.0001857280731201172,0.6293611,-0.5176256,-0.14562272,-0.14787553950976576,0.0551246061438031,9.501587387695906,0.121488206,-0.042581994,0.12485003,1.8101643,0.7697483,-3.0,0.0,0.53436816,-0.80217123,0.0,-0.123279676,0.072168104,9.910819,-0.14015098,0.12717469,0.0,0.022363711,0.7261026875413873,0.1778879463672638,-0.013722654432058334,-0.16122028231620789
11.90113353729248,1.6100564,0.4043094,-2.9901142,0.053335347048084826,nan,nan,nan,nan,1.9007363319396973,0.00029206275939941406,0.56731415,-0.6522913,-0.13369729,-0.13329078683200868,0.05397824098921267,9.480571715310212,0.17143184,-0.011372981,0.04324333,1.8598934,0.6838723,-3.0,0.0,0.46205837,-0.9168446,0.0,-0.10964291,0.07426151,9.896539,-0.14445518,0.14581932,0.0,0.019568935,0.7252881785674278,0.20165470242500305,0.010717242956161499,-0.18332798779010773
12.000885963439941,1.650622,0.31618756,-3.0035322,0.048397446057296706,nan,nan,nan,nan,2.0004677772521973,0.0001964569091796875,0.49969,-0.77899325,-0.12111265,-0.11395948002756606,0.054852843276394836,9.456631809845565,0.20801538,0.0153936045,-0.036368746,1.9022946,0.5873094,-3.0,0.0,0.38797083,-1.017075,0.0,-0.09426029,0.07606722,9.88232,-0.1390907,0.16227038,0.0,0.016616508,0.7243592337491662,0.22964541614055634,0.01595790684223175,-0.16684891283512115
12.100929737091064,1.6833867,0.2250429,-3.0152373,0.035450562198377084,nan,nan,nan,nan,2.1005020141601562,0.0001952648162841797,0.43538108,-0.87382746,-0.109434724,-0.0924091800933663,0.05617376919230366,9.43719556368887,0.24781378,0.017822674,-0.09021493,1.9373231,0.48120064,-3.0,0.0,0.31212893,-1.1015812,0.0,-0.077305526,0.07757492,9.869067,-0.12438923,0.1762663,0.0,0.013503217,0.7236041801211933,0.21955157816410065,0.023182176053524017,-0.11770415306091309
12.200945377349854,1.7139632,0.118663676,-3.027481,0.01749458843712572,nan,nan,nan,nan,2.200514316558838,0.0002281665802001953,0.36556283,-0.9498908,-0.096955776,-0.0669610621703703,0.05779588852631479,9.423569607883685,0.25204873,0.025323551,-0.11890886,1.9646955,0.36752358,-3.0,0.0,0.23507142,-1.1686903,0.0,-0.059092183,0.07876402,9.857715,-0.10135261,0.18747045,0.0,0.010254972,0.7230743792447115,0.20054951310157776,0.026549361646175385,-0.04848356544971466
12.303980112075806,1.7338158,0.03363703,-3.0365107,0.003266833375378267,nan,nan,nan,nan,2.3039193153381348,0.0002732276916503906,0.31131387,-0.9887547,-0.08740469,-0.04790275204936873,0.05970309833555043,9.415338040441267,0.2426812,0.03421868,-0.12242282,1.9848406,0.24391639,-3.0,0.0,0.1544277,-1.2186819,0.0,-0.039243586,0.07964567,9.848781,-0.07041367,0.19587189,0.0,0.006780487,0.7227541359725645,0.15046879649162292,0.05713658407330513,0.007014356553554535
12.40247392654419,1.7547541,-0.07818411,-3.0474823,-0.013021660937731288,nan,nan,nan,nan,2.402372121810913,0.0003345012664794922,0.23988785,-1.0151244,-0.074531406,-0.02511838173637826,0.06343333137011098,9.413798358738411,0.21113029,0.04662149,-0.101948865,1.9962385,0.122375205,-3.0,0.0,0.0770355,-1.2471921,0.0,-0.01969645,0.08014706,9.843502,-0.03623002,0.2006853,0.0,0.003395164,0.7226942202128496,0.12346142530441284,0.053112030029296875,0.07030697911977768
12.508004188537598,1.7678971,-0.1724659,-3.0559893,-0.02301157140692573,nan,nan,nan,nan,2.5079357624053955,0.0003685951232910156,0.17835718,-1.0188884,-0.06376015,-0.008704287650871993,0.06759301510935423,9.4165005920641,0.18020703,0.048595868,-0.06957358,1.9999751,-0.009972256,-3.0,0.0,-0.006265831,-1.2565746,0.0,0.001605254,0.08031184,9.841736,0.0029765922,0.20227298,0.0,-0.0002764981,0.7227993727028895,0.09512778371572495,0.07137404382228851,0.10952603816986084
12.622185945510864,1.7771871,-0.2731548,-3.0643544,-0.028874758340603587,nan,nan,nan,nan,2.6221859455108643,0.0005538463592529297,0.10967835,-1.0067325,-0.051442303,0.006681186508803659,0.0725874799127042,9.428327340614038,0.149845,0.062677585,-0.02612053,1.994109,-0.15294096,-3.0,0.0,-0.096379526,-1.2418532,0.0,0.024614263,0.08005324,9.844501,0.045067802,0.1997827,0.0,-0.0042446954,0.7232594116687906,0.08613210171461105,0.08991187065839767,0.133569598197937
12.704009771347046,1.7805007,-0.37739494,-3.072072,-0.030066733238059973,nan,nan,nan,nan,2.7040064334869385,0.0003380775451660156,0.031368457,-0.9763399,-0.038468473,0.021039882433678797,0.07876731952201732,9.442394364755586,0.12838542,0.060079224,0.019607525,1.9835922,-0.25356317,-3.0,0.0,-0.16063629,-1.2155688,0.0,0.040793967,0.07959087,9.849348,0.072994426,0.19534726,0.0,-0.007050219,0.7238062177426473,0.08682496845722198,0.04034049063920975,0.1319349855184555
12.802246570587158,1.7773316,-0.46060097,-3.0773573,-0.027572072421583608,nan,nan,nan,nan,2.8021767139434814,0.0003268718719482422,-0.038543522,-0.9386201,-0.027706208,0.032166341769828376,0.08290741840584537,9.461392674427465,0.118398204,0.043602616,0.0538017,1.9640601,-0.37066647,-3.0,0.0,-0.23715834,-1.1671219,0.0,0.059596322,0.07873631,9.857988,0.10206944,0.18720762,0.0,-0.010343951,0.7245440640891803,0.09365315735340118,0.0392594188451767,0.12019923329353333
12.903957843780518,1.7648858,-0.55890787,-3.0822525,-0.02101072194182601,nan,nan,nan,nan,2.903571605682373,0.00021910667419433594,-0.13005434,-0.87664604,-0.014346245,0.04599054038361051,0.0863001713123448,9.485656065326168,0.11526791,0.03065576,0.08373248,1.9360453,-0.48568192,-3.0,0.0,-0.31524363,-1.0984713,0.0,0.07802256,0.07751966,9.8695755,0.12515955,0.17574905,0.0,-0.013632793,0.725485316539832,0.09780620038509369,0.005920153111219406,0.09001608937978745
13.001393556594849,1.7485098,-0.629418,-3.0851238,-0.01414670878919043,nan,nan,nan,nan,3.0010457038879395,0.00022673606872558594,-0.20261487,-0.8174645,-0.005072993,0.05681087891048331,0.08733275733031487,9.514779612701368,0.116288126,0.010229905,0.09544238,1.9017065,-0.588848,-3.0,0.0,-0.3891075,-1.0156691,0.0,0.094505765,0.07604202,9.882531,0.13924325,0.16203856,0.0,-0.01666248,0.7266135213387647,0.11274933815002441,0.015297925099730492,0.06135709583759308
13.10213565826416,1.7214717,-0.7038637,-3.0880642,-0.005620880406196106,nan,nan,nan,nan,3.1017911434173584,0.0002434253692626953,-0.2879775,-0.7354546,0.00427074,0.06991946314113048,0.08764898024785994,9.543153776507806,0.118994415,0.00872095,0.092831716,1.8587232,-0.68618613,-3.0,0.0,-0.4639136,-0.9141105,0.0,0.11001089,0.07421195,9.896904,0.14446586,0.14537269,0.0,-0.019641707,0.7277110367104903,0.11296193301677704,0.0031920280307531357,0.024887628853321075
13.201987504959106,1.6886984,-0.76344806,-3.090186,0.0014892442500215111,nan,nan,nan,nan,3.2016239166259766,0.00019812583923339844,-0.366746,-0.64865535,0.011183484,0.08193152778452448,0.08738071116404278,9.57389071432872,0.11586702,0.0025995509,0.081471846,1.8087844,-0.7718124,-3.0,0.0,-0.5362099,-0.79903316,0.0,0.123606905,0.072110355,9.91118,0.13991229,0.12666689,0.0,-0.022433799,0.728898104950225,0.11736096441745758,0.0032202787697315216,-0.0052063120529055595
13.31158995628357,1.6517543,-0.8098143,-3.0916545,0.00659245292468591,nan,nan,nan,nan,3.3116819858551025,0.0003514289855957031,-0.43886933,-0.5601545,0.01605939,0.09292350082895395,0.08720233266653521,9.603565622251462,0.11943701,0.0047966023,0.06403593,1.745494,-0.8521027,-3.0,0.0,-0.6134561,-0.65769196,0.0,0.13631415,0.06948035,9.925803,0.12398195,0.10391503,0.0,-0.025327591,0.7300423507601805,0.1491016149520874,0.030278639867901802,-0.02654425799846649
13.402318954467773,1.5993524,-0.85367775,-3.0933845,0.01046808943403877,nan,nan,nan,nan,3.4020371437072754,0.00018644332885742188,-0.52405405,-0.4444646,0.020740807,0.10573738270170269,0.08682800789047596,9.6192636737041,0.11677656,-0.002231506,0.038196743,1.6872828,-0.90591407,-3.0,0.0,-0.67469734,-0.5321375,0.0,0.14480624,0.06708988,9.936112,0.10312901,0.083875656,0.0,-0.02756508,0.7306469428374891,0.10494667291641235,-0.01725323125720024,-0.04728582873940468
13.503320693969727,1.5573696,-0.8766196,-3.0943406,0.011637885172970742,nan,nan,nan,nan,3.503265619277954,0.0007343292236328125,-0.58285195,-0.35794804,0.023253804,0.11415257989552746,0.0859783247786512,9.640647094529106,0.10508841,-0.02137042,0.018944444,1.6156183,-0.9523167,-3.0,0.0,-0.74071735,-0.38341412,0.0,0.1521123,0.064178385,9.945072,0.07280041,0.06030192,0.0,-0.029934969,0.7314697071323522,0.14525963366031647,0.019688520580530167,-0.05307824909687042
13.60205602645874,1.4885311,-0.898641,-3.095309,0.011781360369158424,nan,nan,nan,nan,3.6021857261657715,0.0008196830749511719,-0.6665392,-0.2245237,0.025672533,0.12710250895946598,0.08650724909308383,9.653940145950749,0.14661764,0.027895067,-0.0050643715,1.539274,-0.9827983,-3.0,0.0,-0.80233973,-0.2320786,0.0,0.15690276,0.061107945,9.950579,0.037815828,0.036446013,0.0,-0.032124482,0.7319807205298039,0.09092923253774643,-0.031369201838970184,-0.06051433086395264
13.706685543060303,1.4099997,-0.90624076,-3.0958986,0.009902623100486813,nan,nan,nan,nan,3.706362724304199,0.00022411346435546875,-0.75122654,-0.07950771,0.0280349,0.1387571979126101,0.08512576218829415,9.661293288376166,0.094976425,-0.03148465,-0.02715555,1.4524523,-0.9984969,-3.0,0.0,-0.8638826,-0.068874754,0.0,0.15936714,0.057646446,9.952441,-0.002418028,0.010807709,0.0,-0.03431069,0.7322632399637033,0.02991398051381111,-0.0732102170586586,-0.05783681198954582
13.801412582397461,1.335897,-0.9004225,-3.0957577,0.006725169427645825,nan,nan,nan,nan,3.801083564758301,0.00027370452880859375,-0.82000965,0.049385462,0.031028647,0.14427304262639745,0.08059756564512366,9.667000348065033,0.032588296,-0.08224546,-0.039120086,1.3681011,-0.9979403,-3.0,0.0,-0.9166346,0.08061284,0.0,0.1592798,0.054306176,9.9504385,-0.03980299,-0.012649983,0.0,-0.036203776,0.7324824401829119,-0.00011745281517505646,-0.08001792430877686,-0.04535660520195961
13.901884317398071,1.2396595,-0.8790062,-3.0946262,0.002076578064629339,nan,nan,nan,nan,3.901604175567627,0.0003039836883544922,-0.89452016,0.20239758,0.03441341,0.1440440584162771,0.07193747867955391,9.668866096232069,-0.02350937,-0.09936289,-0.04789,1.2732939,-0.9819075,-3.0,0.0,-0.9690625,0.23795854,0.0,0.15676287,0.050569735,9.944498,-0.077928916,-0.037371058,0.0,-0.0381232,0.7325540869382536,-0.0375082790851593,-0.0879521369934082,-0.024797912687063217
14.002737760543823,1.1517595,-0.8487394,-3.0930066,-0.0016067493469622413,nan,nan,nan,nan,4.00236177444458,0.00017690658569335938,-0.9503331,0.32835513,0.036374692,0.14047629083491248,0.06413969516785034,9.665469052437675,-0.0488126,-0.09918573,-0.04829319,1.1731681,-0.9501352,-3.0,0.0,-1.0177357,0.3918676,0.0,0.15176918,0.046635315,9.934877,-0.11218546,-0.06163792,0.0,-0.039958995,0.7324236316020932,-0.022607378661632538,-0.060268182307481766,-0.006525812670588493
14.104459047317505,1.0508249,-0.8033306,-3.090899,-0.005228232944631317,nan,nan,nan,nan,4.1050872802734375,0.0005893707275390625,-1.0025767,0.46036097,0.037560996,0.13545221007637018,0.056662088910764075,9.658936540875567,-0.048089415,-0.077460326,-0.04333611,1.0662502,-0.9020865,-3.0,0.0,-1.0631608,0.54230833,0.0,0.14420287,0.042438287,9.921822,-0.14076078,-0.0854938,0.0,-0.041738313,0.732172701684935,-0.028578244149684906,-0.04424576088786125,0.011243078857660294
14.202348947525024,0.9368066,-0.74077713,-3.0890164,-0.008412966847181715,nan,nan,nan,nan,4.202248811721802,0.0002608299255371094,-1.0509036,0.5967885,0.037796758,0.13106710770246202,0.05120599017860239,9.648435320127737,-0.045810763,-0.05700174,-0.032254875,0.96102995,-0.84281033,-3.0,0.0,-1.1020538,0.6763355,0.0,0.13484569,0.038304936,9.907138,-0.16013873,-0.1069035,0.0,-0.043327924,0.7317691459295634,-0.08775504678487778,-0.06519192457199097,0.022819042205810547
14.30576205253601,0.82781607,-0.67111087,-3.0877945,-0.010682296068996601,nan,nan,nan,nan,4.3055689334869385,0.0002288818359375,-1.0896156,0.7168603,0.037527986,0.12449149994091704,0.045915827842886836,9.63214964600278,-0.08533441,-0.055523187,-0.019369787,0.8452215,-0.76603377,-3.0,0.0,-1.1389043,0.8077667,0.0,0.122690745,0.033745777,9.889933,-0.17118986,-0.12808043,0.0,-0.044904094,0.7311428623890627,-0.11468422412872314,-0.05582992359995842,0.033938053995370865
14.409586668014526,0.7160815,-0.59086424,-3.0868483,-0.011964982600945036,nan,nan,nan,nan,4.410049200057983,0.0003609657287597656,-1.1217992,0.8271696,0.037526656,0.1142430159726324,0.04054484372358269,9.617625065464509,-0.12738836,-0.060787674,-0.005782419,0.7244929,-0.67528707,-3.0,0.0,-1.1712892,0.926839,0.0,0.108277276,0.028976936,9.871933,-0.17149659,-0.14745292,0.0,-0.046356663,0.730583856830433,-0.130888432264328,-0.040890127420425415,0.04178356006741524
14.501338481903076,0.6019189,-0.501501,-3.0858982,-0.011948394024087983,nan,nan,nan,nan,4.500972747802734,0.00019359588623046875,-1.1485548,0.9243047,0.036944713,0.10026801639000141,0.03495612137769366,9.601382185984388,-0.16087724,-0.06004878,0.006850752,0.6168712,-0.58679575,-3.0,0.0,-1.1953701,1.0175431,0.0,0.09417834,0.024709728,9.856676,-0.16271943,-0.16234758,0.0,-0.04748414,0.7299582191352914,-0.1581675410270691,-0.04821760207414627,0.04156021028757095
14.601217031478882,0.4754933,-0.3954559,-3.0851023,-0.010423935804463519,nan,nan,nan,nan,4.6009087562561035,0.0001914501190185547,-1.171646,1.0114028,0.036032133,0.08195756842520435,0.028650811029927503,9.584574058223499,-0.18662822,-0.059540056,0.018755114,0.49627358,-0.48075262,-3.0,0.0,-1.2173358,1.1018901,0.0,0.07723384,0.019909387,9.841282,-0.14379697,-0.17631768,0.0,-0.048552305,0.7293102519995991,-0.16885539889335632,-0.0513419546186924,0.03548756241798401
14.701972484588623,0.35709634,-0.2915181,-3.084617,-0.007760886884370089,nan,nan,nan,nan,4.701847076416016,0.0002827644348144531,-1.1874214,1.0727984,0.035086676,0.06368058127635823,0.023161877909866346,9.5700049378909,-0.19428793,-0.05446261,0.026659546,0.37248224,-0.3659653,-3.0,0.0,-1.2346511,1.1694623,0.0,0.058842216,0.014962756,9.828108,-0.11588436,-0.18759981,0.0,-0.04942368,0.728748140618829,-0.15714794397354126,-0.040174029767513275,0.025499846786260605
14.80150580406189,0.22778727,-0.1749515,-3.0845003,-0.0037405883746453525,nan,nan,nan,nan,4.801091909408569,0.00024056434631347656,-1.1995986,1.1175245,0.033971038,0.044075963493719575,0.018045327190192584,9.558297969344988,-0.18562841,-0.05017727,0.029457979,0.24930482,-0.24736036,-3.0,0.0,-1.246836,1.2175853,0.0,0.039797105,0.010024503,9.818268,-0.08142948,-0.19568706,0.0,-0.050053596,0.7282961477596591,-0.15503984689712524,-0.05021274462342262,0.007733304053544998
14.901606321334839,0.10794069,-0.06541759,-3.084587,0.0005251927591457834,nan,nan,nan,nan,4.901232481002808,0.000202178955078125,-1.2063217,1.139653,0.033270534,0.02640775720455584,0.012992374329402923,9.550281253587439,-0.18176623,-0.05376034,0.026205754,0.12403469,-0.123795934,-3.0,0.0,-1.2542181,1.2469707,0.0,0.019925058,0.0049905,9.812071,-0.0417031,-0.20064786,0.0,-0.050442316,0.7279864717099437,-0.1434977948665619,-0.0433114655315876,-0.009414590895175934
15.001371622085571,-0.021483092,0.052549534,-3.085084,0.0050007612892982965,nan,nan,nan,nan,5.001015663146973,0.0002338886260986328,-1.2079444,1.1435411,0.033252034,0.008134513259145045,0.007686791629355261,9.547603933655177,-0.17073372,-0.047680575,0.017812697,-0.0012766678,0.0012766676,-3.0,0.0,-1.2566369,1.256636,0.0,-0.0002055079,-5.137699e-05,9.81,0.0004332981,-0.20228338,0.0,-0.050570883,0.7278830211238905,-0.1387530416250229,-0.04791960492730141,-0.027778491377830505
15.101195812225342,-0.13985531,0.15882343,-3.0857682,0.008270286453910453,nan,nan,nan,nan,5.100975036621094,0.00022792816162109375,-1.2039449,1.1298447,0.03271663,-0.007865749248499199,0.0032550015250374376,9.548207493873765,-0.16163215,-0.043705177,0.008356809,-0.12680382,0.1265487,-3.0,0.0,-1.2541089,1.2465342,0.0,-0.020367999,-0.005101868,9.812163,0.042615987,-0.20057406,0.0,-0.05043653,0.7279063437188804,-0.13117153942584991,-0.040402065962553024,-0.04149399325251579
15.201422929763794,-0.25652373,0.26137856,-3.0865119,0.010067161951274238,nan,nan,nan,nan,5.201115608215332,0.00021529197692871094,-1.1948808,1.1007754,0.032364868,-0.02306974353927472,-0.0008660106423952207,9.552118692102361,-0.15615699,-0.0456226,-0.003877326,-0.25205752,0.25004777,-3.0,0.0,-1.2466174,1.2167182,0.0,-0.040229008,-0.010135007,9.818448,0.08225758,-0.19554093,0.0,-0.050042167,0.7280574612187505,-0.12756036221981049,-0.031999845057725906,-0.04945211485028267
15.30160403251648,-0.3615532,0.35070124,-3.0870163,0.010230008340987222,nan,nan,nan,nan,5.301218271255493,0.00018262863159179688,-1.1819346,1.0612376,0.0326191,-0.0364924529967432,-0.004633262639969438,9.561667143257788,-0.14765124,-0.038734924,-0.016260507,-0.3762664,0.36954758,-3.0,0.0,-1.234198,1.167682,0.0,-0.05941684,-0.01511423,9.828465,0.116847515,-0.1873015,0.0,-0.049400523,0.7284262561204464,-0.12857834994792938,-0.011744804680347443,-0.05183592438697815
15.401206731796265,-0.48318365,0.44915226,-3.087393,0.008687402259915586,nan,nan,nan,nan,5.400813817977905,0.00018715858459472656,-1.1619369,0.99915713,0.03278382,-0.05149634937051556,-0.007884170540073399,9.575593109803728,-0.13890627,-0.028208205,-0.029489314,-0.49837077,0.48265004,-3.0,0.0,-1.2169975,1.1005795,0.0,-0.07753745,-0.019993026,9.841531,0.14420058,-0.17609969,0.0,-0.04853554,0.7289637961573932,-0.12652939558029175,-0.016762614250183105,-0.04788495972752571
15.501261472702026,-0.6019051,0.53876203,-3.087562,0.005727524594577843,nan,nan,nan,nan,5.500840425491333,0.00017952919006347656,-1.1383357,0.92194,0.032585777,-0.06582527253278792,-0.010718427456957391,9.590965358840757,-0.13389845,-0.020220388,-0.03855458,-0.61903834,0.5886394,-3.0,0.0,-1.1949277,1.0158601,0.0,-0.09447248,-0.024795812,9.856971,0.16297515,-0.16207004,0.0,-0.04746303,0.7295567087843662,-0.12082257866859436,-0.02330157160758972,-0.03820277005434036
15.601361513137817,-0.70796305,0.6119226,-3.0878112,0.002151214142735107,nan,nan,nan,nan,5.600987434387207,0.00018715858459472656,-1.1137563,0.8373469,0.032028764,-0.07844876716500354,-0.013140708977295246,9.608389483171036,-0.12388033,-0.025089445,-0.041446593,-0.73740304,0.6854514,-3.0,0.0,-1.1681043,0.9149806,0.0,-0.10989405,-0.029487778,9.873829,0.17199168,-0.14551482,0.0,-0.046210706,0.7302281886740976,-0.1182699054479599,-0.023388348519802094,-0.027267523109912872
15.701534509658813,-0.8184722,0.680268,-3.0884156,-0.002160970469864902,nan,nan,nan,nan,5.701140642166138,0.00026297569274902344,-1.0835168,0.73292136,0.031157117,-0.09100362599784714,-0.016219510695589134,9.626427365022236,-0.11355355,-0.023805002,-0.04078565,-0.8528554,0.77142614,-3.0,0.0,-1.1366554,0.7996219,0.0,-0.123545684,-0.03404673,9.891079,0.17079088,-0.12676215,0.0,-0.044805698,0.7309226800867057,-0.1028401255607605,-0.02693123370409012,-0.011876060627400875
15.801674127578735,-0.91592795,0.7326416,-3.08942,-0.006032626572914618,nan,nan,nan,nan,5.801291465759277,0.00020551681518554688,-1.0523065,0.6265284,0.029947653,-0.10134811318064443,-0.01907648135348894,9.643313243018921,-0.10159229,-0.021432605,-0.03622677,-0.9649295,0.8451966,-3.0,0.0,-1.1007078,0.6716167,0.0,-0.13522284,-0.038458236,9.907704,0.15957911,-0.106146745,0.0,-0.043271728,0.731572227827399,-0.0998963713645935,-0.023317895829677582,0.0003461875021457672
15.901864290237427,-1.0166774,0.77758014,-3.090642,-0.009757896545448431,nan,nan,nan,nan,5.901470184326172,0.00027632713317871094,-1.0161676,0.5019037,0.028372558,-0.11131282998603248,-0.021863532906921224,9.658540915774639,-0.08373037,-0.022557184,-0.028111394,-1.0732133,0.9056123,-3.0,0.0,-1.0603912,0.532948,0.0,-0.14475866,-0.04271164,9.92274,0.13916758,-0.08400458,0.0,-0.041627627,0.7321575020221419,-0.08063462376594543,-0.028147872537374496,0.013867661356925964
16.00310707092285,-1.0980608,0.8056664,-3.0914516,-0.012157081817611423,nan,nan,nan,nan,6.003176927566528,0.00037789344787597656,-0.98353434,0.39073485,0.027137386,-0.11822997168010789,-0.024244489016960857,9.67118281826609,-0.069325686,-0.024137532,-0.01898846,-1.178798,0.9522826,-3.0,0.0,-1.0151644,0.3835478,0.0,-0.15210694,-0.046856362,9.935494,0.110443525,-0.060323037,0.0,-0.039860364,0.7326430419595396,-0.0996275544166565,-0.025161337107419968,0.019132286310195923
16.102176904678345,-1.1896856,0.82575846,-3.0925047,-0.01396068922151325,nan,nan,nan,nan,6.102020978927612,0.0003333091735839844,-0.94279516,0.25298902,0.025163742,-0.12629287656680122,-0.026972227740538424,9.678727503756518,-0.07615913,-0.023941506,-0.008124777,-1.2768043,0.9827601,-3.0,0.0,-0.9672373,0.23233378,0.0,-0.15689676,-0.050707843,9.944778,0.076608285,-0.036486153,0.0,-0.038055494,0.7329326609213311,-0.06719843298196793,-0.034383729100227356,0.026377849280834198
16.201446771621704,-1.2698759,0.83114344,-3.0930219,-0.014587935056584608,nan,nan,nan,nan,6.20121431350708,0.0002002716064453125,-0.9029336,0.12000429,0.024123823,-0.13281206117879824,-0.02981918015929441,9.684614348916794,-0.053273764,-0.032917466,0.0018043258,-1.3702064,0.9981214,-3.0,0.0,-0.91539234,0.07699072,0.0,-0.15930822,-0.054389328,9.950529,0.038903832,-0.0120814815,0.0,-0.036158837,0.7331585617289114,-0.0443255677819252,-0.039826251566410065,0.02833186462521553
16.304165840148926,-1.3452065,0.8234496,-3.0932953,-0.014076782867761276,nan,nan,nan,nan,6.304078102111816,0.0003123283386230469,-0.8602406,-0.016743168,0.023545172,-0.13671339425044265,-0.03314973011084499,9.68608061143429,-0.019726876,-0.036655575,0.011714587,-1.4614407,0.9976918,-3.0,0.0,-0.85787714,-0.085331306,0.0,-0.1592408,-0.058003567,9.952445,-0.0016977412,0.013390587,0.0,-0.03409669,0.7332148171596031,-0.028495728969573975,-0.042171332985162735,0.025743626058101654
16.40097713470459,-1.4207375,0.800239,-3.0934982,-0.012538000569468438,nan,nan,nan,nan,6.400578260421753,0.0001983642578125,-0.8090988,-0.16597727,0.022946784,-0.13872843421733133,-0.03702763054795444,9.684195285516315,-0.011308483,-0.0370342,0.016105974,-1.5414898,0.98215073,-3.0,0.0,-0.8006586,-0.23636778,0.0,-0.15680107,-0.06119667,9.950472,-0.038847037,0.037120786,0.0,-0.03206486,0.7331424829305303,0.02828817442059517,-0.03942074254155159,0.0215386264026165
16.502284288406372,-1.4794536,0.7691529,-3.0935786,-0.010625514784244519,nan,nan,nan,nan,6.501910209655762,0.00020170211791992188,-0.76245165,-0.2913421,0.022019487,-0.1383344460574999,-0.040215100710325524,9.677044132801226,0.02182353,-0.036688596,0.018423166,-1.619444,0.95031184,-3.0,0.0,-0.7374118,-0.39119047,0.0,-0.15179697,-0.064333044,9.944691,-0.074503,0.061530896,0.0,-0.02981708,0.7328680508965976,0.030653612688183784,-0.037645258009433746,0.012693576514720917
16.601041555404663,-1.5375569,0.723823,-3.0934336,-0.0081094440121567,nan,nan,nan,nan,6.60061240196228,0.0002384185791015625,-0.7073504,-0.42441747,0.02185783,-0.1351043404081131,-0.04345654238923968,9.66833748065167,0.05464043,-0.03165162,0.021041255,-1.6890684,0.9044989,-3.0,0.0,-0.67293125,-0.53592557,0.0,-0.14458317,-0.06716284,9.935838,-0.10383067,0.08447822,0.0,-0.027501158,0.732533788227892,0.057968661189079285,-0.03178698569536209,0.0026110224425792694
16.701220273971558,-1.5930248,0.66207606,-3.093128,-0.005109092826847281,nan,nan,nan,nan,6.700807332992554,0.00031280517578125,-0.6430962,-0.5604756,0.021541653,-0.12819078044131388,-0.04641402126074001,9.65326244898372,0.08948464,-0.023551172,0.017951678,-1.7531023,0.8437835,-3.0,0.0,-0.60483044,-0.6744167,0.0,-0.1349995,-0.0697947,9.924239,-0.1263368,0.10659576,0.0,-0.025008691,0.7319546769195635,0.09401417523622513,-0.021094409748911858,-0.009523207321763039
16.80120301246643,-1.6376063,0.5942815,-3.0930924,-0.0024912130250709583,nan,nan,nan,nan,6.800802230834961,0.00044083595275878906,-0.58097607,-0.67548835,0.021310823,-0.11850668887764501,-0.048322684202251054,9.6360486546927,0.10871672,-0.01498579,0.012102278,-1.8100834,0.7698699,-3.0,0.0,-0.5344766,-0.8019868,0.0,-0.12329897,-0.072164714,9.91084,-0.1401371,0.12714484,0.0,-0.022367837,0.7312928512385297,0.0998031497001648,-0.016905488446354866,-0.02105112373828888
16.90433406829834,-1.6785942,0.51068133,-3.0935087,-0.0001078241126602833,nan,nan,nan,nan,6.904141426086426,0.00022101402282714844,-0.5117769,-0.78581667,0.02129865,-0.10587236086074844,-0.049672183831164896,9.621232115554147,0.12921377,-0.008299766,0.004642256,-1.8614627,0.6807437,-3.0,0.0,-0.45955673,-0.920514,0.0,-0.10914529,-0.07432798,9.896047,-0.1444309,0.14641891,0.0,-0.019470718,0.7307227202519534,0.10895293205976486,-0.013481002300977707,-0.03147374838590622
17.00382113456726,-1.7067937,0.43402764,-3.0943172,0.0016594251948153088,nan,nan,nan,nan,7.0033793449401855,0.00016498565673828125,-0.45090112,-0.8652083,0.020679437,-0.09526352335519224,-0.05101017171356559,9.609609029369883,0.11899669,-0.010093867,-0.004406305,-1.9034209,0.5843445,-3.0,0.0,-0.3857838,-1.0197682,0.0,-0.09378723,-0.07611547,9.881916,-0.13879134,0.16271462,0.0,-0.01652799,0.7302751639675115,0.09550793468952179,-0.014900276437401772,-0.039644189178943634
17.101036548614502,-1.7318954,0.34576413,-3.0952806,0.0030017503997763484,nan,nan,nan,nan,7.100620269775391,0.0003123283386230469,-0.38403845,-0.93881774,0.019972073,-0.08417389004725472,-0.0524411299566645,9.591509376394084,0.12258664,-0.0007494422,-0.013791804,-1.9373602,0.48107007,-3.0,0.0,-0.31203827,-1.1016713,0.0,-0.07728464,-0.07757653,9.869052,-0.124366626,0.17628126,0.0,-0.013499445,0.7295776830091243,0.10827171802520752,-0.010681203566491604,-0.04470021277666092
17.20135498046875,-1.7519007,0.24556439,-3.0957544,0.003676789686852519,nan,nan,nan,nan,7.200963020324707,0.0003020763397216797,-0.31100887,-1.002943,0.019988628,-0.07103742383378892,-0.05331787311345826,9.579715473207166,0.12375988,-0.0051378165,-0.023423892,-1.9648008,0.36699918,-3.0,0.0,-0.2347234,-1.1689506,0.0,-0.05900806,-0.078768626,9.857669,-0.101232626,0.18751405,0.0,-0.010240128,0.7291228437215578,0.1273941844701767,-0.006017034873366356,-0.046968311071395874
17.308446168899536,-1.7622167,0.16622612,-3.0956159,0.003802569937612292,nan,nan,nan,nan,7.308397054672241,0.00034928321838378906,-0.2547489,-1.0406554,0.020576475,-0.05995605206115357,-0.05391982303960763,9.56819599554174,0.1430756,0.00048811288,-0.029913317,-1.9855243,0.23845543,-3.0,0.0,-0.15091829,-1.2203875,0.0,-0.03836585,-0.079675704,9.848468,-0.068942375,0.19615938,0.0,-0.006627879,0.7286783174598223,0.10341858863830566,-0.03397970646619797,-0.047210339456796646
17.403844118118286,-1.7685609,0.06896784,-3.0952673,0.0032440260870589196,nan,nan,nan,nan,7.4034507274627686,0.000179290771484375,-0.18744901,-1.0725428,0.02117316,-0.04626976056032674,-0.055319595781214925,9.562780012825955,0.13184455,-0.019879721,-0.03751959,-1.9963211,0.12102898,-3.0,0.0,-0.07618489,-1.2473994,0.0,-0.01947983,-0.08015069,9.843463,-0.035837967,0.2007204,0.0,-0.0033577683,0.7284692270891392,0.12104319036006927,-0.03060467541217804,-0.04316961020231247
17.503336429595947,-1.7674115,-0.037253205,-3.0949323,0.0021856973384467102,nan,nan,nan,nan,7.5029637813568115,0.0005481243133544922,-0.112552285,-1.0909954,0.022251384,-0.03184277489677219,-0.058142239017370034,9.560018525572945,0.14148141,-0.01743647,-0.04182961,-1.9999965,-0.003725067,-3.0,0.0,0.0023405328,-1.2566284,0.0,0.000599632,-0.080312796,9.841725,0.0011119372,0.20228209,0.0,0.00010328359,0.7283625938403129,0.14916305243968964,-0.009474780410528183,-0.03516995161771774
17.60326361656189,-1.76091,-0.13430622,-3.0944088,0.0009092810060593402,nan,nan,nan,nan,7.603132247924805,0.0003027915954589844,-0.04329491,-1.0929053,0.02365813,-0.01666177069346178,-0.059606923157204283,9.562022857631078,0.16290155,-0.006729491,-0.043138914,-1.9958024,-0.1292371,-3.0,0.0,0.08137285,-1.2460986,0.0,0.020800572,-0.08012785,9.843706,0.038224943,0.2005004,0.0,0.0035858017,0.7284399915070723,0.16129186749458313,-0.008430994115769863,-0.02721359208226204
17.703892469406128,-1.748736,-0.22869325,-3.0941856,-0.00031077596462612963,nan,nan,nan,nan,7.703835964202881,0.0003714561462402344,0.025172522,-1.0782723,0.024414578,0.00039362146008108155,-0.060019227557353005,9.568475938106406,0.17911138,-0.0011702218,-0.042074267,-1.9836195,-0.25335646,-3.0,0.0,0.16050313,-1.2156368,0.0,0.04076074,-0.07959207,9.849336,0.07293937,0.19535874,0.0,0.0070444373,0.728689123362536,0.160417377948761,-0.017054591327905655,-0.020863842219114304
17.806023120880127,-1.7328656,-0.31182194,-3.0939546,-0.0012579830056020603,nan,nan,nan,nan,7.806208372116089,0.0004124641418457031,0.08687492,-1.049419,0.024968103,0.016774671212428132,-0.061060239100721336,9.577068047414052,0.1787662,-0.013715209,-0.038032964,-1.9630976,-0.37536755,-3.0,0.0,0.24028394,-1.1647469,0.0,0.06035034,-0.07869433,9.858402,0.1031341,0.18680975,0.0,0.010477119,0.7290207056101963,0.15643616020679474,-0.03770431876182556,-0.014911643229424953
17.90572214126587,-1.7067175,-0.4110659,-3.0935755,-0.00209078166489398,nan,nan,nan,nan,7.9054114818573,0.0002892017364501953,0.16445044,-0.9920724,0.025510717,0.037072157639132415,-0.06322305546937046,9.58795982744776,0.17060629,-0.019274868,-0.03177829,-1.9354638,-0.48770213,-3.0,0.0,0.31665,-1.0970569,0.0,0.07834577,-0.07749452,9.869806,0.12550293,0.17551386,0.0,0.013691256,0.7294408218539826,0.13553555309772491,-0.013210153207182884,-0.009017647244036198
18.007063388824463,-1.6817328,-0.48238146,-3.092873,-0.0023676563877809594,nan,nan,nan,nan,8.00696587562561,0.0002753734588623047,0.22484544,-0.9314515,0.02608075,0.051866534817599896,-0.06468310409193756,9.602373484934198,0.15525748,-0.018768897,-0.02601014,-1.89939,-0.59484404,-3.0,0.0,0.39354903,-1.0101366,0.0,0.09546228,-0.07594285,9.883357,0.13981897,0.16112652,0.0,0.016841926,0.7299964168061659,0.13306111097335815,-0.033560626208782196,-0.006396993529051542
18.10243558883667,-1.6495444,-0.5517291,-3.0915644,-0.002141330236476932,nan,nan,nan,nan,8.102305173873901,0.00030541419982910156,0.29040152,-0.8506621,0.026722742,0.06668471521087493,-0.0666380105902924,9.620728314036953,0.14387845,-0.026005981,-0.020529686,-1.8584844,-0.6866565,-3.0,0.0,0.46429124,-0.91355264,0.0,0.11008569,-0.074201845,9.896978,0.1444673,0.14528157,0.0,0.019656513,0.7307033265760112,0.11490805447101593,-0.027901925146579742,-0.005793014541268349
18.202950477600098,-1.6083145,-0.61508256,-3.0897,-0.0011704894900984447,nan,nan,nan,nan,8.202807903289795,0.0002665519714355469,0.3622955,-0.7472345,0.027154718,0.08080999463522971,-0.06894009909663246,9.63943432610713,0.12343317,-0.027965583,-0.015406062,-1.8081487,-0.7727579,-3.0,0.0,0.53705555,-0.7975887,0.0,0.12375679,-0.07208377,9.9113455,0.1398005,0.1264332,0.0,0.022465961,0.7314230681816751,0.08702230453491211,-0.010977542027831078,-0.007515340112149715
18.301241636276245,-1.5689416,-0.6584554,-3.08799,0.00014684555669364913,nan,nan,nan,nan,8.300877571105957,0.0002770423889160156,0.42278573,-0.6488011,0.027087873,0.09120016389935065,-0.0707042406805587,9.6568746989616,0.10073276,-0.013981199,-0.013133026,-1.7520818,-0.8449184,-3.0,0.0,0.60599667,-0.67216927,0.0,0.13517886,-0.06975251,9.924452,0.1260269,0.106235355,0.0,0.025051873,0.7320934836235481,0.08086062967777252,-0.01956469938158989,-0.012198807671666145
18.403030395507812,-1.5170674,-0.6973066,-3.0864449,0.0020450565903680426,nan,nan,nan,nan,8.402614831924438,0.0001990795135498047,0.49356717,-0.5229991,0.025990687,0.10103556905604488,-0.07222982068885342,9.668730971182212,0.07600123,-0.009655753,-0.01011576,-1.6868929,-0.9062212,-3.0,0.0,0.67508215,-0.531311,0.0,0.14485465,-0.067073956,9.936172,0.10297537,0.0837442,0.0,0.027579006,0.7325488982218319,0.054291870445013046,-0.006357714533805847,-0.01800718903541565
18.50166344642639,-1.4631274,-0.7206949,-3.0854344,0.0039122632392061055,nan,nan,nan,nan,8.501325607299805,0.0002512931823730469,0.5585937,-0.3995119,0.024323184,0.10823524502094975,-0.07345313344579663,9.678233614007457,0.05633808,-0.004779436,-0.009340751,-1.6170543,-0.9515699,-3.0,0.0,0.7394792,-0.38633102,0.0,0.15199482,-0.06423642,9.94493,0.073440336,0.060762856,0.0,0.02989082,0.7329137053558208,0.039212264120578766,-8.103996515274048e-05,-0.023768417537212372
18.6017107963562,-1.3983326,-0.7326572,-3.084505,0.00599365149441948,nan,nan,nan,nan,8.601351022720337,0.00021386146545410156,0.6277425,-0.2612323,0.023215253,0.11242852233246625,-0.07273522538303245,9.685145580957158,0.021371197,0.011021263,-0.013111862,-1.5399435,-0.982604,-3.0,0.0,0.80183244,-0.23337384,0.0,0.15687226,-0.061134752,9.950546,0.03812743,0.036649775,0.0,0.032106485,0.7331789437601991,0.018298212438821793,0.010801944881677628,-0.03061441332101822
18.701809644699097,-1.3332633,-0.7307929,-3.0838077,0.00767372622193388,nan,nan,nan,nan,8.701700448989868,0.0002391338348388672,0.68864155,-0.1319832,0.021608045,0.11390457727624283,-0.07110663846294618,9.687787210044894,0.0011268748,0.020011503,-0.017432695,-1.4564736,-0.99815863,-3.0,0.0,0.8612055,-0.076224744,0.0,0.15931407,-0.057806194,9.952448,-0.0005789941,0.011961262,0.0,0.034215268,0.7332802880947202,0.021646276116371155,-0.00025385990738868713,-0.036913082003593445
18.801517963409424,-1.2575787,-0.71493345,-3.0834756,0.009043448731032265,nan,nan,nan,nan,8.8011953830719,0.0002460479736328125,0.75069386,0.0071024513,0.018719513,0.1139728587456966,-0.06938229143326202,9.685047003773487,-0.0061439713,0.010323121,-0.022332672,-1.3679991,-0.9979313,-3.0,0.0,0.91669464,0.08078826,0.0,0.15927838,-0.054302145,9.950435,-0.039846525,-0.012677518,0.0,0.03620595,0.7331751616449463,0.005702202208340168,0.005285788327455521,-0.040626078844070435
18.901332139968872,-1.1830586,-0.68820083,-3.0837576,0.009649672053749558,nan,nan,nan,nan,8.900939464569092,0.000385284423828125,0.8047636,0.13326447,0.01573745,0.11350573680612103,-0.06812874431357652,9.678056968485452,-0.011333963,0.0056414003,-0.026161477,-1.2739375,-0.9820652,-3.0,0.0,0.96872854,0.23692843,0.0,0.15678763,-0.05059505,9.94455,-0.07768736,-0.037208993,0.0,0.038110804,0.7329069255557387,0.003950733691453934,-0.0018646381795406342,-0.04135294631123543
19.00165605545044,-1.0975095,-0.64698875,-3.084919,0.009641599263713906,nan,nan,nan,nan,9.001451253890991,0.00024771690368652344,0.86071694,0.26678747,0.01332184,0.11274987344234,-0.06743514089549629,9.666080114950873,-0.02133342,0.0046158712,-0.031231366,-1.1740942,-0.95049125,-3.0,0.0,1.0173141,0.39050174,0.0,0.15182519,-0.046671677,9.934979,-0.1119005,-0.061422028,0.0,0.039942805,0.7324470996861356,-0.024458173662424088,0.01214265450835228,-0.0383220799267292
19.10130000114441,-1.0137093,-0.5981431,-3.0865464,0.009123732362906707,nan,nan,nan,nan,9.100877046585083,0.00019311904907226562,0.910685,0.38617802,0.011172095,0.11001283871789186,-0.06601328389850503,9.648941926916578,-0.041606337,0.011049678,-0.034692176,-1.0707227,-0.90435714,-3.0,0.0,1.0613848,0.53630316,0.0,0.14456081,-0.042613868,9.922413,-0.13974182,-0.084538296,0.0,0.041667297,0.7317886195716586,-0.03242003917694092,0.011255919933319092,-0.033642787486314774
19.20188283920288,-0.9179052,-0.5338241,-3.0890348,0.008191030202221297,nan,nan,nan,nan,9.201708555221558,0.00023221969604492188,0.96221113,0.508888,0.009342685,0.10523953513447688,-0.06401425786590664,9.630358291675785,-0.04911498,0.007912674,-0.035566792,-0.9616248,-0.84317523,-3.0,0.0,1.101849,0.6756169,0.0,0.13490337,-0.038328316,9.907225,-0.16005416,-0.10678825,0.0,0.043319363,0.7310739415740872,-0.058580704033374786,0.026362497359514236,-0.026281073689460754
19.30214214324951,-0.825506,-0.46411258,-3.091632,0.007275905129351799,nan,nan,nan,nan,9.302011251449585,0.0002734661102294922,1.0068921,0.61537766,0.008491157,0.09957283882572718,-0.06160312093325415,9.609044708569984,-0.07596449,0.029285885,-0.035133746,-0.84927034,-0.76889926,-3.0,0.0,1.1377147,0.803456,0.0,0.12314508,-0.033905406,9.89054,-0.170984,-0.12738262,0.0,0.044852007,0.7302534274533269,-0.07379625737667084,0.026923704892396927,-0.020305611193180084
19.402199506759644,-0.7381184,-0.39266542,-3.0941453,0.006542306576843633,nan,nan,nan,nan,9.402000188827515,0.0003380775451660156,1.0442384,0.70556736,0.008100679,0.09246335544217968,-0.058706677062743795,9.584936220457296,-0.09463184,0.032346413,-0.03315969,-0.73391116,-0.6827124,-3.0,0.0,1.1689721,0.91820866,0.0,0.10945843,-0.029349633,9.873315,-0.17186993,-0.1460422,0.0,0.04625041,0.7293242196376734,-0.07021121680736542,0.008526884019374847,-0.016418181359767914
19.501258373260498,-0.6323498,-0.29976937,-3.0971522,0.00603645932821683,nan,nan,nan,nan,9.500829935073853,0.00020122528076171875,1.08341,0.80061454,0.008679193,0.08160837780509167,-0.05481081944993882,9.562198268880588,-0.11539952,0.032847453,-0.028474748,-0.6170416,-0.58694077,-3.0,0.0,1.1953353,1.0174109,0.0,0.094201475,-0.024716495,9.856699,-0.16273962,-0.16232578,0.0,0.04748248,0.7284467646600696,-0.10207194089889526,0.01997433975338936,-0.012463729828596115
19.60112500190735,-0.5324257,-0.20694497,-3.099593,0.005834142343022278,nan,nan,nan,nan,9.60075306892395,0.0001647472381591797,1.1150655,0.8757175,0.010242812,0.06992241816636499,-0.05154798628728119,9.54185526218031,-0.13039465,0.025162509,-0.02466307,-0.49646327,-0.4809243,-3.0,0.0,1.2173053,1.1017717,0.0,0.07726132,-0.019916957,9.841305,-0.14383356,-0.17629799,0.0,0.048550792,0.7276608457064924,-0.11507970094680786,0.018270842730998993,-0.009185105562210083
19.701245546340942,-0.42152414,-0.101448484,-3.1017015,0.005802243776161613,nan,nan,nan,nan,9.700854778289795,0.0002009868621826172,1.1456361,0.9408744,0.013229958,0.05592857095744962,-0.04856076917586649,9.525938828920463,-0.14617144,0.030430792,-0.020237362,-0.37370664,-0.36712486,-3.0,0.0,1.234505,1.1688882,0.0,0.059028227,-0.01501177,9.828223,-0.11619671,-0.1875036,0.0,0.049416218,0.7270453558702846,-0.13852405548095703,0.037582624703645706,-0.00489874929189682
19.80190920829773,-0.32528758,-0.009726279,-3.1029937,0.005820743122199976,nan,nan,nan,nan,9.80174207687378,0.000446319580078125,1.1687192,0.98199654,0.016379606,0.042470451752102484,-0.04528150089060157,9.51526731792603,-0.15969011,0.037816674,-0.015807642,-0.2484937,-0.2465682,-3.0,0.0,1.2468998,1.217839,0.0,0.039669793,-0.009991941,9.818214,-0.08118504,-0.19572982,0.0,0.050056938,0.7266323996351663,-0.1306738555431366,0.02638978138566017,-0.001450890675187111
19.901067972183228,-0.20931831,0.09938551,-3.103936,0.005844408954812726,nan,nan,nan,nan,9.900637865066528,0.0001895427703857422,1.1927147,1.0121512,0.020238355,0.025997382043095957,-0.04144099472726803,9.507953546436024,-0.15833965,0.03761539,-0.0109987985,-0.12478123,-0.12453813,-3.0,0.0,1.2541889,1.246854,0.0,0.020044487,-0.0050205244,9.812096,-0.041949324,-0.20062812,0.0,0.050440766,0.7263492443370205,-0.14034311473369598,0.05155029147863388,0.0029030609875917435
20.001661777496338,-0.10029705,0.1987961,-3.1045902,0.005914981724270806,nan,nan,nan,nan,10.001432180404663,0.00038933753967285156,1.2112377,1.0224959,0.02363914,0.010702669738342073,-0.037111358076260315,9.506269100287449,-0.1588183,0.047473032,-0.007051073,0.0017999329,0.0017999321,-3.0,0.0,1.2566366,1.2566351,0.0,-0.00028973893,7.243476e-05,9.81,0.0006108925,-0.20228325,0.0,0.050570864,0.7262840149696974,-0.1377856582403183,0.05916397646069527,0.0060944464057683945
20.102128744125366,0.0103513915,0.2957219,-3.1051877,0.00595571903625934,nan,nan,nan,nan,10.101967811584473,0.0003020763397216797,1.2257689,1.0164765,0.027247444,-0.0043918735988814255,-0.03222858250484939,9.509731707738235,-0.15772043,0.065433234,-0.0024513449,0.12804934,0.12778662,-3.0,0.0,1.2540588,1.2463348,0.0,-0.020567186,0.005151959,9.812205,0.043026205,-0.20054035,0.0,0.050433878,0.7264180965097053,-0.1355033963918686,0.06741096079349518,0.008612830191850662
20.207317113876343,0.11329594,0.3815609,-3.1055696,0.006028573842887415,nan,nan,nan,nan,10.207411050796509,0.0005710124969482422,1.2348917,0.9973789,0.030333364,-0.018211485603817183,-0.02610632475829444,9.518811940865115,-0.15264545,0.068333596,-0.00034821435,0.25990337,0.25769946,-3.0,0.0,1.2459812,1.2141944,0.0,-0.041458663,0.010449933,9.818974,0.08460503,-0.19511573,0.0,0.050008934,0.7267695918384703,-0.13439840078353882,0.04990973696112633,0.009058911353349686
20.304208993911743,0.20741045,0.45613256,-3.105767,0.006141581617935732,nan,nan,nan,nan,10.304129838943481,0.00032019615173339844,1.2388121,0.969197,0.03321279,-0.030351414197989833,-0.02093324374054606,9.528511692748861,-0.14952503,0.054333683,0.0027571763,0.37985888,0.3729446,-3.0,0.0,1.2337635,1.1659752,0.0,-0.05996173,0.015258016,9.828807,0.11775605,-0.18701553,0.0,0.049378343,0.727144883556905,-0.14192597568035126,0.0381317064166069,0.009446155279874802
20.40353488922119,0.31978458,0.5404181,-3.1060476,0.006438747587681298,nan,nan,nan,nan,10.403409242630005,0.0002994537353515625,1.237943,0.922193,0.035795607,-0.04495473462629829,-0.0158158183636663,9.545980786995488,-0.15170863,0.047503892,0.005714999,0.5015285,0.48550373,-3.0,0.0,1.2164853,1.0985956,0.0,-0.07799404,0.02011896,9.841906,0.14480358,-0.17576973,0.0,0.048510186,0.7278202963147526,-0.14663684368133545,0.05040978640317917,0.008711349219083786
20.505324840545654,0.42223018,0.6118996,-3.1062715,0.006803287315847947,nan,nan,nan,nan,10.504919052124023,0.00022172927856445312,1.2330946,0.86662173,0.03739858,-0.05858404143268535,-0.010869119233093638,9.565479952262239,-0.15575936,0.05107588,0.007321213,0.62390983,0.5927748,-3.0,0.0,1.193927,1.0120556,0.0,-0.095132194,0.024989292,9.857637,0.16353852,-0.16144283,0.0,0.047415335,0.7285734688197226,-0.15611916780471802,0.05081816390156746,0.008236639201641083
20.602102041244507,0.5425806,0.6878112,-3.1065261,0.0072406127327819605,nan,nan,nan,nan,10.601709604263306,0.00021338462829589844,1.2229086,0.7852803,0.038757935,-0.07572868712531372,-0.005623718914800513,9.58584422128041,-0.16444288,0.055477012,0.0079983175,0.73824614,0.68611157,-3.0,0.0,1.167894,0.9141989,0.0,-0.10999904,0.02952113,9.873953,0.17201969,-0.14538711,0.0,0.046201095,0.7293592376642265,-0.13220171630382538,0.08103947341442108,0.005269143730401993
20.702213525772095,0.6434914,0.74392337,-3.1064646,0.00735690582744479,nan,nan,nan,nan,10.701878786087036,0.00025391578674316406,1.2097068,0.7026953,0.039421223,-0.08997554915817105,0.00038010854443615294,9.608580434487656,-0.14822187,0.08003855,0.008382577,0.8536943,0.7720161,-3.0,0.0,1.1364068,0.7987223,0.0,-0.1236392,0.034079794,9.891206,0.17074424,-0.12661661,0.0,0.04479484,0.7302355440610341,-0.1260906606912613,0.08102907240390778,0.004086334258317947
20.80418372154236,0.7704558,0.8027745,-3.1056826,0.007040222622020205,nan,nan,nan,nan,10.804118633270264,0.0002803802490234375,1.1847332,0.581199,0.04014106,-0.105331059870065,0.010316122791219406,9.630368175075846,-0.11743682,0.09166248,0.008180822,0.96804017,0.84709024,-3.0,0.0,1.0996289,0.66783863,0.0,-0.13552211,0.038580522,9.9081545,0.15912394,-0.105541036,0.0,0.04322675,0.7310743218469773,-0.08274655044078827,0.08312177658081055,-0.0005897600203752518
20.902812004089355,0.86853933,0.8386642,-3.1045973,0.006441707757415774,nan,nan,nan,nan,10.902479410171509,0.00015926361083984375,1.1578232,0.47638717,0.040765997,-0.11487274357025364,0.018295304422320857,9.649722659306127,-0.09335144,0.086995244,0.0053364867,1.0742828,0.9061492,-3.0,0.0,1.0599636,0.531505,0.0,-0.1448433,0.042753626,9.92288,0.13891952,-0.08377506,0.0,0.041610576,0.7318186294261737,-0.08352838456630707,0.06837784498929977,-0.0006715357303619385
21.001289129257202,0.97233444,0.86577857,-3.1031501,0.0056215191572214634,nan,nan,nan,nan,11.000944375991821,0.00020384788513183594,1.1208858,0.35327646,0.040889338,-0.12394127248538701,0.025897966389329286,9.66673517124494,-0.082158655,0.07360129,0.0043589477,1.1765308,0.9514227,-3.0,0.0,1.0162022,0.38690305,0.0,-0.15197168,0.04676735,9.935246,0.11114777,-0.060853254,0.0,0.03990015,0.7324722565439538,-0.062413834035396576,0.05860057845711708,-0.0005263015627861023
21.101327180862427,1.0801793,0.87972677,-3.1015866,0.004523261892419014,nan,nan,nan,nan,11.101105213165283,0.00022125244140625,1.0734684,0.21174338,0.04083674,-0.13078670597253228,0.03312796551418429,9.677523197771507,-0.04680736,0.062232584,0.003445783,1.2759175,0.9825465,-3.0,0.0,0.96769917,0.23375614,0.0,-0.15686323,0.050672952,9.944708,0.076942615,-0.036709916,0.0,0.03807262,0.7328864386217869,-0.024877049028873444,0.05059847608208656,0.0004842858761548996
21.201327800750732,1.1826017,0.8778337,-3.1001017,0.003321843281938061,nan,nan,nan,nan,11.200927019119263,0.0001895427703857422,1.0198523,0.06576214,0.03970628,-0.13435857491673664,0.03919567423240866,9.683537032210724,-0.015368346,0.054189257,0.0023224014,1.3699435,0.9980992,-3.0,0.0,0.9155476,0.07744325,0.0,-0.15930474,0.05437895,9.950518,0.039016202,-0.012152506,0.0,0.03616446,0.7331172260922318,0.01051970012485981,0.04426040127873421,0.002038974314928055
21.301367044448853,1.2645102,0.8638055,-3.0988464,0.002272560870964141,nan,nan,nan,nan,11.30098819732666,0.0001914501190185547,0.9702035,-0.05857869,0.038215276,-0.13527552739562973,0.04351375833514193,9.685922566715147,0.0070940745,0.046103794,0.001790941,1.458787,0.997948,-3.0,0.0,0.85965836,-0.08046218,0.0,-0.159281,0.05789811,9.952448,-0.00048067753,0.012626338,0.0,0.03416014,0.7332087537341115,0.0041621653363108635,0.03893396630883217,0.007307829335331917
21.411481618881226,1.348079,0.83570033,-3.0972555,0.0011822454145933997,nan,nan,nan,nan,11.4114089012146,0.0002524852752685547,0.91206616,-0.19316232,0.03683191,-0.13490335268700704,0.04761384734579188,9.684323416615358,0.013955309,0.039278384,0.0010935061,1.550126,0.97949976,-3.0,0.0,0.79404885,-0.2531436,0.0,-0.15638472,0.061542705,9.950029,-0.042862065,0.039760597,0.0,0.031830434,0.7331473991546107,-0.0013358108699321747,0.03629608079791069,0.013239983469247818
21.504703998565674,1.4002097,0.8099477,-3.0961342,0.00051980785149916,nan,nan,nan,nan,11.504693746566772,0.0004496574401855469,0.8713444,-0.28150937,0.036211293,-0.1333944129541885,0.05007083449920113,9.682580005044569,0.038700867,0.03655879,0.0036392102,1.621494,0.9492172,-3.0,0.0,0.73563117,-0.3953651,0.0,-0.15162478,0.06441594,9.944482,-0.07541241,0.062190793,0.0,0.029753547,0.7330805039243332,-0.052515819668769836,0.03838497772812843,0.021220017224550247
21.608341693878174,1.4788153,0.7561569,-3.0941458,-0.0003436813116965004,nan,nan,nan,nan,11.608387470245361,0.0003750324249267578,0.8021042,-0.42079964,0.034691695,-0.13059231975480678,0.053848872090552335,9.677960864456823,0.0061635673,0.034156263,0.005247886,1.6942801,0.90028906,-3.0,0.0,0.66773885,-0.54700476,0.0,-0.14391948,0.067375936,9.935022,-0.10585947,0.086241275,0.0,0.027313014,0.7329032369782733,-0.012992732226848602,0.036868296563625336,0.02320067025721073
21.7036452293396,1.5494685,0.68817407,-3.0921605,-0.0009376124530181273,nan,nan,nan,nan,11.703341245651245,0.000247955322265625,0.72903335,-0.5572068,0.033503685,-0.13054213476663332,0.057719186671973066,9.666466229783824,0.02668022,0.032809112,0.011044026,1.7546325,0.8420704,-3.0,0.0,0.60307604,-0.67778933,0.0,-0.13472871,0.06985798,9.923919,-0.126798,0.107136704,0.0,0.02494371,0.7324619281880588,0.08378062397241592,0.02696613222360611,0.0207599475979805
21.80439066886902,1.6028366,0.620406,-3.0908444,-0.0010077990916112778,nan,nan,nan,nan,11.804715156555176,0.0005517005920410156,0.66467124,-0.66933537,0.032928497,-0.1259268269807437,0.060500000897628636,9.655146337377362,0.0827558,0.026251901,0.013699415,1.8121691,0.7667227,-3.0,0.0,0.531679,-0.8067339,0.0,-0.12279998,0.07225202,9.910291,-0.14048779,0.12791322,0.0,0.022261282,0.7320270716992211,0.1101059839129448,0.027825934812426567,0.020750928670167923
21.904075145721436,1.6540629,0.535905,-3.0901816,-0.0007500142095816439,nan,nan,nan,nan,11.904093503952026,0.00036835670471191406,0.59241074,-0.78278285,0.03191953,-0.11557377564893559,0.06321614243797047,9.646238821672728,0.13280343,0.024601517,0.01689474,1.8614407,0.6807879,-3.0,0.0,0.45959204,-0.92046225,0.0,-0.10915233,0.074327044,9.896054,-0.14443132,0.14641048,0.0,0.019472104,0.7316847080146012,0.14570075273513794,0.024218786507844925,0.01806102693080902
22.002214908599854,1.7146996,0.41335878,-3.0895736,0.00018424748008794012,nan,nan,nan,nan,12.001948356628418,0.00026702880859375,0.4955242,-0.9099772,0.0294885,-0.09747879925104228,0.0669076572834546,9.632445558237363,0.16876978,0.021559266,0.019346643,1.9028683,0.5858026,-3.0,0.0,0.3868588,-1.0184463,0.0,-0.09401988,0.07609179,9.882114,-0.13893947,0.16249655,0.0,0.01657151,0.7311542467406479,0.19911953806877136,0.011092524975538254,0.010121898725628853
22.1020450592041,1.7478504,0.31955788,-3.0904987,0.001089794207399998,nan,nan,nan,nan,12.102761030197144,0.0005695819854736328,0.42688948,-0.98171395,0.027162401,-0.07908470360949027,0.06797852522373038,9.617326681839755,0.23171169,0.005668145,0.019517727,1.9380263,0.47871006,-3.0,0.0,0.31040075,-1.1032935,0.0,-0.076907,0.07760535,9.868787,-0.12395608,0.17655116,0.0,0.013431262,0.7305723685571793,0.19946888089179993,0.009541664272546768,0.0051950374618172646
22.204586505889893,1.766187,0.24231946,-3.0946856,0.0015061620105837302,nan,nan,nan,nan,12.204260110855103,0.00022935867309570312,0.3699851,-1.027053,-0.02301136,-0.06274251293169546,0.0688991274067412,9.595271237569385,0.21531539,0.018186394,0.018013293,1.9655706,0.36314175,-3.0,0.0,0.23216535,-1.1708513,0.0,-0.058389258,0.078802206,9.857337,-0.10034659,0.18783262,0.0,0.010130978,0.7297227027196511,0.12406350672245026,0.04173964262008667,0.007756867446005344
22.302691221237183,1.7880038,0.13729419,-3.106467,0.0019621961821364997,nan,nan,nan,nan,12.302343368530273,0.0002040863037109375,0.2947401,-1.0679244,-0.06620297,-0.04494030219532366,0.07192461079234747,9.564324232714705,0.16417743,0.032294244,0.014759497,1.9845964,0.24583583,-3.0,0.0,0.15566209,-1.2180728,0.0,-0.03955208,0.079634964,9.848891,-0.070929065,0.1957692,0.0,0.0068341414,0.7285288495437464,0.10451396554708481,0.04232317954301834,0.005699951201677322
22.405640363693237,1.8029066,0.018783359,-3.1260643,0.0020578148933888454,nan,nan,nan,nan,12.40544867515564,0.00027060508728027344,0.20999567,-1.0942034,-0.099779956,-0.029650490521029603,0.07581077870029351,9.519244894164137,0.13705677,0.034381196,0.012466296,1.9964718,0.11853634,-3.0,0.0,0.0746102,-1.2477775,0.0,-0.019078733,0.08015734,9.843392,-0.035111472,0.20078431,0.0,0.0032885305,0.7267863472487186,0.1220037043094635,0.02937382087111473,0.0027566133067011833
22.51122736930847,1.8118463,-0.080555834,-3.1410854,0.0018666507377690716,nan,nan,nan,nan,12.511061668395996,0.00022649765014648438,0.1377265,-1.1023239,-0.110337645,-0.017324547123234797,0.07852802283305538,9.459046122806603,0.1468236,0.021605097,0.010163346,1.9999517,-0.013900031,-3.0,0.0,-0.008733858,-1.2565156,0.0,0.0022375141,0.08031082,9.841746,0.004148772,0.20226303,0.0,-0.00038540398,0.7244529700764631,0.14482663571834564,0.045358382165431976,0.0013018730096518993
22.601299285888672,1.815791,-0.17897408,-3.1545637,0.0015390181100932167,nan,nan,nan,nan,12.601043939590454,0.0002486705780029297,0.06527969,-1.0981339,-0.111231856,-0.0035183564296996863,0.08058720557962418,9.421133188384108,0.16080993,0.028181924,0.008285055,1.9959706,-0.1266348,-3.0,0.0,-0.07972763,-1.2465204,0.0,0.020381855,0.080135256,9.843628,0.03746908,0.20057172,0.0,-0.0035134994,0.722979606656037,0.15588411688804626,0.038298703730106354,7.722899317741394e-05
