time,x,y,z,yaw,platform,trajectory,controller,feedforward,traj_time,comp_time,vx,vy,vz,roll,pitch,f,p,q,r,x_ref,y_ref,z_ref,yaw_ref,vx_ref,vy_ref,vz_ref,roll_ref,pitch_ref,f_ref,u_ff_df,u_ff_dphi,u_ff_dpsi,u_ff_dth,throttle,p_cmd,q_cmd,r_cmd
10.016170263290405,-0.02159528,-0.013508129,-2.670723,0.0100758171679074,SIM,figure_eight,contraction,1.0,0.01524209976196289,0.0012516975402832031,0.009925946,0.0050224643,-0.16136722,0.0014387326667970515,-0.0023103243316855426,9.814970321804285,0.005635567,0.00949573,-0.024500296,0.019153496,0.019152617,-3.0,0.0,1.2565795,1.2564067,0.0,-0.0030830281,0.000770791,9.81005,0.0064992057,-0.20224454,0.0,0.050567828,0.738143341809493,1.8437488079071045,-2.060455322265625,-0.04615636169910431
10.100733995437622,-0.01946105,-0.013405567,-2.685808,0.007498080855192597,nan,nan,nan,nan,0.09972047805786133,0.0010972023010253906,0.015358363,0.007643455,-0.18194346,0.017496819909025484,-0.024820496497647504,9.770615378338844,0.5341891,-0.76717675,-0.011871239,0.12523048,0.124984734,-3.0,0.0,1.2541713,1.2467834,0.0,-0.020116348,0.005038592,9.81211,0.042097464,-0.2006162,0.0,0.05043984,0.7364509561029248,1.797012209892273,-2.024465799331665,-0.011393869295716286
10.200765609741211,-0.012925558,-0.010926087,-2.7078173,-0.0038871243893521534,nan,nan,nan,nan,0.1997520923614502,0.0009436607360839844,0.10362572,0.07107664,-0.23728196,0.13335200931684354,-0.17129517551182993,9.596737674791369,1.5157161,-1.6934874,0.0038037703,0.25035742,0.24838816,-3.0,0.0,1.2467526,1.2172549,0.0,-0.039962284,0.010066759,9.8183365,0.0817464,-0.19563137,0.0,0.050049238,0.7297792261589529,1.0537375211715698,-0.9906408190727234,0.1785893440246582
10.300811052322388,0.007495918,0.0017682888,-2.7280037,-0.02627122454723363,nan,nan,nan,nan,0.29979991912841797,0.0009794235229492188,0.30513945,0.23712128,-0.21254954,0.25918943423283874,-0.28581607017232113,9.649653275329625,1.1523749,-0.9666806,0.02766122,0.37451568,0.36789078,-3.0,0.0,1.2344081,1.1685079,0.0,-0.059151083,0.015044153,9.8282995,0.11640271,-0.18743987,0.0,0.04941127,0.7318159624884445,0.012480214238166809,0.09526941180229187,0.38382577896118164
10.400659084320068,0.07119564,0.04782899,-2.7480507,-0.022001765529250983,nan,nan,nan,nan,0.39965009689331055,0.001260519027709961,0.644131,0.55420876,-0.1432776,0.3016463483907908,-0.2949022881181613,9.759267162401231,-0.33538064,0.6316719,0.11297083,0.4969539,0.48136833,-3.0,0.0,1.2172263,1.1014656,0.0,-0.07733237,0.01993652,9.841363,0.14392817,-0.17624706,0.0,0.048546873,0.736017342282554,-1.013340711593628,0.8703781962394714,0.25438475608825684
10.500717639923096,0.15420537,0.1118276,-2.7578204,0.00407258830218557,nan,nan,nan,nan,0.49970531463623047,0.0010051727294921875,0.87828165,0.78404844,-0.10523644,0.22583846244550856,-0.22755253279522658,9.848811052758249,-1.0837165,0.94178617,0.16973409,0.6176818,0.5874856,-3.0,0.0,1.1952047,1.0169142,0.0,-0.0942884,0.024741927,9.856786,0.16281545,-0.16224389,0.0,0.04747625,0.7394319820811218,-1.187213659286499,0.7977078557014465,0.01858454942703247
10.600595951080322,0.29271525,0.21757375,-2.7675872,0.014211644080041025,nan,nan,nan,nan,0.5995967388153076,0.000978231430053711,1.1032249,0.94002247,-0.10767522,0.08052405171371577,-0.14080106919860547,9.863076351452621,-1.1655147,0.70660293,0.17042033,0.7357779,0.68417764,-3.0,0.0,1.1685088,0.9164848,0.0,-0.10969147,0.029423486,9.8735895,0.17193614,-0.14576054,0.0,0.046229202,0.7399745350135883,-0.7258716225624084,0.5340641140937805,0.0064353346824646
10.700682878494263,0.43263516,0.31230053,-2.7778456,-0.005788656886528483,nan,nan,nan,nan,0.6996726989746094,0.0011286735534667969,1.248406,0.93172365,-0.12816873,-0.018588065351546345,-0.09116669750590423,9.8327196915634,-0.7483476,0.5244491,0.13616198,0.85118645,0.77025104,-3.0,0.0,1.1371493,0.8014088,0.0,-0.12335938,0.03398094,9.890829,0.17088205,-0.12705131,0.0,0.044827275,0.7388195066032939,-0.2777349352836609,0.4819813668727875,0.14127439260482788
10.801330327987671,0.58479506,0.39725804,-2.7910702,-0.03674959051992831,nan,nan,nan,nan,0.8004798889160156,0.0015652179718017578,1.3485823,0.8411972,-0.14806724,-0.07226325473582113,-0.046641493732396455,9.796664284039293,-0.35099444,0.5096056,0.11507643,0.9640358,0.8446509,-3.0,0.0,1.1010169,0.6726998,0.0,-0.1351366,0.038423106,9.907575,0.15970847,-0.10632043,0.0,0.04328462,0.737445329909434,-0.06237676739692688,0.4716189205646515,0.23216348886489868
10.900617122650146,0.7404288,0.46664304,-2.8071575,-0.0636408854034722,nan,nan,nan,nan,0.8996014595031738,0.0010089874267578125,1.3869992,0.72128916,-0.16506211,-0.09202942916678093,0.002579483952831696,9.755492457021031,-0.10222148,0.481367,0.12229862,1.0712306,0.9046137,-3.0,0.0,1.0611824,0.53561944,0.0,-0.14460126,0.0426338,9.92248,0.13962509,-0.08442954,0.0,0.041659217,0.7358730554229311,-0.05221714451909065,0.35974666476249695,0.27498364448547363
11.00066328048706,0.9025324,0.52388465,-2.8272424,-0.07884286853606956,nan,nan,nan,nan,0.9996504783630371,0.0011153221130371094,1.3549817,0.5924496,-0.17896597,-0.09681822701394546,0.05136563114221415,9.727109300065786,-0.0635444,0.345231,0.15489082,1.1752152,0.9509207,-3.0,0.0,1.0168029,0.388847,0.0,-0.15189274,0.04671569,9.935102,0.11155471,-0.061160482,0.0,0.039923187,0.7347872233652609,-0.13976484537124634,0.16844716668128967,0.2894996106624603
11.10147500038147,1.0281049,0.559701,-2.8455102,-0.07874082842468873,nan,nan,nan,nan,1.1006152629852295,0.0013303756713867188,1.2809976,0.48936495,-0.1866623,-0.1026581392677549,0.07865478351167265,9.697155222464353,-0.13851376,0.14597036,0.18779112,1.2754437,0.9824318,-3.0,0.0,0.9679458,0.23451588,0.0,-0.15684523,0.05065431,9.944671,0.07712109,-0.036829438,0.0,0.038081765,0.7336395742932574,-0.2309114933013916,0.014366552233695984,0.2824074327945709
11.201157808303833,1.1579317,0.5899414,-2.8675697,-0.06535846901053947,nan,nan,nan,nan,1.2001702785491943,0.0009005069732666016,1.1635722,0.36662513,-0.19014844,-0.11707321587188825,0.09118447544069341,9.676311320532113,-0.21581967,-0.008336275,0.22242285,1.3692502,0.99804014,-3.0,0.0,0.915957,0.078636505,0.0,-0.15929545,0.05435156,9.950488,0.039312463,-0.01233979,0.0,0.036179267,0.7328399228276825,-0.21975019574165344,-0.093837209045887,0.2378310263156891
11.301038980484009,1.2586175,0.6060071,-2.8877625,-0.04460384476902297,nan,nan,nan,nan,1.300036907196045,0.0008630752563476562,1.0463445,0.24054362,-0.18900467,-0.13480151695678033,0.08974327988290232,9.652963695395734,-0.21952619,-0.11872351,0.2391789,1.4579691,0.9980238,-3.0,0.0,0.86020607,-0.078963146,0.0,-0.15929289,0.05786561,9.952449,-0.00010585567,0.012391058,0.0,0.034179654,0.7319431956541328,-0.1596182882785797,-0.14068134129047394,0.1720183789730072
11.400711059570312,1.3495666,0.60878676,-2.9090064,-0.0188987866196295,nan,nan,nan,nan,1.399700403213501,0.001039266586303711,0.92726696,0.08598277,-0.18405972,-0.1507023736212238,0.07989632096335009,9.625312123317267,-0.14776853,-0.158799,0.2359326,1.5407865,0.98235774,-3.0,0.0,0.8011929,-0.2350056,0.0,-0.15683357,0.06116851,9.950506,-0.03851974,0.03690648,0.0,0.032083806,0.7308797601240126,-0.048719339072704315,-0.13379870355129242,0.08390623331069946
11.500701427459717,1.4191991,0.59609926,-2.9279919,0.002930261277383925,nan,nan,nan,nan,1.499690055847168,0.0009686946868896484,0.8307097,-0.06872208,-0.17702153,-0.15796245484119087,0.06934493020231236,9.596409412641075,-0.056926336,-0.14399481,0.2088533,1.6178051,0.95117676,-3.0,0.0,0.7388307,-0.38785678,0.0,-0.15193301,0.06426678,9.944856,-0.073774464,0.061003994,0.0,0.029867688,0.7297665737553747,0.02623351663351059,-0.10647084563970566,0.011248394846916199
11.601000308990479,1.4825425,0.56443244,-2.948045,0.020880209938853422,nan,nan,nan,nan,1.600130558013916,0.0014467239379882812,0.74096864,-0.24061248,-0.16760543,-0.15773079283115218,0.059736586255884516,9.566601515728975,0.031619724,-0.1106715,0.16076776,1.6887438,0.90475714,-3.0,0.0,0.6732527,-0.53523666,0.0,-0.14462388,0.06714958,9.935888,-0.10370337,0.08436863,0.0,0.027512794,0.7286167668426254,0.10991118103265762,-0.07224775105714798,-0.052467577159404755
11.700838088989258,1.5327455,0.5190464,-2.9661045,0.031008922266201396,nan,nan,nan,nan,1.6998291015625,0.001146554946899414,0.6691794,-0.3949914,-0.1579473,-0.15029707805211776,0.05337813082457865,9.535943208057427,0.10616357,-0.07356895,0.10576488,1.75251,0.8444429,-3.0,0.0,0.60550773,-0.67311203,0.0,-0.13510373,0.0697702,9.924363,-0.12615713,0.10638654,0.0,0.025033772,0.7274322860366194,0.14940686523914337,-0.04146047681570053,-0.08726368844509125
11.801563501358032,1.5766534,0.45928076,-2.9836001,0.0349170454276969,nan,nan,nan,nan,1.800745964050293,0.0017936229705810547,0.60425353,-0.53812003,-0.14789388,-0.1376583141013462,0.04943580647512613,9.50588755430653,0.14747177,-0.042180117,0.048929367,1.810053,0.76991534,-3.0,0.0,0.53451705,-0.80191797,0.0,-0.12330618,0.07216345,9.910848,-0.14013194,0.12713371,0.0,0.022369381,0.7262692389822596,0.1681077480316162,-0.013647709041833878,-0.10068102180957794
11.900915145874023,1.6193254,0.38046503,-3.0013397,0.03212613164816368,nan,nan,nan,nan,1.899909257888794,0.001180410385131836,0.53856075,-0.6758597,-0.13614675,-0.12002576570155214,0.04751602928263865,9.477601040620351,0.19796376,-0.012644439,-0.0036098356,1.859511,0.68463016,-3.0,0.0,0.46266556,-0.91595095,0.0,-0.109763436,0.07424531,9.896658,-0.14445938,0.14567333,0.0,0.01959276,0.7251729706884414,0.19533973932266235,0.005253313109278679,-0.09121885895729065
12.00211787223816,1.6579254,0.2897207,-3.0168958,0.02233528631989408,nan,nan,nan,nan,2.001250982284546,0.0018200874328613281,0.4743651,-0.78991205,-0.12390273,-0.09815554835769393,0.047438354158940266,9.452878923732783,0.22289066,0.011577248,-0.04318456,1.9025983,0.58651257,-3.0,0.0,0.3873826,-1.0178008,0.0,-0.094133146,0.076080225,9.882211,-0.13901092,0.16239008,0.0,0.016592707,0.7242135032127691,0.1914079189300537,0.020589035004377365,-0.05471460521221161
12.10063910484314,1.6898651,0.19808544,-3.0298686,0.010420178865296614,nan,nan,nan,nan,2.099660634994507,0.0008974075317382812,0.4155629,-0.87182635,-0.1121543,-0.07692913220554382,0.048985937561726756,9.435008755344894,0.223407,0.027253723,-0.061863083,1.9370602,0.4821273,-3.0,0.0,0.31277242,-1.1009413,0.0,-0.077453814,0.077563554,9.869172,-0.12454949,0.17615984,0.0,0.013530001,0.7235191789851344,0.16936679184436798,0.03529845178127289,-0.010734140872955322
12.200822830200195,1.7154448,0.10965889,-3.040917,-0.0009182434499525605,nan,nan,nan,nan,2.1998403072357178,0.0010943412780761719,0.36043665,-0.92733943,-0.10124893,-0.05855283148234486,0.051960890447441344,9.421206761021164,0.20203315,0.046674795,-0.062810674,1.9645369,0.36831105,-3.0,0.0,0.23559411,-1.1682988,0.0,-0.0592185,0.0787571,9.857783,-0.1015326,0.18740484,0.0,0.010277261,0.7229824686863368,0.13328096270561218,0.052455101162195206,0.03131992742419243
12.301235437393188,1.739925,0.0024475746,-3.05336,-0.013185558721529623,nan,nan,nan,nan,2.3003718852996826,0.001913309097290039,0.2915211,-0.9701286,-0.088390455,-0.03898463314191996,0.05676232016331384,9.411138638798144,0.18269424,0.050414115,-0.04904079,1.984288,0.24823703,-3.0,0.0,0.15720695,-1.2173035,0.0,-0.039938,0.079621404,9.849032,-0.0715725,0.19563958,0.0,0.0069012716,0.7225907073150407,0.11693938821554184,0.0448385551571846,0.07701779901981354
12.439582586288452,1.7489265,-0.04729492,-3.0587513,-0.017994677390931087,nan,nan,nan,nan,2.438563823699951,0.0008313655853271484,0.25838396,-0.9822594,-0.082163066,-0.030649496602889938,0.05904230729791893,9.408739801552144,0.17221798,0.045344185,-0.037110362,1.9985101,0.07712628,-3.0,0.0,0.048495997,-1.2528939,0.0,-0.012414545,0.08024721,9.84243,-0.022947673,0.20164996,0.0,0.002138975,0.7224973350918829,0.03169149160385132,0.1442118138074875,0.0997174084186554
12.500659942626953,1.7687933,-0.20290825,-3.0738416,-0.027307221596798763,nan,nan,nan,nan,2.499650478363037,0.0009520053863525391,0.15153544,-0.992273,-0.06294961,-0.006828996666469954,0.0661854582327226,9.410132577363399,0.12799183,0.077616476,0.010163258,2.0,0.0004390796,-3.0,0.0,0.00027588184,-1.256637,0.0,-7.067958e-05,0.08031296,9.841723,-0.0001310668,0.20228355,0.0,1.2174194e-05,0.7225515488781716,0.08595460653305054,0.02825869619846344,0.1290288269519806
12.60220980644226,1.7748691,-0.29766524,-3.0820181,-0.027913530431485003,nan,nan,nan,nan,2.601219892501831,0.0009846687316894531,0.08197814,-0.97989947,-0.050754268,0.005262167600455874,0.0702177981309946,9.416147675011302,0.12322972,0.026381062,0.041260336,1.9959567,-0.12685417,-3.0,0.0,-0.0798663,-1.2464852,0.0,0.020417152,0.080134645,9.843635,0.037532832,0.20056576,0.0,-0.0035195937,0.722785640434964,0.0904613509774208,0.02910778671503067,0.1289670318365097
12.700623273849487,1.7749923,-0.39530268,-3.089437,-0.024915408690960733,nan,nan,nan,nan,2.6996071338653564,0.0010223388671875,0.005620518,-0.9516633,-0.036826625,0.01850365751866552,0.0726662960751252,9.432745345477011,0.118896104,0.025493803,0.07118587,1.9842912,-0.24821179,-3.0,0.0,-0.15719071,-1.2173116,0.0,0.039933942,0.07962155,9.8490305,0.07156575,0.19564094,0.0,-0.0069005657,0.7234311899766122,0.0923108384013176,0.025278979912400246,0.11595369875431061
12.800980806350708,1.7697058,-0.4731692,-3.0946326,-0.02010071494377733,nan,nan,nan,nan,2.799987554550171,0.0012176036834716797,-0.059258785,-0.9164233,-0.026182001,0.029466944684946008,0.07482075294964607,9.452702156845477,0.11509825,0.035295323,0.08792997,1.9645774,-0.36811015,-3.0,0.0,-0.23546074,-1.1683989,0.0,0.05918627,0.07875887,9.857766,0.1014867,0.1874216,0.0,-0.010271574,0.7242066383600947,0.09789454191923141,0.04531561955809593,0.09615637362003326
12.900747060775757,1.7551212,-0.56444526,-3.1002648,-0.01257065386702996,nan,nan,nan,nan,2.8997843265533447,0.0011813640594482422,-0.1433999,-0.8572004,-0.013762806,0.04304912330812111,0.07807838197293604,9.47744052911177,0.111042954,0.031249437,0.09681189,1.9372337,-0.48151615,-3.0,0.0,-0.31234798,-1.1013635,0.0,0.07735602,0.07757106,9.8691025,0.124443874,0.17623007,0.0,-0.013512338,0.7251667452616843,0.09741358458995819,0.019833313301205635,0.06274010986089706
13.000832557678223,1.7367789,-0.6292868,-3.1042483,-0.006638315380493951,nan,nan,nan,nan,2.999856472015381,0.0010657310485839844,-0.21141908,-0.8001627,-0.005177777,0.05349060067928939,0.079868314800154,9.503905579391866,0.10647763,0.020593798,0.09471729,1.9021686,-0.5876395,-3.0,0.0,-0.38821456,-1.0167738,0.0,0.09431296,0.07606182,9.882365,0.13912359,0.16222072,0.0,-0.016626365,0.7261924790150344,0.11135198175907135,0.033906709402799606,0.0376422293484211
13.100832223892212,1.7040677,-0.7019764,-3.108651,-0.00035926913413888983,nan,nan,nan,nan,3.0998215675354004,0.0017023086547851562,-0.29962012,-0.714533,0.0040153572,0.06668640444201637,0.0812698381042678,9.530014726910741,0.10901149,0.013004335,0.08213137,1.8596355,-0.68438363,-3.0,0.0,-0.462468,-0.9162419,0.0,0.10972423,0.07425058,9.89662,0.14445807,0.14572085,0.0,-0.019585006,0.7272030201415602,0.1013999804854393,0.002217419445514679,0.009189208969473839
13.200896501541138,1.6715003,-0.75086904,-3.1114657,0.0031476186017530827,nan,nan,nan,nan,3.199887990951538,0.0012187957763671875,-0.36854705,-0.63756204,0.009943857,0.0766825855962645,0.08126297622725343,9.556973029617218,0.10505668,0.0011032877,0.064655796,1.809714,-0.7704237,-3.0,0.0,-0.5349702,-0.8011466,0.0,0.12338675,0.07214925,9.910937,0.14007366,0.12700889,0.0,-0.022386627,0.7282449758982485,0.11772443354129791,0.01702362485229969,-0.006293972954154015
13.300606727600098,1.621793,-0.80286205,-3.1146755,0.005795971199591354,nan,nan,nan,nan,3.299589157104492,0.001081705093383789,-0.4543547,-0.529654,0.015946807,0.08875234120044422,0.08009344905950866,9.581608831975608,0.100846425,-0.0054748612,0.04118371,1.752862,-0.84405124,-3.0,0.0,-0.60510534,-0.6738874,0.0,0.13504182,0.06978476,9.92429,0.12626398,0.10651087,0.0,-0.02501887,0.7291958811505616,0.09902803599834442,-0.008471574634313583,-0.019340286031365395
13.401018381118774,1.5767008,-0.8350045,-3.1165931,0.006722289451764334,nan,nan,nan,nan,3.4000165462493896,0.0008730888366699219,-0.5195265,-0.43744314,0.019478094,0.09790897016304659,0.07894955593703767,9.603490443918849,0.10117767,-0.007734399,0.023302002,1.6886446,-0.90483594,-3.0,0.0,-0.6733509,-0.5350264,0.0,0.14463629,0.067145534,9.935903,0.103664495,0.08433518,0.0,-0.027516348,0.7300394541662975,0.11859716475009918,0.011160144582390785,-0.024559931829571724
13.50128960609436,1.5167118,-0.86185,-3.1177068,0.006422271817753407,nan,nan,nan,nan,3.500422239303589,0.0013298988342285156,-0.59412354,-0.31939897,0.023203155,0.10893802294398869,0.07816988941239544,9.622592351380733,0.100729674,-0.010494731,0.006783129,1.617722,-0.95122033,-3.0,0.0,-0.73890245,-0.38768804,0.0,0.15193987,0.06426342,9.944863,0.073737524,0.06097732,0.0,-0.02987025,0.7307750795527328,0.09464504569768906,-0.005255378782749176,-0.026209313422441483
13.60075569152832,1.4548352,-0.8752348,-3.1177487,0.004787280348946092,nan,nan,nan,nan,3.5997443199157715,0.0012230873107910156,-0.66072494,-0.20191891,0.026043113,0.11792811312202162,0.07666599324301093,9.634332966301589,0.088908635,-0.011729883,-0.0074230838,1.541231,-0.982227,-3.0,0.0,-0.8008552,-0.2358665,0.0,0.15681306,0.061186317,9.950484,0.038726617,0.03704192,0.0,-0.032071825,0.7312268550920907,0.0793580561876297,-0.004746604710817337,-0.02081787772476673
13.700622320175171,1.3806494,-0.8764107,-3.1174517,0.002056851863842399,nan,nan,nan,nan,3.6996090412139893,0.0011522769927978516,-0.7304869,-0.06686173,0.028889349,0.12626891859106992,0.0752665794593661,9.644893013034016,0.061169486,-0.021515295,-0.015933163,1.4582734,-0.9979958,-3.0,0.0,-0.86000234,-0.079520874,0.0,0.15928851,0.057877705,9.952449,0.00024531948,0.012478596,0.0,-0.034172397,0.731632967614884,0.034229621291160583,-0.02517085149884224,-0.011944986879825592
13.800796031951904,1.3049744,-0.86493504,-3.117106,-0.0008997238693773391,nan,nan,nan,nan,3.799781322479248,0.0014104843139648438,-0.79283345,0.06248559,0.031104168,0.13063243290953114,0.07290553831210711,9.65004713749513,0.03456771,-0.025571978,-0.019824676,1.3692944,-0.99804395,-3.0,0.0,-0.91593087,0.07856047,0.0,0.15929607,0.054353308,9.95049,-0.03929359,-0.012327857,0.0,-0.036178313,0.7318311013878311,0.014594785869121552,-0.026406101882457733,-0.0009850598871707916
13.901067018508911,1.2151823,-0.8390793,-3.116801,-0.003641339255568879,nan,nan,nan,nan,3.900212049484253,0.0016102790832519531,-0.85810477,0.2033083,0.03268834,0.1322274197981031,0.06949271717727012,9.648856534156948,-0.007355042,-0.045617495,-0.018682402,1.2746425,-0.9822373,-3.0,0.0,-0.96836233,0.23579945,0.0,0.15681466,0.050622784,9.944607,-0.07742245,-0.03703137,0.0,-0.038097218,0.7317853371642241,-0.021888380870223045,-0.04490645229816437,0.007491575554013252
14.000699996948242,1.1260087,-0.8031606,-3.1167462,-0.005315752658222872,nan,nan,nan,nan,3.999685287475586,0.0010187625885009766,-0.91456074,0.33070672,0.0341405,0.1304828164440654,0.06526664171076946,9.645087119508533,-0.021992033,-0.04648115,-0.014658205,1.1758902,-0.95117855,-3.0,0.0,-1.0164948,0.38784993,0.0,0.1519333,0.04674219,9.935177,-0.111346096,-0.061002906,0.0,-0.039911374,0.7316404303745152,-0.03145694360136986,-0.04512619227170944,0.012842874974012375
14.101475954055786,1.0402402,-0.7611118,-3.1167614,-0.005936660775543508,nan,nan,nan,nan,4.10065221786499,0.0017366409301757812,-0.9618933,0.4430847,0.035228617,0.12758503662461268,0.061182776416258466,9.637986394483596,-0.04191632,-0.051318225,-0.009507304,1.0709612,-0.90447766,-3.0,0.0,-1.0612898,0.53598213,0.0,0.1445798,0.042623233,9.922443,-0.13968705,-0.08448723,0.0,-0.0416635,0.7313673818111339,-0.01844559609889984,-0.025274205952882767,0.015571866184473038
14.200640201568604,0.92567915,-0.69555175,-3.117006,-0.005346526737600665,nan,nan,nan,nan,4.199626684188843,0.0013098716735839844,-1.0167534,0.57818,0.035584815,0.12218643526256329,0.0558184949074787,9.624702424425628,-0.059591778,-0.05222354,-0.0034152921,0.96391785,-0.84457886,-3.0,0.0,-1.1010576,0.6728426,0.0,0.1351252,0.038418464,9.9075575,-0.15972547,-0.106343344,0.0,-0.043286324,0.7308562948734171,-0.06863012909889221,-0.05569670349359512,0.009845243766903877
14.301168441772461,0.8311468,-0.63532585,-3.1171236,-0.0038596999787026826,nan,nan,nan,nan,4.300300121307373,0.0016083717346191406,-1.0562127,0.676752,0.035942547,0.1163200320625944,0.05131302318916586,9.609800390023734,-0.07019557,-0.049817044,0.0014556372,0.85121703,-0.77027255,-3.0,0.0,-1.1371402,0.8013761,0.0,0.12336281,0.033982143,9.890833,-0.17088042,-0.12704602,0.0,-0.044826884,0.7302825346541726,-0.0559643879532814,-0.03777429088950157,0.0041451286524534225
14.402289152145386,0.7242519,-0.56155944,-3.1172495,-0.0019890288796872713,nan,nan,nan,nan,4.401422023773193,0.0023658275604248047,-1.094824,0.7761709,0.036636777,0.10901068114744392,0.046537670409356524,9.595511835832147,-0.0792498,-0.046507172,0.0026082885,0.73458725,-0.68324333,-3.0,0.0,-1.1688045,0.91758484,0.0,0.10954287,0.02937638,9.873414,-0.17189422,-0.14594027,0.0,-0.046242733,0.729731976812959,-0.06861218065023422,-0.03777671977877617,-0.004340244457125664
14.501187562942505,0.61405164,-0.4798003,-3.1172078,-0.0005031427822795656,nan,nan,nan,nan,4.500335216522217,0.0016269683837890625,-1.1287515,0.8661328,0.037490975,0.10098909813381382,0.04244646238723693,9.579885772783305,-0.092346415,-0.049322024,0.0018432933,0.61763316,-0.58744425,-3.0,0.0,-1.1952147,1.016952,0.0,0.09428181,0.024739994,9.85678,-0.16280968,-0.16225012,0.0,-0.047476724,0.7291294134233378,-0.09348396211862564,-0.04661223292350769,-0.011925922706723213
14.600661039352417,0.49172094,-0.3832622,-3.1166704,0.0006372806032356876,nan,nan,nan,nan,4.599646329879761,0.0010676383972167969,-1.1600251,0.9519718,0.038904123,0.08977456268059238,0.03710101419113476,9.56574871310964,-0.119296946,-0.053332444,-0.0026157727,0.49780977,-0.4821427,-3.0,0.0,-1.2170881,1.1009306,0.0,0.07745627,0.019970657,9.841464,-0.14409287,-0.17615807,0.0,-0.048540033,0.7285838445791225,-0.13237160444259644,-0.06463523209095001,-0.018059266731142998
14.700839281082153,0.37629357,-0.28803375,-3.11578,0.001471658020217051,nan,nan,nan,nan,4.699855804443359,0.001028299331665039,-1.1839623,1.0181122,0.040092736,0.07682049239706847,0.03159707902534481,9.552811003495004,-0.15356429,-0.069601126,-0.0061808005,0.3749406,-0.368293,-3.0,0.0,-1.2343574,1.1683078,0.0,0.0592156,0.015061163,9.82834,-0.11651081,-0.18740633,0.0,-0.049408667,0.7280842069255034,-0.1484476625919342,-0.06367529183626175,-0.020963430404663086
14.800673723220825,0.24927376,-0.18010733,-3.1146388,0.0020616366945345986,nan,nan,nan,nan,4.799669504165649,0.00099945068359375,-1.2030685,1.0722646,0.041961513,0.059131021980049436,0.024061450257035544,9.54407602118328,-0.17990465,-0.075966164,-0.01204398,0.25107843,-0.24909207,-3.0,0.0,-1.2466954,1.2170277,0.0,0.040075418,0.010095704,9.818383,-0.08196332,-0.1955931,0.0,-0.050046254,0.7277466818260996,-0.1600150614976883,-0.06514191627502441,-0.021718833595514297
14.900769233703613,0.13087764,-0.07761288,-3.113392,0.0024545324724077645,nan,nan,nan,nan,4.8997697830200195,0.0009267330169677734,-1.2136073,1.104242,0.043425422,0.041443018184377844,0.017302879577714814,9.53973210280761,-0.18588796,-0.06903672,-0.015604388,0.12586978,-0.12562026,-3.0,0.0,-1.254146,1.2466825,0.0,0.020218609,0.0050643035,9.812132,-0.042308208,-0.20059915,0.0,-0.05043849,0.7275787726385539,-0.15440456569194794,-0.05175190791487694,-0.0211930088698864
15.000603199005127,0.021907687,0.017387765,-3.1118674,0.002648821621024781,nan,nan,nan,nan,4.999586820602417,0.0007479190826416016,-1.217777,1.1180227,0.04449146,0.025240927486955327,0.012027812566423712,9.538456780901178,-0.17746846,-0.05367928,-0.019732218,0.000518624,-0.000518624,-3.0,0.0,-1.256637,1.256637,0.0,8.348402e-05,2.0871004e-05,9.81,-0.00017601994,-0.20228355,0.0,-0.05057089,0.7275294692725783,-0.1458492875099182,-0.031213834881782532,-0.020501339808106422
15.100915431976318,-0.10629443,0.12943287,-3.1093504,0.0024866981930900126,nan,nan,nan,nan,5.099904775619507,0.001203298568725586,-1.2169466,1.1164191,0.04505538,0.007350895999328199,0.007927554993329533,9.540112857194616,-0.1688397,-0.034719355,-0.020345142,-0.1254623,0.12521519,-3.0,0.0,-1.2541621,1.2467469,0.0,-0.02015343,-0.0050479155,9.812118,0.04217389,-0.20061003,0.0,-0.05043935,0.7275934917914744,-0.15573349595069885,-0.04404996335506439,-0.021407969295978546
15.201837062835693,-0.18434677,0.19753471,-3.107539,0.00210912706107649,nan,nan,nan,nan,5.2009117603302,0.0015773773193359375,-1.2134936,1.1065626,0.045506127,-0.0035458469304381216,0.005659560301705335,9.546723614344375,-0.17060834,-0.033161353,-0.021628227,-0.25180304,0.24979937,-3.0,0.0,-1.2466377,1.2167987,0.0,-0.040189087,-0.0101247905,9.818432,0.0821811,-0.19555451,0.0,-0.05004323,0.7278490027643639,-0.16154220700263977,-0.00039438530802726746,-0.0214928537607193
15.30069375038147,-0.2712708,0.27249107,-3.1051335,0.001349709881744648,nan,nan,nan,nan,5.299694299697876,0.0013666152954101562,-1.2077762,1.0870968,0.046082888,-0.016096064015413525,0.004649975328483658,9.557657557735219,-0.1776206,-0.00034269618,-0.022848494,-0.37438494,0.36776704,-3.0,0.0,-1.2344238,1.1685693,0.0,-0.059131235,-0.015038921,9.828287,0.11636945,-0.18745019,0.0,-0.049412064,0.728271414206366,-0.1807275414466858,0.014964178204536438,-0.022398091852664948
15.400588750839233,-0.3856737,0.36843902,-3.101613,-0.00011124987468386083,nan,nan,nan,nan,5.399569034576416,0.0007622241973876953,-1.1998501,1.0462245,0.046633054,-0.03426416313500873,0.005727406661489409,9.573790967473759,-0.20011632,0.012082806,-0.022999253,-0.49685547,0.48127925,-3.0,0.0,-1.2172421,1.101527,0.0,-0.07731811,-0.019932596,9.8413515,0.14390919,-0.17625728,0.0,-0.048547663,0.728894255786062,-0.19324497878551483,-0.026336945593357086,-0.023239577189087868
15.50219178199768,-0.4889296,0.4516768,-3.097872,-0.0017231434743585697,nan,nan,nan,nan,5.501493215560913,0.0009367465972900391,-1.1924361,0.99351275,0.04688759,-0.05250681232205745,0.004854225270123136,9.594929374316706,-0.20851213,-0.028832154,-0.025278006,-0.6198186,0.58930254,-3.0,0.0,-1.194768,1.0152527,0.0,-0.09457827,-0.024826804,9.857078,0.16306643,-0.1619699,0.0,-0.047455415,0.7297095250691467,-0.19823011755943298,-0.04745735228061676,-0.021935489028692245
15.60181975364685,-0.59998196,0.53544766,-3.0936344,-0.0035502408231465193,nan,nan,nan,nan,5.601001262664795,0.0020711421966552734,-1.181266,0.917742,0.046394896,-0.07232790119390912,-0.00015320821832176534,9.616551015386358,-0.19879335,-0.063734695,-0.02468299,-0.73741895,0.6854639,-3.0,0.0,-1.1681004,0.9149658,0.0,-0.10989604,-0.029488407,9.873831,0.17199221,-0.1455124,0.0,-0.046210527,0.7305425032554903,-0.18060354888439178,-0.06025034189224243,-0.01499361451715231
15.71351146697998,-0.7084742,0.60996276,-3.0895436,-0.00545556678157795,nan,nan,nan,nan,5.71270751953125,0.005145072937011719,-1.163156,0.8238989,0.046242315,-0.09106408925652576,-0.006654100913966898,9.643155718902126,-0.18373874,-0.06500316,-0.02358692,-0.8659803,0.7805935,-3.0,0.0,-1.132731,0.78544724,0.0,-0.12499869,-0.034564003,9.89305,0.16999708,-0.124469884,0.0,-0.04463471,0.7315661709886168,-0.1720869541168213,-0.05107371136546135,-0.009668998420238495
15.80299186706543,-0.8225312,0.6784363,-3.085331,-0.00749843396827421,nan,nan,nan,nan,5.802247762680054,0.004359245300292969,-1.1359555,0.7035104,0.045392107,-0.10857442941737032,-0.013654579982143478,9.663941967943686,-0.15062727,-0.05978231,-0.019696811,-0.96598184,0.8458382,-3.0,0.0,-1.1003433,0.6703399,0.0,-0.13532424,-0.038499605,9.907856,0.15942602,-0.10594204,0.0,-0.04325653,0.7323649801080838,-0.10518907010555267,-0.058783866465091705,0.003760155290365219
15.902066946029663,-0.91567945,0.72545874,-3.08221,-0.009087184244116198,nan,nan,nan,nan,5.901324272155762,0.002285003662109375,-1.1077071,0.58952236,0.044289302,-0.12046298566457511,-0.01906184825388957,9.68199180544354,-0.1161716,-0.055990994,-0.017049782,-1.0730585,0.90553445,-3.0,0.0,-1.060453,0.53315693,0.0,-0.1447464,-0.042705562,9.922719,0.13920343,-0.08403781,0.0,-0.041630104,0.7330579331687149,-0.08995389193296432,-0.049947768449783325,0.009873094037175179
16.00152587890625,-1.0054067,0.761499,-3.0793884,-0.010360922509708825,nan,nan,nan,nan,6.00067400932312,0.0013263225555419922,-1.0751157,0.46697032,0.042851727,-0.12958503949427197,-0.023888159909831064,9.697993197599425,-0.08363262,-0.04973453,-0.0091498755,-1.1762561,0.9513181,-3.0,0.0,-1.0163277,0.38730916,0.0,-0.15195525,-0.046756558,9.935217,0.11123285,-0.06091744,0.0,-0.03990496,0.7336717042322273,-0.08044632524251938,-0.04429588466882706,0.0143042653799057
16.10167694091797,-1.106933,0.78826976,-3.0764487,-0.011304986422169302,nan,nan,nan,nan,6.101018667221069,0.002370119094848633,-1.0320165,0.31311426,0.040860478,-0.13848752316168556,-0.028606323899124098,9.711546327406538,-0.06652129,-0.043372855,-0.0052619292,-1.2758344,0.9825264,-3.0,0.0,-0.96774244,0.23388942,0.0,-0.15686007,-0.05066968,9.944701,0.07697393,-0.03673088,0.0,-0.03807422,0.7341911704747974,-0.02655596099793911,-0.04983469471335411,0.02073054015636444
16.217163562774658,-1.1953527,0.7977751,-3.0748663,-0.011534562177509713,nan,nan,nan,nan,6.216533660888672,0.0018908977508544922,-0.98812896,0.16528778,0.038439587,-0.14288242782703897,-0.033048655080663236,9.720708057666194,-0.02024169,-0.047125015,0.002234394,-1.3841659,0.9991158,-3.0,0.0,-0.90706325,0.052832037,0.0,-0.15946427,-0.054940958,9.951079,0.03289179,-0.008290054,0.0,-0.035858065,0.7345421172383142,-0.03319963812828064,-0.04756322503089905,0.020033717155456543
16.301205158233643,-1.2844855,0.7914644,-3.0738668,-0.010991931895761697,nan,nan,nan,nan,6.300351619720459,0.0022013187408447266,-0.9349962,0.0038474519,0.035098936,-0.1431152457317865,-0.03787467563339808,9.722191868019285,0.020789951,-0.045554906,0.008586709,-1.4582397,0.9979989,-3.0,0.0,-0.86002487,-0.07945912,0.0,-0.15928899,-0.057876363,9.952449,-0.00022988058,0.012468902,0.0,-0.034173194,0.7345989401127252,0.04376170039176941,-0.04453742131590843,0.022805914282798767
16.401641368865967,-1.3608841,0.770728,-3.0728536,-0.00993755910640072,nan,nan,nan,nan,6.4007933139801025,0.0012371540069580078,-0.8816212,-0.14234324,0.032082632,-0.1398190549490143,-0.04189759237784019,9.719100375459522,0.053404253,-0.04052337,0.013770578,-1.5416619,0.98209995,-3.0,0.0,-0.8005278,-0.23670088,0.0,-0.1567931,-0.06120357,9.950463,-0.038927052,0.037173193,0.0,-0.03206022,0.7344805457662245,0.0517878420650959,-0.03876107931137085,0.01885131746530533
16.512153148651123,-1.4368534,0.7331357,-3.0719333,-0.008324137399403575,nan,nan,nan,nan,6.511592864990234,0.002027750015258789,-0.819522,-0.29364887,0.028530922,-0.13367573404080857,-0.04558433814848084,9.70968784293625,0.075952314,-0.030273667,0.016713709,-1.6265538,0.94645405,-3.0,0.0,-0.7312081,-0.40569088,0.0,-0.15119012,-0.06462066,9.9439535,-0.07764764,0.0638235,0.0,-0.029595653,0.7341199596777797,0.05054745450615883,-0.034885697066783905,0.012249462306499481
16.6012601852417,-1.4901085,0.6939517,-3.0714862,-0.006810205777083793,nan,nan,nan,nan,6.600421190261841,0.0013422966003417969,-0.7689727,-0.40368855,0.025530884,-0.12767284221888092,-0.04803460006131233,9.697735498161048,0.08434906,-0.027697446,0.01808475,-1.6889392,0.90460175,-3.0,0.0,-0.6730593,-0.5356513,0.0,-0.14459936,-0.06715756,9.935858,-0.10378,0.0844346,0.0,-0.027505793,0.7336618235770371,0.037770457565784454,-0.03276381641626358,0.003967110067605972
16.705456018447876,-1.543443,0.6411871,-3.0712776,-0.00502235555225411,nan,nan,nan,nan,6.704880475997925,0.002176046371459961,-0.7110797,-0.5176794,0.022205828,-0.12153187712728106,-0.05045518981038444,9.684784908057186,0.06319213,-0.024961738,0.01595715,-1.75556,0.8410255,-3.0,0.0,-0.6020095,-0.67983496,0.0,-0.13456355,-0.06989635,9.923723,-0.12707548,0.107464865,0.0,-0.02490418,0.7331651057131543,0.019452765583992004,-0.0355137400329113,-0.005272090435028076
16.80168843269348,-1.603399,0.5617975,-3.0711734,-0.002700358787065163,nan,nan,nan,nan,6.800844430923462,0.0016086101531982422,-0.6336398,-0.65293145,0.0186681,-0.11588535211163536,-0.0536462868600871,9.665776778222057,0.059313703,-0.023619115,0.011352626,-1.8101057,0.7698364,-3.0,0.0,-0.5344467,-0.8020376,0.0,-0.12329365,-0.07216565,9.910834,-0.1401409,0.12715305,0.0,-0.022366703,0.7324354500184959,0.10472628474235535,-0.018269598484039307,-0.011406932026147842
16.911396265029907,-1.6440287,0.49094254,-3.0712893,-0.0010380123325870669,nan,nan,nan,nan,6.9108617305755615,0.0021712779998779297,-0.570782,-0.7506761,0.016800547,-0.1084247314912743,-0.055350315647408665,9.643530428768132,0.111825794,-0.012472148,0.0068114665,-1.8645344,0.6745335,-3.0,0.0,-0.45461416,-0.9277051,0.0,-0.10815738,-0.07445817,9.895077,-0.14434977,0.14759456,0.0,-0.019276362,0.7315805785886471,0.09256792068481445,-0.027821730822324753,-0.01915726624429226
17.011093139648438,-1.6881856,0.39173925,-3.0713396,0.0006237471840243036,nan,nan,nan,nan,7.010453224182129,0.0018084049224853516,-0.48990497,-0.8594023,0.014979545,-0.09335318920543968,-0.056723825280020845,9.630322428257202,0.148514,-0.009107373,-0.0019514046,-1.9061311,0.57710785,-3.0,0.0,-0.38046446,-1.0262552,0.0,-0.09263242,-0.076231614,9.880937,-0.1380309,0.16378503,0.0,-0.016312381,0.7310725616944969,0.1296246349811554,-0.019607750698924065,-0.02538732811808586
17.108495235443115,-1.7120157,0.3236982,-3.0710921,0.0014455376986543603,nan,nan,nan,nan,7.108030796051025,0.0025806427001953125,-0.43745983,-0.91752124,0.014007036,-0.08288700757238657,-0.057854706271649015,9.613697969974018,0.13626187,-0.018539587,-0.0066705425,-1.9396514,0.47288597,-3.0,0.0,-0.30636746,-1.1072527,0.0,-0.07597495,-0.077675685,9.868136,-0.12292917,0.17721,0.0,-0.01326316,0.7304326427598565,0.09392794966697693,-0.04016588628292084,-0.029769424349069595
17.203698873519897,-1.7319717,0.2528831,-3.070777,0.002183442276276766,nan,nan,nan,nan,7.20322847366333,0.0025930404663085938,-0.38392824,-0.9669624,0.013109848,-0.07327143825572194,-0.05973986639566542,9.598134896219705,0.12948403,-0.026051056,-0.009662478,-1.9653306,0.3643496,-3.0,0.0,-0.23296602,-1.1702586,0.0,-0.058583025,-0.07879174,9.857441,-0.100624666,0.1877333,0.0,-0.01016515,0.7298330776761129,0.07692071050405502,-0.05640137568116188,-0.03280717879533768
17.308361291885376,-1.7547671,0.13807423,-3.0698714,0.002880897214814517,nan,nan,nan,nan,7.307875156402588,0.002905130386352539,-0.29765218,-1.0290676,0.013133379,-0.06027917082286345,-0.06438231934765692,9.586925216899251,0.10585162,-0.04524441,-0.018636983,-1.9854454,0.23909257,-3.0,0.0,-0.15132755,-1.2201906,0.0,-0.038468257,-0.07967224,9.848504,-0.06911442,0.1961262,0.0,-0.006645682,0.7294009252582869,0.13629908859729767,-0.02441190369427204,-0.031210865825414658
17.405020475387573,-1.7635716,0.070560165,-3.0688837,0.00297229224139952,nan,nan,nan,nan,7.404534816741943,0.002682209014892578,-0.24648362,-1.0571847,0.013639675,-0.05267673552536519,-0.06699785081697351,9.58048638882581,0.12679493,-0.03199991,-0.022155723,-1.9964032,0.11967704,-3.0,0.0,-0.07533078,-1.2476054,0.0,-0.019262288,-0.080154315,9.843425,-0.03544403,0.20075525,0.0,-0.0033202143,0.7291525831163688,0.1400793343782425,-0.045048121362924576,-0.029548857361078262
17.502605676651,-1.7753206,-0.067098804,-3.0666227,0.002108415279255057,nan,nan,nan,nan,7.502203464508057,0.00432276725769043,-0.14478809,-1.0943893,0.015476054,-0.03263607236551394,-0.07063948483219629,9.578962540621866,0.17686962,-0.024179209,-0.027787255,-1.9999981,-0.0027694905,-3.0,0.0,0.001740124,-1.2566323,0.0,0.0004458108,-0.08031287,9.841724,0.0008266993,0.20228276,0.0,7.6788645e-05,0.729093796898064,0.21111372113227844,0.009688547812402248,-0.01986028626561165
17.601314067840576,-1.773257,-0.1701232,-3.0647483,0.001362000608551392,nan,nan,nan,nan,7.60049033164978,0.001374959945678711,-0.065362096,-1.1016345,0.016510207,-0.012359777456145414,-0.07073737464490493,9.579695040327495,0.22765069,0.014996831,-0.026723696,-1.9960146,-0.12594545,-3.0,0.0,0.079291865,-1.2466307,0.0,0.02027093,-0.08013719,9.843607,0.03726871,0.20059037,0.0,0.0034943474,0.7291220554718324,0.20976398885250092,0.014840970747172832,-0.015735171735286713
17.70143175125122,-1.7619731,-0.2557123,-3.0676975,0.001191746018496127,nan,nan,nan,nan,7.700674057006836,0.001425027847290039,0.0073051644,-1.0883723,-0.043437067,0.008424379158090793,-0.06878732359590911,9.571585287307384,0.22805214,0.019152315,-0.025556313,-1.9841231,-0.24951018,-3.0,0.0,0.15802635,-1.2168924,0.0,0.040142614,-0.07961418,9.849107,0.07191306,0.1955703,0.0,0.0069368705,0.7288091349446599,0.17202307283878326,-0.016462527215480804,-0.017799878492951393
17.80115818977356,-1.7449038,-0.35486764,-3.0790339,0.0013865683959128055,nan,nan,nan,nan,7.800333261489868,0.0012001991271972656,0.08785415,-1.0488925,-0.08267365,0.030645140438813563,-0.06909050822768359,9.553055513058782,0.19263536,-0.012122823,-0.0240662,-1.964496,-0.36851394,-3.0,0.0,0.23572882,-1.1681978,0.0,0.059251044,-0.078755334,9.8578005,0.10157893,0.18738791,0.0,0.010283006,0.7280936527050031,0.1418386548757553,-0.014991452917456627,-0.01872853934764862
17.901383638381958,-1.7228068,-0.4406712,-3.0933394,0.001985184950386472,nan,nan,nan,nan,7.900583505630493,0.001458883285522461,0.16194077,-0.99196327,-0.10395371,0.04822622322671046,-0.07112248028937551,9.526873764847398,0.16757207,-0.019751148,-0.022758488,-1.9369837,-0.4823964,-3.0,0.0,0.31295937,-1.1007551,0.0,0.077496864,-0.077560246,9.869203,0.124595925,0.17612888,0.0,0.013537779,0.7270815241308767,0.12817150354385376,-0.011412810534238815,-0.018953420221805573
18.00217032432556,-1.6917503,-0.5248297,-3.1094327,0.003198525894723858,nan,nan,nan,nan,8.001629829406738,0.002243518829345703,0.24221158,-0.9112547,-0.113508426,0.06460468241291305,-0.07227864501907866,9.499608170096753,0.13940692,-0.0015797927,-0.020926889,-1.9014789,-0.58944154,-3.0,0.0,0.3895463,-1.0151254,0.0,0.094600454,-0.07603228,9.882612,0.13930154,0.16194892,0.0,0.016680226,0.7260260170224367,0.10954399406909943,0.002530418336391449,-0.02228548750281334
18.10271143913269,-1.6567005,-0.59354633,-3.123004,0.004726889027453787,nan,nan,nan,nan,8.10218358039856,0.0026857852935791016,0.3142855,-0.82323265,-0.1128641,0.07746006202913829,-0.07182185427469001,9.479622306828375,0.12103565,0.008791238,-0.020187002,-1.858541,-0.68654484,-3.0,0.0,0.4642016,-0.913685,0.0,0.110067934,-0.07420423,9.896961,0.14446697,0.14530319,0.0,0.019652994,0.7252513608346863,0.10320109128952026,-0.004027562215924263,-0.028343193233013153
18.202556371688843,-1.6126065,-0.6571851,-3.134693,0.006197893863428103,nan,nan,nan,nan,8.202049016952515,0.0026340484619140625,0.38868997,-0.7155532,-0.105333306,0.08957899153847325,-0.07110461160059467,9.470718377237194,0.10630167,0.0033324643,-0.022176838,-1.8085561,-0.77215225,-3.0,0.0,0.53651375,-0.79851437,0.0,0.12366079,-0.0721008,9.91124,0.13987228,0.12658297,0.0,0.022445358,0.72490597975713,0.0841052234172821,0.002837894484400749,-0.03371938690543175
18.312456369400024,-1.5824522,-0.6898284,-3.1400568,0.0069710346955409175,nan,nan,nan,nan,8.312184810638428,0.0032372474670410156,0.4328501,-0.6432422,-0.09796116,0.09653280705066902,-0.07115817881054287,9.46586633325087,0.09981214,-0.0049434155,-0.023008361,-1.7451851,-0.85243356,-3.0,0.0,0.61380285,-0.6570146,0.0,0.13636644,-0.06946759,9.925865,0.123884276,0.1038065,0.0,0.025340395,0.7247177019083828,0.14790496230125427,-0.07746948301792145,-0.03997954726219177
18.407689809799194,-1.5540897,-0.71415675,-3.1435099,0.0075207872945646445,nan,nan,nan,nan,8.407293319702148,0.0034699440002441406,0.47103953,-0.57649493,-0.0906195,0.10239700032467008,-0.0716266660446725,9.466288593937625,0.10611915,-0.033248406,-0.024053726,-1.6837271,-0.9086914,-3.0,0.0,0.678195,-0.5246064,0.0,0.14524396,-0.06694465,9.93665,0.10172217,0.08267804,0.0,0.027691592,0.7247340891533877,0.20961329340934753,-0.1452748328447342,-0.0448504239320755
18.512939453125,-1.4874446,-0.75254303,-3.146925,0.007350242947469929,nan,nan,nan,nan,8.513112783432007,0.0052013397216796875,0.55500555,-0.42188394,-0.07056329,0.12024243554261178,-0.08114973609722642,9.47477896873372,0.15785766,-0.09443992,-0.029941708,-1.608293,-0.95601946,-3.0,0.0,0.74698424,-0.36857572,0.0,0.1526946,-0.06388248,9.945773,0.069521554,0.057957813,0.0,0.030158302,0.7250635091575565,0.12937024235725403,-0.05161197483539581,-0.03388340771198273
18.606772661209106,-1.4329708,-0.7675003,-3.1466155,0.007072021238982637,nan,nan,nan,nan,8.606343030929565,0.0026350021362304688,0.6213218,-0.2954165,-0.053044233,0.13235611117870882,-0.08577857756811835,9.481656162408164,0.11148729,-0.03780819,-0.033247963,-1.5359331,-0.9837497,-3.0,0.0,0.8048634,-0.2256232,0.0,0.15705217,-0.06097421,9.950732,0.036260407,0.035430573,0.0,0.032213975,0.725330230795621,0.06704539060592651,-0.007928263396024704,-0.02626623958349228
18.70211958885193,-1.3619529,-0.7703352,-3.1432157,0.006870465544013243,nan,nan,nan,nan,8.701428413391113,0.0017049312591552734,0.70085454,-0.1362992,-0.030626006,0.1430518875262202,-0.08817637242004861,9.496369990971854,0.072001554,-0.013827486,-0.032055207,-1.4567076,-0.99813783,-3.0,0.0,0.8610493,-0.07665299,0.0,0.15931079,-0.05781549,9.952448,-0.00047188197,0.012028473,0.0,0.0342097,0.7259005598885909,-0.03799695149064064,0.06036563217639923,-0.02135615423321724
18.80530071258545,-1.2905124,-0.75765866,-3.136591,0.0077069644716474955,nan,nan,nan,nan,8.804811954498291,0.0021190643310546875,0.7717991,0.01599242,-0.009500966,0.14494234078132928,-0.08452255265318431,9.515422191140225,-0.030434808,0.053592212,-0.0315699,-1.3646799,-0.9976288,-3.0,0.0,0.9186457,0.08648728,0.0,0.15923093,-0.05417106,9.950288,-0.041259896,-0.013572031,0.0,0.03627657,0.7266383944306558,-0.082177072763443,0.06114087253808975,-0.02880747616291046
18.90175437927246,-1.2400962,-0.74091446,-3.1307275,0.008594949419360648,nan,nan,nan,nan,8.901063919067383,0.0020203590393066406,0.81484294,0.116435826,0.0032488126,0.14171526675786575,-0.08022766839110118,9.533229090240761,-0.07322582,0.060833644,-0.030644814,-1.2738177,-0.9820359,-3.0,0.0,0.9687907,0.23712027,0.0,0.15678303,-0.05059034,9.94454,-0.077732354,-0.03723917,0.0,0.038113106,0.7273273346701017,-0.03133733570575714,-0.005378257483243942,-0.0388844758272171
19.00614595413208,-1.2008389,-0.723834,-3.1256127,0.009284613354908516,nan,nan,nan,nan,8.999454975128174,0.0018646717071533203,0.84474826,0.18993291,0.011834389,0.13775781395201894,-0.07712683189672442,9.551436386224792,-0.09316451,0.0449471,-0.028916607,-1.1761246,-0.95126796,-3.0,0.0,1.0163877,0.3875036,0.0,0.15194735,-0.0467514,9.935203,-0.11127358,-0.060948167,0.0,0.039907265,0.7280311011015348,0.07258942723274231,-0.10648255050182343,-0.04896873980760574
19.103393077850342,-1.1188142,-0.6798716,-3.1142604,0.00960021318895729,nan,nan,nan,nan,9.102941513061523,0.0028324127197265625,0.902022,0.33150595,0.026048312,0.13533949452440225,-0.08026550123858933,9.564656805512474,0.019012816,-0.08686376,-0.030917952,-1.0685308,-0.90324706,-3.0,0.0,1.0622565,0.5392493,0.0,0.14438583,-0.042527817,9.922123,-0.14024317,-0.08500703,0.0,0.041702136,0.7285416895763847,0.03416881710290909,-0.0696064680814743,-0.041194796562194824
19.208831310272217,-1.0541794,-0.6391088,-3.104945,0.0090734828016244,nan,nan,nan,nan,9.208424806594849,0.002938985824584961,0.94861203,0.43670833,0.03636817,0.13788180565486124,-0.08644027431659795,9.573239271161125,0.028227808,-0.08905311,-0.03387261,-0.9542167,-0.8386081,-3.0,0.0,1.1043886,0.68453455,0.0,0.1341814,-0.038037047,9.906146,-0.16108705,-0.10821892,0.0,0.043425623,0.7288729658335966,0.028940439224243164,-0.05836400017142296,-0.02938385307788849
19.302215814590454,-0.94736063,-0.5625352,-3.088324,0.007900581662784067,nan,nan,nan,nan,9.301537990570068,0.0015256404876708984,1.0274465,0.59977317,0.05272686,0.1400516744370227,-0.09312756276177825,9.584587309178875,-0.010504091,-0.03717395,-0.03622998,-0.8498082,-0.769279,-3.0,0.0,1.1375562,0.8028817,0.0,0.12320528,-0.033926606,9.890621,-0.17095567,-0.12728968,0.0,0.04484507,0.7293107630585003,-0.15416646003723145,0.09857621788978577,-0.00753001868724823
19.408232927322388,-0.8402451,-0.47746012,-3.0707867,0.008106729205420368,nan,nan,nan,nan,9.407562971115112,0.002702474594116211,1.102158,0.7457822,0.06696772,0.1310522778347335,-0.08770487300208729,9.593364960369632,-0.17227383,0.116767995,-0.03268973,-0.7274039,-0.6775879,-3.0,0.0,1.1705768,0.9241834,0.0,0.10864331,-0.02909214,9.872359,-0.17161898,-0.14701875,0.0,0.046323955,0.7296492193062711,-0.25001275539398193,0.15136092901229858,-0.008180223405361176
19.50340723991394,-0.7442056,-0.39578754,-3.055256,0.009290802331597792,nan,nan,nan,nan,9.5026216506958,0.0015463829040527344,1.1566081,0.8539811,0.07585172,0.112111154530059,-0.07507136277179582,9.599631610480117,-0.2597624,0.16185674,-0.026198588,-0.6148994,-0.5851163,-3.0,0.0,1.195771,1.0190691,0.0,0.09391038,-0.024631396,9.856408,-0.16248403,-0.16259928,0.0,0.047503278,0.7298907594843362,-0.25924333930015564,0.12938329577445984,-0.019122570753097534
19.601176261901855,-0.63550305,-0.2983443,-3.0378635,0.010905317193095704,nan,nan,nan,nan,9.600374937057495,0.0014955997467041016,1.2011302,0.9481294,0.08120345,0.08442693898479416,-0.059377814555434005,9.609133834955262,-0.29500142,0.1402304,-0.020651959,-0.49692237,-0.4813398,-3.0,0.0,1.2172313,1.1014853,0.0,0.0773278,-0.019935265,9.841359,-0.14392209,-0.17625032,0.0,0.048547123,0.7302568604667634,-0.22805847227573395,0.08739717304706573,-0.03127466142177582
19.705183029174805,-0.5050396,-0.17783363,-3.0178125,0.012043888236113475,nan,nan,nan,nan,9.70476770401001,0.0031881332397460938,1.2363461,1.021071,0.08351166,0.05212357395910337,-0.045419491024180525,9.619218870666787,-0.2767277,0.104877576,-0.02018364,-0.3688759,-0.36254752,-3.0,0.0,1.2350785,1.1711421,0.0,0.058293935,-0.014818384,9.827771,-0.11496057,-0.18788138,0.0,0.049445532,0.7306452180032199,-0.17446023225784302,0.06471250206232071,-0.03543557599186897
19.80273962020874,-0.41988105,-0.0990112,-3.0052717,0.012179731102486487,nan,nan,nan,nan,9.802342653274536,0.0028340816497802734,1.2520026,1.0476681,0.082891494,0.03386836650456969,-0.03925813782206733,9.629094549906418,-0.23801363,0.08102602,-0.021392494,-0.24774517,-0.24583708,-3.0,0.0,1.2469586,1.2180724,0.0,0.039552283,-0.00996189,9.818166,-0.080959275,-0.19576915,0.0,0.050060015,0.7310253163416885,-0.09458322823047638,0.010188858956098557,-0.031876903027296066
19.90418028831482,-0.32421827,-0.011825343,-2.9915664,0.011678691856924831,nan,nan,nan,nan,9.90383267402649,0.0038709640502929688,1.2648642,1.0613418,0.08044636,0.01772384888605586,-0.03474134528915784,9.641616074782775,-0.16077907,0.022010978,-0.024070054,-0.12077383,-0.12055343,-3.0,0.0,1.2543437,1.2474723,0.0,0.019403309,-0.0048593525,9.811963,-0.04062661,-0.2007327,0.0,0.050448984,0.731506968710618,-0.040096595883369446,-0.02206607162952423,-0.025094397366046906
20.008691787719727,-0.26623887,0.03993288,-2.9834704,0.011069674858957509,nan,nan,nan,nan,10.008084297180176,0.0020072460174560547,1.2719133,1.0637028,0.07888479,0.011408141879333708,-0.03442609287201903,9.648500653398202,-0.11007324,-0.0011836996,-0.02596845,0.010159799,0.010159668,-3.0,0.0,1.2566209,1.2565722,0.0,-0.0016354219,0.00040886056,9.810015,0.003447998,-0.20227258,0.0,0.05057003,0.7317716573275563,-0.00015582144260406494,-0.08774355053901672,-0.015400320291519165
20.106783390045166,-0.06390673,0.2114378,-2.9586606,0.007663428171042028,nan,nan,nan,nan,10.10611629486084,0.0017404556274414062,1.2987897,1.0517169,0.069615126,0.00014635672374582439,-0.03527168605589481,9.658289476674959,-0.057203088,0.03245387,-0.026251338,0.13325098,0.13295491,-3.0,0.0,1.253845,1.2454808,0.0,-0.021398768,0.005361145,9.812388,0.04473669,-0.20039591,0.0,0.05042253,0.7321478417313043,-0.10701125860214233,0.11375679075717926,0.005521129816770554
20.20346236228943,0.030715479,0.2868956,-2.9475176,0.005876267055303043,nan,nan,nan,nan,10.202816724777222,0.001722574234008789,1.3104085,1.0380889,0.026790189,-0.00608734978999988,-0.029592684282493842,9.668985206228657,-0.09897754,0.10398882,-0.022261662,0.25417864,0.25211757,-3.0,0.0,1.2464473,1.2160435,0.0,-0.040561646,0.0102201495,9.818589,0.08289409,-0.19542724,0.0,0.050033282,0.7325586606566965,-0.13855136930942535,0.09913328289985657,0.01194833591580391
20.307054042816162,0.11804101,0.35298294,-2.943717,0.004424667427291124,nan,nan,nan,nan,10.306755065917969,0.0034303665161132812,1.3157214,1.019378,-0.0036564772,-0.014787473964544186,-0.021459081654175982,9.671879169498542,-0.1353953,0.105516806,-0.015864799,0.38309804,0.37600422,-3.0,0.0,1.233368,1.1644225,0.0,-0.060452458,0.015387651,9.829117,0.118570246,-0.18675543,0.0,0.049358167,0.7326697776287291,-0.16841205954551697,0.04617122560739517,0.013926491141319275
20.405484437942505,0.2657608,0.45875913,-2.9441366,0.0027441638335052934,nan,nan,nan,nan,10.4051353931427,0.0031516551971435547,1.3135343,0.9705677,-0.040503122,-0.03406465579990301,-0.011797628890367395,9.667571294014314,-0.1765129,0.06857088,-0.0048179585,0.50362754,0.4873985,-3.0,0.0,1.2161429,1.0972699,0.0,-0.07829719,0.020202661,9.842155,0.14520131,-0.17554928,0.0,0.04849325,0.7325043658613684,-0.1730983853340149,0.0739629715681076,0.01595744490623474
20.510172605514526,0.36459127,0.52488595,-2.946433,0.00212999670113757,nan,nan,nan,nan,10.500268697738647,0.002714395523071289,1.3061582,0.9238996,-0.05762005,-0.04884524068879148,-0.0061588632971936175,9.662445007120233,-0.18717708,0.06666872,0.00013959248,0.61835563,0.5880588,-3.0,0.0,1.1950673,1.0163909,0.0,-0.09437986,0.024768693,9.856878,0.16289492,-0.16215758,0.0,0.047469687,0.732307481090904,-0.17658594250679016,0.06561049818992615,0.018487166613340378
20.604199647903442,0.43376446,0.5685496,-2.9483948,0.001955414918939302,nan,nan,nan,nan,10.603866338729858,0.0029888153076171875,1.2986014,0.88421863,-0.06645705,-0.0597054434493246,-0.002909086076792855,9.656340326373439,-0.19367042,0.057832085,0.003890827,0.7407653,0.6880815,-3.0,0.0,1.1672641,0.91185784,0.0,-0.11031231,0.02962078,9.874324,0.17210028,-0.14500476,0.0,0.046172325,0.7320729511058368,-0.21737587451934814,0.03202866390347481,0.023199789226055145
20.708241939544678,0.52234805,0.6201056,-2.9505572,0.0018873312012626306,nan,nan,nan,nan,10.707927465438843,0.003317117691040039,1.2862223,0.82380813,-0.075174235,-0.07381620961289728,0.0014713527671490478,9.652891326402289,-0.19994596,0.04994752,0.008013184,0.86056256,0.7768254,-3.0,0.0,1.1343598,0.79132456,0.0,-0.12440152,0.034350503,9.892237,0.17034131,-0.12542003,0.0,0.044705566,0.7319404144470033,-0.2460131049156189,0.022081758826971054,0.025713860988616943
20.801537036895752,0.6203243,0.6713351,-2.9530187,0.00211420824374748,nan,nan,nan,nan,10.800822257995605,0.00171661376953125,1.269859,0.7445133,-0.08078818,-0.09154723910874352,0.00457992252530337,9.652136360858545,-0.23503506,0.029524302,0.0120902825,0.9644129,0.8448813,-3.0,0.0,1.1008865,0.6722428,0.0,-0.13517301,0.03843793,9.907629,0.15965395,-0.10624715,0.0,0.043279186,0.7319113998035033,-0.229295015335083,0.04752160608768463,0.026308711618185043
20.914039373397827,0.7077325,0.710785,-2.9545758,0.0024705600813772904,nan,nan,nan,nan,10.913789987564087,0.0030820369720458984,1.2535088,0.6605125,-0.08270608,-0.10876734858762784,0.007583182513178466,9.65508206904398,-0.23991989,0.045275167,0.016493844,1.0862446,0.9120692,-3.0,0.0,1.0551399,0.51526684,0.0,-0.14577626,0.043223187,9.924436,0.13608384,-0.081193455,0.0,0.041418612,0.7320246020876319,-0.24679610133171082,0.05697213113307953,0.02893068641424179
21.009351015090942,0.81293774,0.7487154,-2.9545143,0.003084665488315319,nan,nan,nan,nan,11.008983850479126,0.0027670860290527344,1.230443,0.5412641,-0.082186155,-0.13117715248985223,0.011931351549565372,9.659284414467383,-0.25818342,0.05402515,0.021001324,1.1846851,0.95448446,-3.0,0.0,1.0124552,0.3748053,0.0,-0.15245321,0.047087524,9.936131,0.108597554,-0.058941785,0.0,0.03975667,0.7321860665081625,-0.1622108668088913,0.09473758935928345,0.02296333760023117
21.10511064529419,0.9156458,0.7740088,-2.952497,0.0034574590549992235,nan,nan,nan,nan,11.104435682296753,0.0015234947204589844,1.202542,0.40325066,-0.078080244,-0.15160281594568795,0.018750395076365445,9.664225772847399,-0.19145808,0.09241618,0.022878248,1.2791387,0.98331666,-3.0,0.0,0.96601886,0.22858484,0.0,-0.15698418,0.050799694,9.9449625,0.075725906,-0.03589642,0.0,0.038010344,0.7323758806948004,-0.05454633757472038,0.11546438932418823,0.01520933210849762
21.207167387008667,1.0427296,0.78746575,-2.9488437,0.003189947790935746,nan,nan,nan,nan,11.206408262252808,0.0017228126525878906,1.1573682,0.20893891,-0.06857666,-0.16544410464932702,0.03133055652514716,9.669407725860342,-0.045131594,0.12051568,0.023365838,1.3749541,0.99850005,-3.0,0.0,0.91257757,0.06880173,0.0,-0.15936764,0.054576885,9.9507265,0.03686872,-0.010796248,0.0,0.036057092,0.7325748848093682,0.09530394524335861,0.11414919048547745,0.0017324648797512054
21.303059577941895,1.1296246,0.7824637,-2.944751,0.002567271412165062,nan,nan,nan,nan,11.302388191223145,0.0017156600952148438,1.1156993,0.06601259,-0.060458157,-0.16485655665248938,0.04139539129820413,9.675557492454512,0.05099306,0.11919532,0.020744937,1.4599901,0.9978338,-3.0,0.0,0.8588517,-0.08266861,0.0,-0.15926309,0.057945922,9.952447,-0.0010322642,0.012972651,0.0,0.034131404,0.7328109869822462,0.11062027513980865,0.09069381654262543,-0.0023592840880155563
21.405364274978638,1.2046088,0.76792383,-2.9403133,0.0019194250906356264,nan,nan,nan,nan,11.404747009277344,0.0020020008087158203,1.071915,-0.059361406,-0.053517416,-0.15943304531086522,0.0496019695377401,9.682123931464718,0.102537826,0.10223542,0.016978722,1.5448221,0.981152,-3.0,0.0,0.79811907,-0.24282958,0.0,-0.15664423,0.061330155,9.950307,-0.04039707,0.03813748,0.0,0.03197479,0.7330630032490891,0.06345950812101364,0.07000017166137695,-0.0002083946019411087
21.503365516662598,1.2910295,0.7381135,-2.9340634,0.0010747451800108831,nan,nan,nan,nan,11.502636671066284,0.0021104812622070312,1.0110661,-0.20460585,-0.046180006,-0.14909900673230514,0.05750288275435134,9.68977238376157,0.11070475,0.07575436,0.012859927,1.6199797,0.95002717,-3.0,0.0,0.73694706,-0.39228097,0.0,-0.1517522,0.064354695,9.944636,-0.07474086,0.061703254,0.0,0.0298005,0.7333564388646371,0.04979002848267555,0.05082608014345169,0.0009167259559035301
21.601830005645752,1.3425164,0.71272975,-2.9298003,0.0004663719692482582,nan,nan,nan,nan,11.60103440284729,0.0015795230865478516,0.968889,-0.29171932,-0.042174086,-0.14420455082725606,0.06135527950057784,9.695583946374223,0.07352477,0.060890377,0.010847022,1.6893522,0.90427274,-3.0,0.0,0.67265,-0.5365279,0.0,-0.14454749,0.06717444,9.935794,-0.10394186,0.084574044,0.0,0.027490972,0.7335793241274771,-0.03096044808626175,0.05041380226612091,0.00986432284116745
21.715778827667236,1.4044671,0.6733893,-2.9240425,-0.00040223305515796337,nan,nan,nan,nan,11.715216159820557,0.0023026466369628906,0.9112976,-0.399622,-0.03766893,-0.14098426459885005,0.06581394438737886,9.69973155152516,0.029525764,0.054564748,0.009340855,1.761745,0.8339284,-3.0,0.0,0.5948338,-0.6935036,0.0,-0.13344151,0.070152365,9.9224,-0.12888463,0.109658696,0.0,0.024637833,0.7337383523868365,-0.07803214341402054,0.05340041592717171,0.01840125024318695
21.809030055999756,1.4849552,0.6038375,-2.9150956,-0.0018187684528571113,nan,nan,nan,nan,11.808372020721436,0.001544952392578125,0.8224035,-0.5521336,-0.03254999,-0.14311112377484614,0.07151616172468556,9.699846624624893,-0.028738094,0.045858525,0.009516536,1.8141087,0.7637642,-3.0,0.0,0.52906114,-0.8111534,0.0,-0.12233087,0.07233326,9.909777,-0.14080235,0.12862882,0.0,0.022161456,0.7337427640565469,0.07561471313238144,0.027065522968769073,0.015072818845510483
21.90368342399597,1.5671289,0.5105504,-2.9069903,-0.0029733440873492,nan,nan,nan,nan,11.90287446975708,0.0013620853424072266,0.7155101,-0.72324145,-0.027383268,-0.14050948891110368,0.07595105807717428,9.697294441726969,0.09927822,0.01695114,0.011320632,1.8608795,0.6819097,-3.0,0.0,0.4604881,-0.9191502,0.0,-0.10933075,0.07430328,9.89623,-0.14444129,0.14619605,0.0,0.019507298,0.7336449123836163,0.2761659324169159,-0.008450018242001534,0.006745222955942154
22.009080171585083,1.6205293,0.41965157,-2.8975656,-0.003466416820953243,nan,nan,nan,nan,12.008719682693481,0.0033507347106933594,0.625872,-0.85000837,-0.023952387,-0.12123684998125014,0.07637341076194515,9.689105971273944,0.2922722,-0.014900954,0.011891691,1.9054704,0.5788856,-3.0,0.0,0.38176876,-1.0246729,0.0,-0.09291614,0.076203294,9.881176,-0.13822159,0.16352387,0.0,0.016365292,0.7333308763172549,0.29851746559143066,-0.010681647807359695,0.009060155600309372
22.11087965965271,1.6584654,0.3203017,-2.8895547,-0.0040721371365684406,nan,nan,nan,nan,12.110474348068237,0.0025153160095214844,0.53604794,-0.95043254,-0.08261275,-0.09047644716158959,0.075288836533413,9.673254760471151,0.32437667,-0.012875061,0.012350589,1.9403979,0.47017738,-3.0,0.0,0.30449545,-1.1090727,0.0,-0.075541444,0.077708006,9.867836,-0.12244504,0.17751296,0.0,0.013185061,0.7327225891610896,0.22313432395458221,-0.0007206378504633904,0.01776977628469467
22.202988624572754,1.6887927,0.2240992,-2.8911245,-0.004783469861215601,nan,nan,nan,nan,12.202585458755493,0.003004789352416992,0.45608574,-1.0141884,-0.11758989,-0.06427423432126403,0.07506191910607152,9.640655606356429,0.27221704,-0.005782031,0.012332729,1.9651806,0.36510202,-3.0,0.0,0.23346491,-1.1698883,0.0,-0.058703724,0.078785196,9.857505,-0.10079759,0.1876712,0.0,0.01018644,0.7314700344579278,0.1582861840724945,0.007251494564116001,0.02487802505493164
22.302945852279663,1.7143505,0.11391104,-2.8964818,-0.005583649469075781,nan,nan,nan,nan,12.302547454833984,0.0030825138092041016,0.3695065,-1.0592506,-0.14154808,-0.041904064253467016,0.07523438106805358,9.607227305141256,0.19930379,0.0076341806,0.013615095,1.9846282,0.24558716,-3.0,0.0,0.15550214,-1.218152,0.0,-0.039512116,0.07963636,9.848877,-0.070862345,0.19578259,0.0,0.00682719,0.7301834203518633,0.12567757070064545,0.009230511263012886,0.030745957046747208
22.407956838607788,1.7309133,0.010764929,-2.9024036,-0.005972976697328556,nan,nan,nan,nan,12.407644271850586,0.0020377635955810547,0.2904571,-1.0826509,-0.15387328,-0.025902099999342017,0.07561944018951383,9.578496035304829,0.16954993,-0.0006611798,0.017838176,1.9966336,0.115796365,-3.0,0.0,0.07287967,-1.2481836,0.0,-0.01863783,0.08016448,9.843316,-0.03431205,0.20085303,0.0,0.0032124294,0.7290757993653142,0.11174123734235764,0.023036710917949677,0.03392493352293968
22.50501775741577,1.7391189,-0.06439696,-2.906473,-0.005974532496852969,nan,nan,nan,nan,12.50474762916565,0.0034601688385009766,0.23393908,-1.0902745,-0.15848848,-0.016000447270718383,0.07639140383083598,9.548917913106246,0.14536592,0.014419648,0.02058043,1.999991,-0.005965873,-3.0,0.0,-0.0037484854,-1.2566147,0.0,0.00096033915,0.08031256,9.841728,0.0017807998,0.20227978,0.0,-0.00016541374,0.7279337945837707,0.10460145771503448,0.05749296769499779,0.035393811762332916
22.610591888427734,1.7437265,-0.12985258,-2.9093044,-0.00576835149229039,nan,nan,nan,nan,12.600430965423584,0.003209352493286133,0.1846745,-1.0917315,-0.15944646,-0.008011347642173493,0.07769154113084098,9.52907886010127,0.13744296,0.032619756,0.024168432,1.9960194,-0.12587135,-3.0,0.0,-0.07924503,-1.2466426,0.0,0.02025901,0.0801374,9.843605,0.03724717,0.2005924,0.0,-0.003492289,0.7271668218356302,0.11192526668310165,0.09932967275381088,0.03467831388115883
