time,x,y,z,yaw,platform,trajectory,controller,feedforward,traj_time,comp_time,vx,vy,vz,roll,pitch,f,p,q,r,x_ref,y_ref,z_ref,yaw_ref,vx_ref,vy_ref,vz_ref,roll_ref,pitch_ref,f_ref,u_ff_df,u_ff_dphi,u_ff_dpsi,u_ff_dth,throttle,p_cmd,q_cmd,r_cmd
10.001063346862793,-0.011570116,0.008247526,-2.6614137,-0.014041552473776017,SIM,figure_eight,contraction,0.0,2.1457672119140625e-06,0.012037038803100586,0.001612557,-0.020643897,-0.17214864,-0.00013986162124182341,-0.000654679464137331,9.811807979643344,0.002664021,-0.008682159,0.011161155,2.6964508e-06,2.6964508e-06,-3.0,0.0,1.2566371,1.2566371,0.0,-4.3405345e-07,1.0851336e-07,9.81,9.1517006e-07,-0.20228358,0.0,0.050570894,0.73802280778061,1.8399088382720947,-1.8367345333099365,0.003787646070122719
10.101355791091919,-0.01395644,0.0061314004,-2.6794431,-0.01301368959436483,nan,nan,nan,nan,0.10028290748596191,0.0015308856964111328,0.0040998054,-0.017890815,-0.18440501,0.01737645055016734,-0.023647728402690582,9.78768857449293,0.54158324,-0.63636714,0.028477691,0.12593585,0.12568595,-3.0,0.0,1.2541434,1.246672,0.0,-0.020229176,0.005066961,9.812134,0.042329982,-0.20059736,0.0,0.050438352,0.7371028465213941,2.067319631576538,-2.041692018508911,0.06887141615152359
10.20090651512146,-0.012836682,0.006535912,-2.7040417,-0.011392508750481707,nan,nan,nan,nan,0.19988512992858887,0.0011012554168701172,0.06662426,0.03558372,-0.24594219,0.08174468184429004,-0.08846631334652466,9.600117300450801,0.42804852,-0.32736364,0.06184352,0.25052327,0.24855007,-3.0,0.0,1.2467395,1.2172027,0.0,-0.039988313,0.010073418,9.818347,0.08179632,-0.19562258,0.0,0.050048552,0.7299094765034152,1.604098916053772,-1.6142797470092773,0.13371077179908752
10.30051302909851,-0.002813865,0.014383158,-2.7279527,-0.0048373950760637816,nan,nan,nan,nan,0.2992880344390869,0.0009219646453857422,0.14728905,0.11479809,-0.24211252,0.08989130024864117,-0.0875426302649236,9.597449706196787,-0.12860547,0.1762339,0.075109236,0.37388378,0.36729258,-3.0,0.0,1.2344838,1.168805,0.0,-0.059055127,0.01501886,9.828239,0.11624185,-0.18748967,0.0,0.049415134,0.7298066696657888,1.3496323823928833,-1.5759755373001099,0.08083396404981613
10.401134967803955,0.021366553,0.0342323,-2.7557871,0.006657075383242145,nan,nan,nan,nan,0.40007567405700684,0.001537322998046875,0.2367471,0.20382647,-0.24088797,0.07613423754502165,-0.08075794415469084,9.618749958723784,-0.15855877,0.007481776,0.08767914,0.49747187,0.481837,-3.0,0.0,1.2171427,1.1011419,0.0,-0.07740736,0.019957181,9.841424,0.14402789,-0.17619322,0.0,0.048542738,0.7306271655175929,1.2170213460922241,-1.6070749759674072,-0.010498352348804474
10.500603199005127,0.05384775,0.06070511,-2.781081,0.019820321211651237,nan,nan,nan,nan,0.49939751625061035,0.0011348724365234375,0.31785536,0.2739078,-0.2561422,0.06274570841776565,-0.08408350595017455,9.574703533723948,-0.25265688,0.23099777,0.08366903,0.6173139,0.58717257,-3.0,0.0,1.1952798,1.0171996,0.0,-0.09423846,0.024727315,9.856736,0.16277191,-0.16229095,0.0,0.04747983,0.7289294703575494,1.0630651712417603,-1.5606040954589844,-0.048192769289016724
10.600576162338257,0.094894975,0.092726395,-2.8052635,0.033362097701929466,nan,nan,nan,nan,0.5993504524230957,0.0013594627380371094,0.3835265,0.32130706,-0.24591169,0.03620097135944618,-0.06956591587763095,9.6290942581743,-0.11613581,-0.16518225,0.06455614,0.73549014,0.68395185,-3.0,0.0,1.1685803,0.91675085,0.0,-0.10965555,0.029412102,9.873547,0.17192608,-0.145804,0.0,0.046232477,0.7310253051162878,0.9380463361740112,-1.6046712398529053,-0.08779449760913849
10.70068073272705,0.14748117,0.13097888,-2.8337395,0.04130192168262191,nan,nan,nan,nan,0.6994643211364746,0.0011320114135742188,0.47511572,0.36290282,-0.28733099,0.05470805817123747,-0.14480729181252938,9.50873268388212,0.6272778,-1.4277952,0.024916703,0.85094947,0.770084,-3.0,0.0,1.1372192,0.8016622,0.0,-0.12333291,0.033971597,9.890793,0.17089482,-0.12709232,0.0,0.04483034,0.7263794141056205,0.5842999219894409,-1.0001529455184937,-0.014269575476646423
10.80102276802063,0.21627764,0.17392187,-2.8639507,0.030262226076134366,nan,nan,nan,nan,0.7999489307403564,0.001514434814453125,0.68620324,0.45722327,-0.27117726,0.12066109865265016,-0.2606888447219111,9.485725418850778,0.42493767,-0.61047035,-0.012317546,0.9634511,0.84429353,-3.0,0.0,1.1012189,0.6734079,0.0,-0.13508011,0.038400117,9.90749,0.15979272,-0.106433995,0.0,0.04329306,0.7254880052524215,-0.14292386174201965,0.13860070705413818,0.12528128921985626
10.901379823684692,0.3058546,0.22336628,-2.888355,0.019612470213526682,nan,nan,nan,nan,0.9003159999847412,0.0013866424560546875,0.9385676,0.5805839,-0.23159082,0.1317146837047886,-0.26501589043103513,9.5237798743695,-0.21191157,0.40731704,-0.013133681,1.0719888,0.90499604,-3.0,0.0,1.0608801,0.5345985,0.0,-0.14466152,0.042663578,9.922579,0.13945052,-0.084267125,0.0,0.041647147,0.7269618293211422,-0.6447324752807617,0.7023913860321045,0.07393354177474976
11.000486373901367,0.4224176,0.2835573,-2.9080338,0.017184664275919574,nan,nan,nan,nan,0.999262809753418,0.0010671615600585938,1.1623491,0.68114054,-0.2012653,0.08381332947988093,-0.20186563443479666,9.541270735934376,-0.6874375,0.8221525,-0.0014379369,1.1748209,0.95076984,-3.0,0.0,1.0169828,0.38942915,0.0,-0.151869,0.04670021,9.93506,0.11167642,-0.0612525,0.0,0.039930087,0.7276382511105394,-0.8100127577781677,0.7692254781723022,-0.009972602128982544
11.100481986999512,0.572426,0.35474747,-2.9260323,0.014208252225384542,nan,nan,nan,nan,1.0992670059204102,0.0010192394256591797,1.3286899,0.71529907,-0.18848114,-0.0026723362187917763,-0.11514050122359532,9.525662648230794,-0.8656314,0.8135046,-0.0014561511,1.2741382,0.98211426,-3.0,0.0,0.96862435,0.23660712,0.0,-0.15679537,0.05060295,9.944566,0.07761199,-0.037158445,0.0,0.038106937,0.7270346714026542,-0.7019321918487549,0.6188251376152039,-0.030054956674575806
11.201158285140991,0.7234508,0.41604456,-2.941861,0.003960852767638773,nan,nan,nan,nan,1.2000949382781982,0.0014579296112060547,1.4098545,0.65768176,-0.18234912,-0.08412884549233685,-0.045453012958253325,9.50652064189315,-0.78402925,0.67491,-0.014368398,1.3691812,0.99803424,-3.0,0.0,0.9159977,0.078755215,0.0,-0.15929453,0.054348838,9.950485,0.039341938,-0.012358422,0.0,0.036180735,0.7262937561644961,-0.5138674974441528,0.4964678883552551,0.001943841576576233
11.300493001937866,0.8900407,0.46615174,-2.9585035,-0.01998936560604407,nan,nan,nan,nan,1.299271821975708,0.0010306835174560547,1.430126,0.50602585,-0.1698303,-0.1549180586416869,0.01410904836153204,9.503478313535455,-0.55071217,0.5394375,-0.023131097,1.4573108,0.9980838,-3.0,0.0,0.8606463,-0.077757336,0.0,-0.15930231,0.057839453,9.952449,0.00019568528,0.012201803,0.0,0.03419534,0.726175930373911,-0.23542454838752747,0.3852617144584656,0.07122386991977692
11.400517702102661,1.038265,0.48940808,-2.9726405,-0.05007797072605982,nan,nan,nan,nan,1.3993041515350342,0.0011048316955566406,1.3921057,0.30929008,-0.15044233,-0.1965545727169827,0.05686118812289864,9.516908426955345,-0.2872341,0.4099064,-0.021368379,1.5404689,0.9824507,-3.0,0.0,0.8014339,-0.23439088,0.0,-0.15684818,0.0611558,9.950521,-0.03837198,0.036809772,0.0,0.032092348,0.7266959208123228,-0.01711452752351761,0.257845401763916,0.15338066220283508
11.501663446426392,1.1856215,0.48656294,-2.9855757,-0.08334846621703158,nan,nan,nan,nan,1.5004510879516602,0.0011963844299316406,1.2964522,0.07079139,-0.12362361,-0.21162009644771917,0.0893663619781162,9.538856137767441,0.00078899274,0.24371873,0.0030283674,1.6183671,0.9508812,-3.0,0.0,0.73834455,-0.38899967,0.0,-0.15188652,0.064289495,9.944798,-0.07402445,0.061184615,0.0,0.029850353,0.7275449085821818,0.15826453268527985,0.10070449113845825,0.26036787033081055
11.644295930862427,1.2373599,0.4773603,-2.9897351,-0.09497524091777795,nan,nan,nan,nan,1.6430962085723877,0.0008525848388671875,1.2476386,-0.02110581,-0.11259885,-0.20969087622420587,0.09782668982873077,9.556304279938347,0.09461329,0.17354544,0.020947106,1.7170517,0.88045305,-3.0,0.0,0.64436615,-0.59581345,0.0,-0.14079072,0.06830921,9.931198,-0.11435744,0.09402079,0.0,0.026462475,0.7282191460813168,-0.06724781543016434,0.04796399176120758,0.33877578377723694
11.721733331680298,1.4117199,0.40192735,-3.002804,-0.131267024295332,nan,nan,nan,nan,1.7211968898773193,0.005621910095214844,1.0072813,-0.34979033,-0.0761782,-0.17928620597351458,0.11715190468723002,9.569289491996175,0.21146634,-0.015879203,0.115847215,1.7652899,0.8297574,-3.0,0.0,0.5906701,-0.70135957,0.0,-0.13278192,0.070299245,9.921627,-0.12988831,0.1109205,0.0,0.024482956,0.7287205259934215,0.1811269372701645,-0.17419931292533875,0.47881925106048584
11.807984828948975,1.4897691,0.33328673,-3.0084133,-0.14318240899818743,nan,nan,nan,nan,1.8077616691589355,0.002376556396484375,0.84508234,-0.50725746,-0.06224136,-0.15364467714887084,0.11215511778255394,9.572161307390783,0.24793799,-0.16987565,0.19088237,1.8137854,0.76425946,-3.0,0.0,0.5294986,-0.81041646,0.0,-0.122409396,0.07231971,9.9098625,-0.1407507,0.12850948,0.0,0.022178143,0.7288313654573826,0.17967689037322998,-0.23228153586387634,0.5384947061538696
11.90047025680542,1.5484145,0.25252977,-3.0124967,-0.14776956028348773,nan,nan,nan,nan,1.8992609977722168,0.0011720657348632812,0.68919796,-0.6313388,-0.05348455,-0.12571099273002387,0.0976954125087015,9.567943689823153,0.24690308,-0.23792104,0.27940935,1.859211,0.68522376,-3.0,0.0,0.46314144,-0.9152498,0.0,-0.10985784,0.0742326,9.896752,-0.14446218,0.14555879,0.0,0.019611424,0.7286685782157463,0.152564138174057,-0.2404530644416809,0.5782104730606079
12.000434637069702,1.5901852,0.16417998,-3.015348,-0.1439327458543395,nan,nan,nan,nan,1.9992144107818604,0.0011434555053710938,0.5512579,-0.7234366,-0.04862015,-0.09877324435206469,0.07982514292212928,9.556789343580608,0.21493502,-0.23888211,0.36121497,1.9018078,0.58858365,-3.0,0.0,0.3889121,-1.0159111,0.0,-0.09446359,0.07604637,9.882494,-0.13921717,0.16207846,0.0,0.016654583,0.7282378812907382,0.09805767238140106,-0.21141576766967773,0.5858434438705444
12.101252555847168,1.6178417,0.07209439,-3.017245,-0.13214255704103156,nan,nan,nan,nan,2.1001789569854736,0.00147247314453125,0.4344972,-0.78803176,-0.046342984,-0.07672712226385532,0.06275931062662155,9.543934183046225,0.15795271,-0.20771888,0.43113178,1.9372222,0.48155653,-3.0,0.0,0.31237605,-1.1013356,0.0,-0.077362485,0.077570565,9.869107,-0.12445085,0.17622544,0.0,0.013513503,0.727741199838974,0.05092712119221687,-0.16622741520404816,0.5565200448036194
12.200526714324951,1.6351498,-0.020843988,-3.0184238,-0.1110947491778921,nan,nan,nan,nan,2.1993191242218018,0.0011136531829833984,0.34111455,-0.834262,-0.044503625,-0.06166876782506227,0.048371071340790994,9.530703412368895,0.09984959,-0.15928377,0.48198286,1.964414,0.36891985,-3.0,0.0,0.2359983,-1.1679955,0.0,-0.059316155,0.07875175,9.857836,-0.101671554,0.18735398,0.0,0.010294498,0.7272296566076267,0.03457135707139969,-0.10844545066356659,0.48268216848373413
12.300564765930176,1.6470447,-0.121376134,-3.0196137,-0.07837040066182224,nan,nan,nan,nan,2.299384832382202,0.0010998249053955078,0.26369348,-0.87278867,-0.042457767,-0.051874216364791614,0.03751490043912109,9.51957274191082,0.05814299,-0.0922974,0.5003707,1.9841324,0.2494385,-3.0,0.0,0.15798022,-1.2169156,0.0,-0.040131092,0.07961458,9.849103,-0.07189388,0.1955742,0.0,0.0069348654,0.7267990347920399,0.06034737080335617,-0.04191288352012634,0.35659417510032654
12.400632858276367,1.6549478,-0.21478827,-3.0203643,-0.0420467155705498,nan,nan,nan,nan,2.399407386779785,0.0010333061218261719,0.20984004,-0.9040734,-0.03956741,-0.045205145620584225,0.033276963057529585,9.511377649679787,0.062523685,-0.027738854,0.48196238,1.9960066,0.12607187,-3.0,0.0,0.07937178,-1.2466105,0.0,-0.020291273,0.08013684,9.843611,-0.03730546,0.20058696,0.0,0.0034978597,0.7264818232806491,0.09697563946247101,0.025627553462982178,0.21019841730594635
12.500507831573486,1.661431,-0.3091539,-3.0207357,-0.004196423938364582,nan,nan,nan,nan,2.4992997646331787,0.0011408329010009766,0.16566546,-0.9313589,-0.036810227,-0.03748362140159067,0.0350047663409947,9.504378864169126,0.08395564,0.038541965,0.4293692,1.9999998,0.00087991543,-3.0,0.0,0.00055286725,-1.2566366,0.0,-0.00014164188,0.080312945,9.841723,-0.00026265776,0.2022835,0.0,2.4397086e-05,0.7262108096030647,0.14689505100250244,0.08205381035804749,0.05240015313029289
12.60111951828003,1.6681513,-0.4128427,-3.021417,0.032651962368945214,nan,nan,nan,nan,2.6000587940216064,0.0016765594482421875,0.12031754,-0.9540323,-0.035637215,-0.025552665597987714,0.042860041219176415,9.49424352943898,0.13017297,0.09338764,0.33525255,1.9960488,-0.1254067,-3.0,0.0,-0.07895133,-1.2467165,0.0,0.020184241,0.080138706,9.843591,0.03711207,0.20060487,0.0,-0.0034793795,0.7258181625174672,0.2099350094795227,0.10971623659133911,-0.10696393251419067
12.700562953948975,1.674259,-0.5097448,-3.0220366,0.05853333985487278,nan,nan,nan,nan,2.6993539333343506,0.0010845661163330078,0.07494428,-0.9646716,-0.035322815,-0.009794803725075803,0.05326608846528136,9.4825294032693,0.1813568,0.116103455,0.22185783,1.984331,-0.24790345,-3.0,0.0,-0.15699229,-1.2174108,0.0,0.039884385,0.079623304,9.849012,0.07148319,0.19565766,0.0,-0.0068919454,0.7253640912103604,0.2598990201950073,0.12236163020133972,-0.22565358877182007
12.800660371780396,1.6788081,-0.61423594,-3.022895,0.07379667605733539,nan,nan,nan,nan,2.7994565963745117,0.0012984275817871094,0.015779449,-0.95808125,-0.034054544,0.012455119138657968,0.06559234590249252,9.474272911921151,0.2340651,0.113646604,0.08514042,1.9647024,-0.36748958,-3.0,0.0,-0.23504886,-1.1687073,0.0,0.059086725,0.07876432,9.857712,0.10134483,0.18747327,0.0,-0.01025401,0.7250438786804319,0.29167813062667847,0.10027515143156052,-0.3034695088863373
12.901129961013794,1.6784345,-0.71561605,-3.023975,0.07356391592645871,nan,nan,nan,nan,2.899968385696411,0.0009546279907226562,-0.055981442,-0.9271559,-0.030831954,0.03889525889198596,0.07601370907913974,9.473927067089251,0.27048963,0.08424851,-0.04498793,1.9371761,-0.48171905,-3.0,0.0,-0.31248888,-1.1012235,0.0,0.07738849,0.077568576,9.869125,0.12447897,0.17620678,0.0,-0.013518201,0.7250304626933175,0.2884356677532196,0.06654380261898041,-0.3170304000377655
13.000670909881592,1.671982,-0.8040574,-3.025536,0.061055054748481365,nan,nan,nan,nan,2.999453067779541,0.001291036605834961,-0.13109401,-0.87315947,-0.02585233,0.06470794462952646,0.08370908942050392,9.480534828546812,0.281379,0.06141756,-0.1461334,1.9023253,-0.58722913,-3.0,0.0,-0.3879115,-1.0171481,0.0,0.09424748,0.07606853,9.882309,0.13908271,0.16228247,0.0,-0.016614107,0.7252867481459156,0.26116836071014404,0.041767749935388565,-0.27646157145500183
13.100561618804932,1.6563977,-0.8912933,-3.0275104,0.03714260599778407,nan,nan,nan,nan,3.099342107772827,0.0009388923645019531,-0.21903941,-0.78588325,-0.017729774,0.09117130600156481,0.08970115586966476,9.496262080985476,0.25728628,0.025191266,-0.21867071,1.8598571,-0.6839442,-3.0,0.0,-0.462116,-0.91675985,0.0,0.10965435,0.07425997,9.89655,0.14445561,0.14580548,0.0,-0.019571196,0.7258963787517427,0.19675588607788086,0.006346158683300018,-0.18531709909439087
13.200632095336914,1.6327877,-0.9620167,-3.0291512,0.010208372649694465,nan,nan,nan,nan,3.1994118690490723,0.001007080078125,-0.30299953,-0.68180805,-0.0075824927,0.11158685869699056,0.09314997071399489,9.521849281954935,0.21100117,0.00074534985,-0.24543867,1.8099686,-0.77004206,-3.0,0.0,-0.53462994,-0.80172586,0.0,0.12332626,0.072159894,9.910871,0.14011744,0.12710261,0.0,-0.022373674,0.726887129724597,0.14131216704845428,-0.007444433867931366,-0.07761827111244202
13.301922798156738,1.5963562,-1.0255811,-3.0301995,-0.019060147684807814,nan,nan,nan,nan,3.300839900970459,0.001474142074584961,-0.39355078,-0.5481731,0.004225052,0.12834111421152458,0.0950568856545384,9.552418468165566,0.15906775,-0.015599334,-0.22960806,1.7521046,-0.84489304,-3.0,0.0,-0.6059706,-0.6722195,0.0,0.13517486,0.069753446,9.924448,0.12603383,0.106243424,0.0,-0.0250509,0.7280690424308044,0.0740053802728653,-0.028240248560905457,0.04186384379863739
13.400560855865479,1.5532143,-1.0703173,-3.030664,-0.04168727542945041,nan,nan,nan,nan,3.399332284927368,0.0011162757873535156,-0.47479472,-0.41043967,0.014176891,0.13990262662070202,0.09606463135909471,9.58264664517658,0.110663,-0.030381603,-0.18183467,1.6891053,-0.90446955,-3.0,0.0,-0.6728947,-0.53600377,0.0,0.14457853,0.067164354,9.935832,0.10384512,0.084490664,0.0,-0.027499828,0.7292359123439199,0.023061297833919525,-0.03952197730541229,0.13572415709495544
13.500592947006226,1.5011132,-1.1002593,-3.030497,-0.05740051370506817,nan,nan,nan,nan,3.4993722438812256,0.0010356903076171875,-0.5531691,-0.26333532,0.02236321,0.14656782838917232,0.09458606952148263,9.606621240842513,0.07087487,-0.027589982,-0.11220467,1.6184975,-0.95081246,-3.0,0.0,-0.7382317,-0.38926482,0.0,0.1518757,0.06429476,9.944786,0.07408242,0.06122653,0.0,-0.029846324,0.7301600730422575,-0.006830863654613495,-0.03831186890602112,0.20355677604675293
13.601334810256958,1.4341545,-1.1157146,-3.029637,-0.06455554688543479,nan,nan,nan,nan,3.6002719402313232,0.001443624496459961,-0.6358294,-0.099560864,0.029165618,0.15102338931602505,0.09211975368164205,9.625894337463551,0.023790121,-0.041817132,-0.028158242,1.5408086,-0.98235124,-3.0,0.0,-0.8011761,-0.23504835,0.0,0.15683256,0.061169393,9.950505,0.03853002,0.036913205,0.0,-0.032083206,0.7309021668859359,-0.04638093709945679,-0.05923037230968475,0.23364675045013428
13.700976371765137,1.3634989,-1.1147308,-3.0280313,-0.062351001896260215,nan,nan,nan,nan,3.6998939514160156,0.0016665458679199219,-0.70923215,0.051469896,0.034073066,0.15123038088733204,0.08696107640887418,9.647669862973862,-0.016590647,-0.058433745,0.046446282,1.4580283,-0.9980184,-3.0,0.0,-0.8601664,-0.07907176,0.0,0.15929206,0.057867963,9.952449,0.00013301974,0.012408105,0.0,-0.03417824,0.7317397212745642,-0.04850170016288757,-0.056205615401268005,0.22793230414390564
13.800991296768188,1.2853761,-1.0996724,-3.0256345,-0.05247680841350637,nan,nan,nan,nan,3.799776077270508,0.0011262893676757812,-0.77862906,0.19779947,0.036846314,0.14888749984796956,0.08010614991261633,9.66523659201282,-0.040630795,-0.06761724,0.106053054,1.3692993,-0.9980444,-3.0,0.0,-0.91592807,0.078552105,0.0,0.15929614,0.0543535,9.95049,-0.039291516,-0.012326543,0.0,-0.036178213,0.732414703677872,-0.03330325335264206,-0.047088176012039185,0.190956249833107
13.901264667510986,1.2005115,-1.0716025,-3.022784,-0.037155298601482555,nan,nan,nan,nan,3.9002652168273926,0.0011098384857177734,-0.8435682,0.33734187,0.037924897,0.1453493553925406,0.07243478139004167,9.681560611742908,-0.04675889,-0.06191191,0.14452852,1.2745911,-0.9822247,-3.0,0.0,-0.9683891,0.23588184,0.0,0.1568127,0.050620764,9.944603,-0.0774418,-0.03704433,0.0,-0.03809821,0.7330413867042151,-0.007964867167174816,-0.033454105257987976,0.13213089108467102
14.000590562820435,1.1016014,-1.027859,-3.0192714,-0.017196038195851242,nan,nan,nan,nan,3.999363899230957,0.0009889602661132812,-0.9096843,0.48007807,0.036590062,0.14193095756383098,0.06480724686813244,9.692750204447087,-0.036820814,-0.049980648,0.15501662,1.1762168,-0.9513031,-3.0,0.0,-1.0163456,0.38736713,0.0,0.15195289,0.046755016,9.935213,-0.11124499,-0.0609266,0.0,-0.039905645,0.733470652700195,-0.009647448547184467,-0.04660023748874664,0.05113788694143295
14.101848125457764,1.0040116,-0.9754811,-3.0158935,0.001290984059574854,nan,nan,nan,nan,4.100652694702148,0.0013153553009033203,-0.96658987,0.6057641,0.033929504,0.13893860367280442,0.05788296132962789,9.698441992904419,-0.04072618,-0.05557879,0.13996321,1.0709609,-0.9044775,-3.0,0.0,-1.0612899,0.53598267,0.0,0.14457978,0.04262322,9.922443,-0.13968714,-0.08448731,0.0,-0.041663513,0.7336889115297208,0.0015889974310994148,-0.04273772984743118,-0.022270459681749344
14.200547218322754,0.8921614,-0.90623647,-3.0124905,0.018128924452600025,nan,nan,nan,nan,4.199325084686279,0.0010986328125,-1.023524,0.7350213,0.02954785,0.13462156671679168,0.05019088465324795,9.698396339136536,-0.057658754,-0.06883314,0.100745395,0.9642504,-0.84478205,-3.0,0.0,-1.1009427,0.6724398,0.0,0.13515733,0.03843154,9.907605,-0.15967749,-0.106278755,0.0,-0.043281525,0.7336871611330631,-0.02201819233596325,-0.060662418603897095,-0.090423084795475
14.300965309143066,0.79268825,-0.8382854,-3.0103412,0.028530508573397853,nan,nan,nan,nan,4.29974365234375,0.0009865760803222656,-1.067245,0.8378769,0.024269545,0.12949661176006755,0.0437300546118915,9.69171011717933,-0.066557474,-0.06999134,0.05496031,0.85185,-0.77071846,-3.0,0.0,-1.136953,0.80069876,0.0,0.123433486,0.034007095,9.890928,-0.17084605,-0.1269364,0.0,-0.0448187,0.733430762313627,-0.006521496921777725,-0.04534696787595749,-0.12967222929000854
14.400522470474243,0.660653,-0.7404868,-3.009085,0.03518498093758927,nan,nan,nan,nan,4.399308204650879,0.001285552978515625,-1.1158144,0.95973873,0.017141327,0.12211431812291934,0.03634658395389545,9.679392423498804,-0.07698233,-0.072486624,-0.00874445,0.7370574,-0.6851806,-3.0,0.0,-1.1681905,0.91530085,0.0,0.10985099,0.029474104,9.873777,-0.17198002,-0.14556712,0.0,-0.046214644,0.7329581798807896,-0.06832630187273026,-0.08041749149560928,-0.1588689386844635
14.50067687034607,0.5532813,-0.6558121,-3.0092113,0.03536575669746301,nan,nan,nan,nan,4.49946141242981,0.0009877681732177734,-1.1480293,1.0469239,0.011096657,0.11415697817021137,0.030266188576043573,9.665013092327293,-0.09231494,-0.0687869,-0.05454137,0.61867756,-0.5883326,-3.0,0.0,-1.1950014,1.0161407,0.0,0.09442353,0.024781482,9.856922,-0.16293277,-0.1621163,0.0,-0.04746654,0.7324061198004637,-0.06989769637584686,-0.06449487805366516,-0.15601132810115814
14.60205888748169,0.41254264,-0.5394842,-3.0107179,0.030606256834886846,nan,nan,nan,nan,4.600906848907471,0.0011086463928222656,-1.1815234,1.144829,0.0038230207,0.10171526888577287,0.0227470038241,9.644611317980464,-0.13301925,-0.09096238,-0.09937672,0.4962759,-0.4807547,-3.0,0.0,-1.2173355,1.1018887,0.0,0.07723418,0.01990948,9.841283,-0.14379741,-0.17631747,0.0,-0.048552282,0.7316221372270462,-0.1281515657901764,-0.08782757818698883,-0.13767747581005096
14.700836420059204,0.30014274,-0.4421481,-3.0127525,0.02385477919722985,nan,nan,nan,nan,4.699619770050049,0.0010199546813964844,-1.1996965,1.2087101,-0.0013268096,0.08854597865686328,0.015924525652579735,9.624349600243745,-0.15805112,-0.09090542,-0.12383067,0.37523192,-0.36856872,-3.0,0.0,-1.2343223,1.1681705,0.0,0.05925983,0.0150728235,9.828367,-0.11658485,-0.18738332,0.0,-0.04940688,0.7308427155231063,-0.12916438281536102,-0.062322646379470825,-0.1053927093744278
14.801085233688354,0.15627949,-0.31248233,-3.016774,0.013299240501424902,nan,nan,nan,nan,4.799870252609253,0.0010106563568115234,-1.211944,1.2709851,-0.007839748,0.06976476997490738,0.00810933047133311,9.604044632482706,-0.16215447,-0.066405,-0.13409846,0.2508277,-0.2488473,-3.0,0.0,-1.2467153,1.2171067,0.0,0.04003608,0.010085638,9.818367,-0.0818879,-0.19560643,0.0,-0.050047293,0.7300608065843661,-0.16513273119926453,-0.06686879694461823,-0.06104951351881027
14.901369094848633,0.043255493,-0.20678052,-3.0206742,0.0047451681626464945,nan,nan,nan,nan,4.900300979614258,0.0015568733215332031,-1.2145596,1.3050448,-0.011938023,0.05456263271727229,0.0031953088734693047,9.582216223198353,-0.18004927,-0.063921705,-0.12811029,0.12520353,-0.12495795,-3.0,0.0,-1.2541723,1.2467877,0.0,0.020112036,0.005037508,9.812109,-0.042088576,-0.20061691,0.0,-0.050439894,0.7292193100956803,-0.17405863106250763,-0.04064175486564636,-0.023250948637723923
15.00039291381836,-0.08969091,-0.079090215,-3.0259635,-0.0043504511602928,nan,nan,nan,nan,4.999172925949097,0.0009763240814208984,-1.2108285,1.3273286,-0.01576051,0.035079470965498884,-0.0016936052145635205,9.561445221322954,-0.19612259,-0.05224752,-0.10933032,0.0010388533,-0.0010388531,-3.0,0.0,-1.256637,1.2566364,0.0,0.0001672264,4.1806612e-05,9.81,-0.0003525845,-0.20228346,0.0,-0.050570887,0.7284176868023609,-0.20260444283485413,-0.042337846010923386,0.013373292982578278
15.100623607635498,-0.21063527,0.039270967,-3.0312233,-0.010934050175941573,nan,nan,nan,nan,5.099406480789185,0.0010492801666259766,-1.2011038,1.3291863,-0.017620832,0.015292105428616707,-0.005808111939601179,9.544630209076583,-0.21199575,-0.03566052,-0.08359605,-0.124836475,0.12459306,-3.0,0.0,-1.2541867,1.2468454,0.0,-0.020053323,-0.005022747,9.812097,0.041967552,-0.20062667,0.0,-0.050440654,0.7277681005754665,-0.21606996655464172,-0.029877904802560806,0.040341295301914215
15.20072865486145,-0.32857043,0.1565672,-3.0362494,-0.015313325606332001,nan,nan,nan,nan,5.199519395828247,0.0010404586791992188,-1.1864387,1.311937,-0.01815803,-0.005789004037061459,-0.009079030449149927,9.531585556435763,-0.22634272,-0.03597019,-0.052666366,-0.25006735,0.24810494,-3.0,0.0,-1.2467756,1.2173461,0.0,-0.039916772,-0.010055114,9.818317,0.08165911,-0.19564675,0.0,-0.05005044,0.7272637741166618,-0.2237081527709961,-0.020217176526784897,0.05681810528039932
15.301239252090454,-0.4528206,0.2799501,-3.0411713,-0.017415372131197437,nan,nan,nan,nan,5.300157785415649,0.0014543533325195312,-1.1659864,1.2701118,-0.016322782,-0.029880567027746722,-0.012103789780159468,9.525891877244591,-0.23362654,-0.022688141,-0.020744013,-0.37495732,0.36830884,-3.0,0.0,-1.2343553,1.1682999,0.0,-0.059218142,-0.015061832,9.8283415,0.11651505,-0.187405,0.0,-0.049408562,0.727043539484629,-0.21662379801273346,-0.02073727361857891,0.06363491714000702
15.400442838668823,-0.5735988,0.39664197,-3.0458171,-0.016934636528797776,nan,nan,nan,nan,5.39922022819519,0.001232147216796875,-1.1421208,1.2033893,-0.013194987,-0.053814784618918046,-0.014668986475531387,9.524240511059194,-0.22285084,-0.019026592,0.0061689015,-0.49643096,0.48089507,-3.0,0.0,-1.2173104,1.1017919,0.0,-0.077256635,-0.019915666,9.841301,0.14382732,-0.17630133,0.0,-0.04855105,0.7269796514231468,-0.19294054806232452,-0.025019362568855286,0.059721529483795166
15.501103162765503,-0.6814166,0.49631277,-3.049722,-0.014746120288515015,nan,nan,nan,nan,5.500033855438232,0.0016169548034667969,-1.1171397,1.1212649,-0.008623757,-0.07450986540533969,-0.01663958155425571,9.52843875937107,-0.20600228,-0.016225267,0.024921747,-0.6180748,0.58781993,-3.0,0.0,-1.1951245,1.0166091,0.0,-0.09434174,-0.024757534,9.85684,0.16286181,-0.16219357,0.0,-0.047472417,0.7271420624149003,-0.17181730270385742,-0.020065952092409134,0.04840356856584549
15.60127854347229,-0.79350114,0.5926706,-3.0531256,-0.011316784488532482,nan,nan,nan,nan,5.600148916244507,0.0011920928955078125,-1.0873728,1.0108582,-0.0021251023,-0.09486009565995418,-0.018255297067710563,9.539286869167713,-0.17427307,-0.019685734,0.035770386,-0.7364234,0.6846837,-3.0,0.0,-1.1683483,0.91588783,0.0,-0.10977195,-0.029449021,9.873685,0.1719584,-0.14566301,0.0,-0.04622186,0.7275615604826005,-0.13024798035621643,-0.02572724223136902,0.03246622532606125
15.700587272644043,-0.89235747,0.6694523,-3.0554945,-0.00794665115576565,nan,nan,nan,nan,5.699370861053467,0.001064300537109375,-1.0572593,0.8923665,0.004663156,-0.1101858248887661,-0.019889655260260986,9.554415420740273,-0.1386912,-0.018883573,0.038278498,-0.8508432,0.7700091,-3.0,0.0,-1.1372507,0.8017758,0.0,-0.12332103,-0.033967406,9.890777,0.17090052,-0.1271107,0.0,-0.044831708,0.7281461858190303,-0.1037307158112526,-0.02304551750421524,0.015945279970765114
15.800620555877686,-0.9868747,0.73358345,-3.057125,-0.005005133920755335,nan,nan,nan,nan,5.799408674240112,0.0011022090911865234,-1.0245622,0.7618768,0.011981627,-0.12230251718682017,-0.02136189580567205,9.574182542114881,-0.103792876,-0.01885478,0.0356251,-0.96285635,0.84392965,-3.0,0.0,-1.1014242,0.6741278,0.0,-0.1350226,-0.038376737,9.907403,0.15987816,-0.10654943,0.0,-0.043301623,0.7289093662734127,-0.08477481454610825,-0.02128911018371582,0.0003810413181781769
15.900740385055542,-1.0770764,0.7843753,-3.0579379,-0.002916830315352059,nan,nan,nan,nan,5.899522066116333,0.0010747909545898438,-0.99023867,0.6222777,0.018871889,-0.13152994774185733,-0.022914281234981848,9.595169945656684,-0.07972929,-0.0173142,0.026698565,-1.0711464,0.9045711,-3.0,0.0,-1.061216,0.5357329,0.0,-0.14459455,-0.0426305,9.922468,0.13964449,-0.084447585,0.0,-0.04166055,0.7297187982898902,-0.07151772081851959,-0.021661728620529175,-0.011194301769137383
16.00046944618225,-1.1701944,0.82376605,-3.0580604,-0.0018717884099513638,nan,nan,nan,nan,5.999258041381836,0.0009987354278564453,-0.9511097,0.46336064,0.02558905,-0.13889507365676715,-0.024707430730226188,9.616738800852922,-0.04991693,-0.021968435,0.016185552,-1.1748164,0.9507681,-3.0,0.0,-1.0169848,0.38943595,0.0,-0.15186873,-0.046700034,9.935059,0.11167784,-0.061253574,0.0,-0.03993017,0.7305497336253175,-0.04021122306585312,-0.02909497171640396,-0.016669053584337234
16.100606203079224,-1.2575526,0.8461578,-3.0575342,-0.0019833760133538963,nan,nan,nan,nan,6.099388837814331,0.0010776519775390625,-0.9094058,0.30032933,0.031456836,-0.14280916280587025,-0.02730809850886251,9.63971118166986,-0.021955768,-0.026974965,0.0058428603,-1.2742566,0.98214316,-3.0,0.0,-0.96856284,0.23641756,0.0,-0.15679988,-0.050607607,9.944575,0.07756751,-0.03712862,0.0,-0.038104657,0.7314337153638625,-0.01654813624918461,-0.030986718833446503,-0.016820723190903664
16.20115613937378,-1.3324192,0.85192525,-3.056212,-0.0030292162455394928,nan,nan,nan,nan,6.2000892162323,0.0014295578002929688,-0.86798614,0.14852916,0.035327498,-0.1446736503820213,-0.029852189858459388,9.661303882300285,-0.009025786,-0.02400683,-0.0037749093,-1.3691765,0.9980338,-3.0,0.0,-0.9160005,0.07876337,0.0,-0.15929449,-0.05434865,9.950485,0.03934396,-0.012359702,0.0,-0.036180835,0.732263646921553,-0.01512184552848339,-0.02881459891796112,-0.014604039490222931
16.300473928451538,-1.4069408,0.84280336,-3.054756,-0.004740146093314704,nan,nan,nan,nan,6.299255847930908,0.000965118408203125,-0.8196231,-0.015083642,0.03729916,-0.1446718247899686,-0.03270621473203539,9.675749459266093,-0.0031331964,-0.023712523,-0.009975365,-1.4572972,0.99808496,-3.0,0.0,-0.8606553,-0.077732585,0.0,-0.15930252,-0.057838913,9.952449,0.00020187105,0.012197917,0.0,-0.034195658,0.7328183557746704,0.008842989802360535,-0.025647297501564026,-0.008089255541563034
16.40042495727539,-1.469023,0.82065517,-3.053705,-0.00641397472177134,nan,nan,nan,nan,6.399205207824707,0.0011141300201416016,-0.7716049,-0.16390076,0.037384767,-0.14482860543975906,-0.03504668909960085,9.689259245767623,0.018236969,-0.019639593,-0.013247073,-1.5403901,0.9824738,-3.0,0.0,-0.80149376,-0.23423818,0.0,-0.15685183,-0.061152637,9.950525,-0.03833527,0.036785748,0.0,-0.032094475,0.7333367557664764,0.02036181092262268,-0.021089792251586914,-0.003074873238801956
16.501078605651855,-1.5289128,0.78239226,-3.0524764,-0.007985553003877793,nan,nan,nan,nan,6.499852418899536,0.001070261001586914,-0.7164112,-0.32105565,0.03623791,-0.14297172238407815,-0.03723499131631569,9.698470756559999,0.03234801,-0.013402211,-0.013590842,-1.6179249,0.9511138,-3.0,0.0,-0.73872703,-0.38810053,0.0,-0.15192309,-0.064271614,9.944843,-0.07382779,0.06104251,0.0,-0.029863995,0.7336900143458157,0.05246879905462265,-0.014825224876403809,0.0024260058999061584
16.6006817817688,-1.5778645,0.73512167,-3.0509386,-0.008933243301646576,nan,nan,nan,nan,6.599469900131226,0.001039743423461914,-0.6631299,-0.45982152,0.03368432,-0.13830940052659516,-0.03876371701579662,9.702353471675323,0.061585482,-0.008044528,-0.011739974,-1.6882993,0.90511006,-3.0,0.0,-0.67369264,-0.53429365,0.0,-0.14467952,-0.067131415,9.935956,-0.1035289,0.08421862,0.0,-0.027528724,0.7338388650042781,0.055162884294986725,-0.012868285179138184,0.004424653947353363
16.700563192367554,-1.6205515,0.6771321,-3.0494459,-0.009147922014099738,nan,nan,nan,nan,6.6993408203125,0.0010139942169189453,-0.6075072,-0.59005445,0.030837953,-0.1316875533879696,-0.039887560089380436,9.702846783790173,0.07881116,-0.006934332,-0.00981206,-1.7522142,0.8447714,-3.0,0.0,-0.60584545,-0.67246085,0.0,-0.13515563,-0.069757976,9.924424,-0.1260672,0.10628213,0.0,-0.025046272,0.7338577748523115,0.05467949062585831,-0.012838095426559448,0.003522399812936783
16.80147123336792,-1.6574394,0.60863763,-3.0479784,-0.008595244790912823,nan,nan,nan,nan,6.800249814987183,0.000835418701171875,-0.55030507,-0.7107234,0.027116993,-0.1237392204487847,-0.04087232314560052,9.700242853145483,0.083926395,-0.003584729,-0.006548665,-1.809788,0.7703128,-3.0,0.0,-0.53487134,-0.80131495,0.0,-0.12336917,-0.072152354,9.910917,-0.1400864,0.12703612,0.0,-0.022382867,0.7337579544557924,0.054345764219760895,-0.01497863233089447,0.0005846470594406128
16.900702953338623,-1.6902893,0.5242111,-3.0466425,-0.007245843141529776,nan,nan,nan,nan,6.899655818939209,0.0013592243194580078,-0.4865371,-0.8299115,0.021928718,-0.11549834269319599,-0.04213745043952821,9.691240122895126,0.090642855,-0.0059058387,-0.0037897842,-1.8593938,0.6848622,-3.0,0.0,-0.4628515,-0.9156771,0.0,-0.109800346,-0.07424035,9.896695,-0.14446053,0.14562857,0.0,-0.01960005,0.7334127359570316,0.09045746922492981,-0.009859204292297363,-0.00408853217959404
17.000885486602783,-1.7122716,0.44574264,-3.0460582,-0.005629172647075922,nan,nan,nan,nan,6.99968957901001,0.0009593963623046875,-0.43065438,-0.92055744,0.017168853,-0.10671509249272258,-0.0430166922271058,9.678283479567057,0.10725237,-0.0058566895,-0.0048145275,-1.9019924,0.58810097,-3.0,0.0,-0.38855544,-1.0163524,0.0,-0.09438658,-0.07605428,9.882428,-0.1391694,0.16215123,0.0,-0.016640157,0.7329156192257175,0.08629634976387024,-0.017076820135116577,-0.010260656476020813
17.10088562965393,-1.7332501,0.33831683,-3.0455458,-0.0033676253349928242,nan,nan,nan,nan,7.099666595458984,0.0013124942779541016,-0.35872343,-1.0197803,0.011150849,-0.09299714576385418,-0.04407585697538008,9.662591110523229,0.13094181,-0.0045992765,-0.0055003003,-1.9370621,0.48212066,-3.0,0.0,-0.31276783,-1.1009458,0.0,-0.07745275,-0.07756364,9.869171,-0.124548346,0.1761606,0.0,-0.013529809,0.7323130931921374,0.13007232546806335,-0.006105825304985046,-0.017969820648431778
17.200680017471313,-1.7440292,0.24945843,-3.04527,-0.0015641774142126155,nan,nan,nan,nan,7.199459075927734,0.0010082721710205078,-0.30151883,-1.0832263,0.0064682956,-0.0805404678783789,-0.044854913378238326,9.645249394233705,0.14496863,-0.005087056,-0.007760472,-1.9644471,0.36875594,-3.0,0.0,-0.23588945,-1.1680772,0.0,-0.05928986,-0.078753196,9.857821,-0.10163416,0.18736771,0.0,-0.010289857,0.7316466692497747,0.12420368194580078,-0.017449721693992615,-0.023033782839775085
17.30080509185791,-1.7504668,0.14085945,-3.0455606,0.0003764756722997101,nan,nan,nan,nan,7.299593687057495,0.0010597705841064453,-0.23331676,-1.1403182,0.0014735939,-0.06468821046614781,-0.04607942060625736,9.62747188886571,0.15561102,-0.0067686643,-0.013064649,-1.9841654,0.24918412,-3.0,0.0,-0.15781648,-1.216998,0.0,-0.04009021,-0.07961603,9.849088,-0.07182587,0.19558807,0.0,-0.006927753,0.730962876225098,0.14245088398456573,-0.012721806764602661,-0.02853552997112274
17.400591373443604,-1.7509727,0.038626466,-3.046533,0.0017183014824537074,nan,nan,nan,nan,7.399395704269409,0.0009477138519287109,-0.170229,-1.1753486,-0.0028034349,-0.04889201839780401,-0.047081018226470706,9.609810321237326,0.1648589,-0.008318865,-0.01805555,-1.9960057,0.12608637,-3.0,0.0,-0.079380944,-1.2466083,0.0,-0.020293606,-0.0801368,9.843612,-0.037309673,0.2005866,0.0,-0.003498262,0.7302829171752329,0.1478680819272995,-0.019048646092414856,-0.030680624768137932
17.500604391098022,-1.7461095,-0.06368141,-3.0479207,0.0027075421640751374,nan,nan,nan,nan,7.499388694763184,0.0010743141174316406,-0.10720381,-1.1928512,-0.006225798,-0.03227239320397265,-0.04836294130155516,9.593822625185732,0.17100672,-0.011775475,-0.022499999,-1.9999999,0.0007676839,-3.0,0.0,-0.00048235006,-1.2566367,0.0,-0.00012357572,-0.080312945,9.841723,-0.00022915631,0.20228352,0.0,-2.1285283e-05,0.7296668620931417,0.150934100151062,-0.026154547929763794,-0.031244710087776184
17.60052990913391,-1.7355362,-0.17262591,-3.050287,0.0033619322472866753,nan,nan,nan,nan,7.599312782287598,0.0010137557983398438,-0.039442234,-1.191254,-0.009124999,-0.013808154410940021,-0.05022118557154709,9.580265114288212,0.17434439,-0.017368305,-0.02754033,-1.9961075,-0.12447699,-3.0,0.0,0.078363724,-1.2468636,0.0,0.020034647,-0.08014129,9.843563,0.036841683,0.20062977,0.0,0.0034535516,0.7291440471932537,0.1554216742515564,-0.022412553429603577,-0.030080430209636688
17.7006893157959,-1.719488,-0.27762738,-3.0528755,0.00351733121859326,nan,nan,nan,nan,7.699477434158325,0.0011646747589111328,0.028084446,-1.1687119,-0.011130116,0.004995461607929585,-0.052079374542651324,9.568366802837135,0.1749391,-0.020279782,-0.02944594,-1.9843116,-0.24805352,-3.0,0.0,0.15708888,-1.2173625,0.0,0.039908506,-0.07962245,9.849021,0.07152337,0.19564953,0.0,0.006896142,0.7286849107132706,0.15142600238323212,-0.020222485065460205,-0.027009885758161545
17.801798343658447,-1.6994996,-0.36974528,-3.055349,0.003463512958262367,nan,nan,nan,nan,7.800751209259033,0.0014905929565429688,0.09035154,-1.1298587,-0.011565821,0.022008464347695343,-0.054274311969690237,9.561071116011027,0.16857037,-0.023350934,-0.029423548,-1.9643973,-0.3690024,-3.0,0.0,0.2360531,-1.1679543,0.0,0.059329394,-0.078751005,9.857843,0.1016904,0.1873471,0.0,0.010296833,0.7284032408334283,0.14737507700920105,-0.028470337390899658,-0.02310623601078987
17.900614738464355,-1.674524,-0.4565436,-3.0577042,0.0033335975137784198,nan,nan,nan,nan,7.899399280548096,0.000997304916381836,0.15308258,-1.0752423,-0.010538859,0.0383326349191634,-0.05610914732650918,9.559026486453968,0.16234924,-0.023074925,-0.030443331,-1.937354,-0.48109186,-3.0,0.0,0.31205338,-1.1016563,0.0,0.07728812,-0.077576265,9.869055,0.124370396,0.17627878,0.0,0.013500075,0.7283242830578333,0.1453416496515274,-0.0343063622713089,-0.019425030797719955
18.00113272666931,-1.6420494,-0.542714,-3.0602317,0.0030959473728796733,nan,nan,nan,nan,8.000046253204346,0.001489400863647461,0.22120847,-0.99907035,-0.009111979,0.05562418068010443,-0.05939189513871712,9.559508332856364,0.15537426,-0.026436979,-0.02652048,-1.9020953,-0.5878318,-3.0,0.0,0.38835657,-1.0165983,0.0,0.09434363,-0.076058686,9.882392,0.13914269,0.16219178,0.0,0.01663211,0.7283428913552881,0.1354372799396515,-0.021236062049865723,-0.014198755845427513
18.102091073989868,-1.6104757,-0.60811734,-3.0623825,0.003059313334728135,nan,nan,nan,nan,8.100903272628784,0.0010907649993896484,0.2788999,-0.921384,-0.006650725,0.06936039329106267,-0.061156888570449874,9.565483138881989,0.14514251,-0.018333634,-0.024845859,-1.8591348,-0.6853742,-3.0,0.0,0.46326205,-0.9150719,0.0,0.10988178,-0.07422937,9.896776,0.14446284,0.14552973,0.0,0.019616155,0.7285735918429592,0.14447841048240662,-0.043296292424201965,-0.012385590001940727
18.200518131256104,-1.5656974,-0.679739,-3.0644414,0.0031308060650569527,nan,nan,nan,nan,8.199300050735474,0.0010325908660888672,0.35105634,-0.8063223,-0.0026769827,0.08595020034477432,-0.06375291137487471,9.575133601189025,0.13269632,-0.0183326,-0.020942198,-1.8100286,-0.7699521,-3.0,0.0,0.5345498,-0.80186224,0.0,0.123312004,-0.07216242,9.910854,0.14012773,0.12712468,0.0,0.022370625,0.7289460654382537,0.10923357307910919,-0.01762979105114937,-0.009857138618826866
18.300393104553223,-1.522736,-0.7286821,-3.0657945,0.003562930351023952,nan,nan,nan,nan,8.299191951751709,0.0010144710540771484,0.41296735,-0.6937833,0.0013739037,0.09837920630890154,-0.06547848893311414,9.588381124720344,0.11641591,-0.023662237,-0.01833418,-1.7531017,-0.84378403,-3.0,0.0,0.604831,-0.67441565,0.0,0.13499959,-0.069794685,9.924239,0.12633665,0.1065956,0.0,0.025008712,0.7294570672797588,0.09849757701158524,-0.025208333507180214,-0.01128661073744297
18.400447607040405,-1.4710106,-0.7680926,-3.06659,0.004390218287640316,nan,nan,nan,nan,8.399234056472778,0.0010194778442382812,0.47931695,-0.5605815,0.006051314,0.10990449025322663,-0.0677646667884162,9.600181013331182,0.10010375,-0.03416442,-0.014510971,-1.6891716,-0.90441674,-3.0,0.0,0.67282903,-0.53614444,0.0,0.1445702,-0.06716706,9.935822,0.103871115,0.08451305,0.0,0.027497454,0.7299119317695479,0.0692022293806076,-0.013161048293113708,-0.013210691511631012
18.50088930130005,-1.4185712,-0.79111433,-3.0667331,0.005369013722788099,nan,nan,nan,nan,8.499725580215454,0.0011000633239746094,0.54079634,-0.4282474,0.010430995,0.11856894516737788,-0.06968804884512059,9.616103938803443,0.06644242,-0.015118995,-0.015722234,-1.6182365,-0.95094997,-3.0,0.0,0.73845756,-0.38873416,0.0,0.15189734,-0.06428422,9.944812,0.07396639,0.061142653,0.0,0.029854385,0.7305252890245558,0.054951541125774384,-0.014932144433259964,-0.017424549907445908
18.601091623306274,-1.3562986,-0.80034685,-3.0665903,0.0068000078052050175,nan,nan,nan,nan,8.599867105484009,0.001016378402709961,0.6067939,-0.27806097,0.01496991,0.1246849824846635,-0.07072020120020661,9.632781703755626,0.04226403,-0.011385377,-0.0145021025,-1.541133,-0.9822559,-3.0,0.0,0.80092967,-0.23567678,0.0,0.15681759,-0.06118239,9.950489,0.038681034,0.037012074,0.0,0.03207447,0.7311671787371682,0.023488767445087433,-0.0032134689390659332,-0.02314096689224243
18.70116353034973,-1.2993612,-0.79618555,-3.0663812,0.007915609238359107,nan,nan,nan,nan,8.700093507766724,0.001413106918334961,0.6616364,-0.14813529,0.017799463,0.12799338443908173,-0.07153904380244835,9.64793325065113,0.02675254,-0.015751528,-0.016156442,-1.4578565,-0.9980341,-3.0,0.0,0.8602813,-0.07875697,0.0,0.15929452,-0.05786113,9.952449,5.4305117e-05,0.012358699,0.0,0.034182336,0.7317498461944525,0.03627524524927139,-0.021462395787239075,-0.02914750576019287
18.80088186264038,-1.2272413,-0.77648574,-3.065547,0.008967566610915315,nan,nan,nan,nan,8.799667835235596,0.0010528564453125,0.725866,0.0071147,0.020699073,0.13039640721847767,-0.07257467164098164,9.661032814070948,0.00053032127,-0.0029212162,-0.019593807,-1.3693988,-0.9980529,-3.0,0.0,0.91586924,0.07838069,0.0,0.15929747,-0.054357428,9.950495,-0.03924895,-0.012299639,0.0,0.036176085,0.7322532339635174,-0.0012787394225597382,-0.0008160844445228577,-0.0323190912604332
18.90115189552307,-1.161985,-0.74773616,-3.06422,0.00975033453931716,nan,nan,nan,nan,8.900120258331299,0.0008032321929931641,0.77856886,0.1376669,0.022208365,0.12974818776823155,-0.0721657515169063,9.67106676755882,-0.014224352,-0.0073696095,-0.02249398,-1.274732,-0.98225904,-3.0,0.0,0.96831584,0.23565604,0.0,0.15681809,-0.05062631,9.944613,-0.0773888,-0.037008815,0.0,0.0380955,0.7326385862217858,0.013275775127112865,-0.02065970003604889,-0.03748152405023575
19.00043487548828,-1.0735718,-0.69554883,-3.0624194,0.010111974018365388,nan,nan,nan,nan,8.999222755432129,0.0010728836059570312,0.8438033,0.30033162,0.022540977,0.12821117631457213,-0.07231500710086203,9.676566402152542,-0.0386263,0.0064908494,-0.028048532,-1.1763606,-0.9513579,-3.0,0.0,1.0162799,0.3871547,0.0,0.15196149,-0.046760663,9.935228,-0.111200504,-0.060893033,0.0,0.03990313,0.7328497139327947,-0.05132134258747101,0.019680842757225037,-0.036475300788879395
19.102412700653076,-1.0003877,-0.6423073,-3.0611691,0.010379966095516294,nan,nan,nan,nan,9.101226806640625,0.0008819103240966797,0.89273936,0.42430508,0.021517133,0.12378476132259773,-0.07062903207587867,9.676481530223398,-0.07075365,0.015972082,-0.02821069,-1.0703514,-0.90416944,-3.0,0.0,1.0615326,0.5368027,0.0,0.14453124,-0.04259929,9.922363,-0.13982703,-0.08461777,0.0,0.041673206,0.7328464562056264,-0.03562235087156296,-0.0053204745054244995,-0.04027920961380005
19.200608491897583,-0.9100241,-0.56708556,-3.060049,0.010344682456168389,nan,nan,nan,nan,9.199394464492798,0.001069784164428711,0.9464757,0.56204647,0.019161263,0.11575419822187051,-0.06814020483902206,9.672483237631976,-0.094660684,0.021673238,-0.033158965,-0.9641742,-0.8447355,-3.0,0.0,1.1009691,0.6725321,0.0,0.13514996,-0.03842854,9.907595,-0.15968849,-0.10629356,0.0,0.043282628,0.732692969406349,-0.06743643432855606,0.006596982479095459,-0.04008379578590393
19.301058769226074,-0.82243717,-0.4868837,-3.0591955,0.009864059290824144,nan,nan,nan,nan,9.300002336502075,0.0014963150024414062,0.99253845,0.6785114,0.016375696,0.1067517119495357,-0.06601571529656369,9.663754023187218,-0.10035886,0.00994276,-0.036623448,-0.851556,-0.77051145,-3.0,0.0,1.13704,0.8010134,0.0,0.12340067,-0.033995505,9.890884,-0.17086206,-0.12698732,0.0,0.0448225,0.7323577613000535,-0.0717657208442688,0.002063259482383728,-0.03756583482027054
19.400736093521118,-0.7309832,-0.397451,-3.0585227,0.009044520115392349,nan,nan,nan,nan,9.399580240249634,0.0010361671447753906,1.0361422,0.7838701,0.013254876,0.09729362460732673,-0.06441447716376691,9.652427725814636,-0.10787925,0.010626065,-0.038018215,-0.7367394,-0.6849314,-3.0,0.0,1.1682696,0.91559523,0.0,0.10981136,-0.029461522,9.873731,-0.17196922,-0.14561522,0.0,0.046218265,0.7319225976017437,-0.08532414585351944,0.007718637585639954,-0.032042548060417175
19.50052309036255,-0.6277242,-0.2925097,-3.0580237,0.00793295176394155,nan,nan,nan,nan,9.499309539794922,0.0010609626770019531,1.0807052,0.88359845,0.009306722,0.08493982044811088,-0.061333375183650674,9.63570137920266,-0.13218695,0.026745642,-0.037460163,-0.61885923,-0.588487,-3.0,0.0,1.1949643,1.0159994,0.0,0.09444817,-0.024788696,9.856947,-0.16295412,-0.16209303,0.0,0.047464773,0.7312794933173079,-0.112576425075531,0.026125237345695496,-0.02529805898666382
19.600749254226685,-0.5290511,-0.18964316,-3.0579352,0.0068463943571060865,nan,nan,nan,nan,9.599539518356323,0.0011065006256103516,1.1184056,0.96071386,0.005660232,0.07223096534790287,-0.058190929988137796,9.616315360688025,-0.14285687,0.033950105,-0.03501881,-0.49793938,-0.4822599,-3.0,0.0,1.2170672,1.1008495,0.0,0.077475026,-0.019975824,9.841479,-0.14411776,-0.17614459,0.0,0.048539,0.730533429659923,-0.12062695622444153,0.030847221612930298,-0.018196623772382736
19.70074439048767,-0.41806403,-0.073903,-3.0583565,0.005651848355294295,nan,nan,nan,nan,9.699521541595459,0.0011830329895019531,1.1555861,1.0264442,0.0024563936,0.05691435918772682,-0.053761749493669964,9.597232946776208,-0.1582956,0.04518225,-0.0319633,-0.3753526,-0.36868292,-3.0,0.0,1.2343079,1.1681136,0.0,0.059278153,-0.015077654,9.828379,-0.11661552,-0.18737379,0.0,0.04940614,0.7297983153125276,-0.13881124556064606,0.04986412823200226,-0.010691128671169281
19.800698280334473,-0.31244156,0.035144072,-3.059118,0.004667682849416353,nan,nan,nan,nan,9.799485921859741,0.0010819435119628906,1.1851627,1.0698949,-0.00024108507,0.04165482679669262,-0.04849874865015358,9.576302210860307,-0.16338892,0.05483365,-0.026452744,-0.25130674,-0.24931495,-3.0,0.0,1.2466773,1.2169557,0.0,0.040111236,-0.010104869,9.818398,-0.08203195,-0.19558096,0.0,0.050045304,0.7289911568807468,-0.14041386544704437,0.049847617745399475,-0.0044784992933273315
19.900405168533325,-0.19545221,0.15360714,-3.060128,0.0038145218628828845,nan,nan,nan,nan,9.89918828010559,0.0009009838104248047,1.2111927,1.0970038,-0.0019357135,0.024656710351238047,-0.04268414978329593,9.56217359127884,-0.16063717,0.0466865,-0.01891154,-0.12659915,-0.12634526,-3.0,0.0,1.254117,1.2465668,0.0,0.020335265,-0.0050936365,9.812157,-0.042548556,-0.20057958,0.0,0.05043695,0.7284458117878109,-0.149052232503891,0.06481225788593292,0.001292189583182335
20.000515460968018,-0.08558487,0.26170546,-3.0610054,0.003267736122507199,nan,nan,nan,nan,9.999300479888916,0.0010530948638916016,1.2303187,1.1044741,-0.002896822,0.009203668610578824,-0.037427754949194814,9.544952027224355,-0.1639339,0.064220056,-0.013708862,-0.000878938,-0.0008789379,-3.0,0.0,1.256637,1.2566366,0.0,0.00014148452,-3.5371133e-05,9.81,-0.0002983097,-0.2022835,0.0,0.050570887,0.727780538205689,-0.1511314958333969,0.06881415843963623,0.006110958755016327
20.101245164871216,0.034172945,0.37624195,-3.0613313,0.0029966324983274274,nan,nan,nan,nan,10.100185871124268,0.001550912857055664,1.2435782,1.0942411,-0.0017695528,-0.008303772419463467,-0.029923305744517625,9.533116900049501,-0.1699767,0.07647491,-0.009180115,0.12581368,0.12556449,-3.0,0.0,1.2541482,1.2466913,0.0,-0.020209633,0.005062048,9.81213,0.04228971,-0.20060065,0.0,0.050438613,0.7273229961014337,-0.15475307404994965,0.07045945525169373,0.00721118226647377
20.20119571685791,0.14517656,0.47851014,-3.0612395,0.0030594028848829127,nan,nan,nan,nan,10.200024127960205,0.0009987354278564453,1.2487295,1.0677291,0.00024654865,-0.024909301164013423,-0.022744262283335592,9.525622205142279,-0.17213866,0.06997755,-0.0028573344,0.25069624,0.24871896,-3.0,0.0,1.2467258,1.2171482,0.0,-0.04001545,0.010080361,9.818358,0.08184836,-0.19561341,0.0,0.050047837,0.7270331067876141,-0.1532556563615799,0.05889783799648285,0.0076542869210243225
20.300472259521484,0.26526573,0.58334225,-3.0604405,0.003333913699720456,nan,nan,nan,nan,10.29925799369812,0.0009708404541015625,1.2468932,1.0201751,0.003779457,-0.042712674920826296,-0.015454593560399577,9.523513985690075,-0.1648781,0.06608912,0.0018275139,0.37384692,0.36725765,-3.0,0.0,1.2344882,1.1688223,0.0,-0.059049524,0.015017384,9.828237,0.11623243,-0.18749258,0.0,0.049415354,0.7269515418524145,-0.1459718942642212,0.05796043574810028,0.007136218249797821
20.400640726089478,0.3754159,0.67242014,-3.058791,0.003563841485375724,nan,nan,nan,nan,10.399428367614746,0.0010628700256347656,1.2391855,0.9595349,0.00846149,-0.05842076233690332,-0.00942150691051502,9.527203648494902,-0.15722506,0.059082225,0.003836875,0.49668473,0.48112476,-3.0,0.0,1.2172695,1.1016335,0.0,-0.07729339,0.019925788,9.841331,0.14387628,-0.17627499,0.0,0.048549023,0.727094285349449,-0.138954758644104,0.04985232651233673,0.007911894470453262
20.50042414665222,0.4939669,0.7591613,-3.0565653,0.0037776208894929955,nan,nan,nan,nan,10.49920916557312,0.0014028549194335938,1.2255176,0.8768004,0.014241771,-0.07453281086523653,-0.003678469136873863,9.534436419936243,-0.14912798,0.04794591,0.006119995,0.6170894,0.58698153,-3.0,0.0,1.1953256,1.0173738,0.0,-0.09420799,0.024718396,9.856706,0.16274534,-0.16231968,0.0,0.047482014,0.7273740223661165,-0.11993758380413055,0.055734992027282715,0.007756040431559086
20.600959062576294,0.60198283,0.8291473,-3.0544474,0.003867954958822112,nan,nan,nan,nan,10.5998854637146,0.0009613037109375,1.2082942,0.7860039,0.019715548,-0.08821511971061997,0.0013203118969256078,9.548968678223314,-0.13011223,0.05400472,0.007093673,0.7361158,0.6844426,-3.0,0.0,1.1684248,0.9161723,0.0,-0.109733604,0.029436853,9.873639,0.17194782,-0.14570948,0.0,0.04622536,0.7279357561277918,-0.10915268212556839,0.054705120623111725,0.008626967668533325
20.70070767402649,0.716258,0.89246863,-3.051819,0.003792895945319029,nan,nan,nan,nan,10.699552059173584,0.001340627670288086,1.1838849,0.67405206,0.0257487,-0.10085668574737916,0.00718514735421194,9.567390577750622,-0.107801326,0.057699785,0.007920904,0.8510501,0.7701549,-3.0,0.0,1.1371895,0.8015546,0.0,-0.123344146,0.033975564,9.890808,0.1708894,-0.12707491,0.0,0.044829037,0.7286472271069648,-0.08721303194761276,0.05687820166349411,0.008480528369545937
20.800553560256958,0.8190687,0.93891615,-3.0486858,0.0035714118366658026,nan,nan,nan,nan,10.79933786392212,0.0010600090026855469,1.156131,0.56049633,0.031084744,-0.11075470219498032,0.012736035259264478,9.588753446745097,-0.09142831,0.054490786,0.008222655,0.9627775,0.8438814,-3.0,0.0,1.1014515,0.6742231,0.0,-0.13501498,0.038373638,9.907392,0.15988946,-0.10656472,0.0,0.043302767,0.7294714238993127,-0.08075509965419769,0.04997630417346954,0.009434660896658897
20.901402950286865,0.92678636,0.9761003,-3.0443735,0.003342006716663265,nan,nan,nan,nan,10.90018630027771,0.0008718967437744141,1.1204442,0.42907903,0.036194496,-0.11995344852446756,0.018221928752738314,9.61001996959966,-0.087351255,0.043173872,0.009974285,1.0718515,0.90492684,-3.0,0.0,1.0609349,0.5347834,0.0,-0.14465062,0.04265818,9.922561,0.13948214,-0.08429653,0.0,0.041649334,0.7302909921657692,-0.060873568058013916,0.04806070029735565,0.009748270735144615
21.000587701797485,1.022861,0.9972745,-3.0401075,0.003137340024906579,nan,nan,nan,nan,10.999367475509644,0.0010786056518554688,1.0833825,0.30056426,0.03989746,-0.127702938287937,0.022733266607622094,9.633952949004588,-0.06467304,0.045761876,0.009101688,1.1749276,0.95081073,-3.0,0.0,1.016934,0.38927165,0.0,-0.15187544,0.0467044,9.935071,0.11164351,-0.061227605,0.0,0.039928224,0.731212236446222,-0.04909644275903702,0.046259187161922455,0.010682033374905586
21.102957725524902,1.1233118,1.0052798,-3.0354867,0.0028398957574855693,nan,nan,nan,nan,11.10199761390686,0.0009210109710693359,1.0392137,0.15543005,0.043079518,-0.1328525036996005,0.02783375907655139,9.658221604483545,-0.03630247,0.045700625,0.010200389,1.276781,0.98275447,-3.0,0.0,0.9672495,0.23237124,0.0,-0.15689589,0.05070692,9.944777,0.0766171,-0.03649205,0.0,0.03805595,0.7321452340599881,-0.03182687982916832,0.04566360265016556,0.01028536818921566
21.200366497039795,1.2123175,0.99790907,-3.0310454,0.002558688998183248,nan,nan,nan,nan,11.199151277542114,0.0008373260498046875,0.994507,0.018003445,0.044623397,-0.136820002469284,0.032294032639051284,9.679245450305165,-0.04408001,0.042540845,0.01162324,1.3683168,0.9979592,-3.0,0.0,0.9165075,0.08024203,0.0,-0.15928276,0.054314695,9.950448,0.039710972,-0.012591784,0.0,0.03619918,0.7329525392710192,-0.01328190416097641,0.04568823426961899,0.009692981839179993
21.30050539970398,1.29769,0.97587687,-3.026611,0.0023002786254674445,nan,nan,nan,nan,11.29928970336914,0.0009906291961669922,0.9466744,-0.123062,0.044961948,-0.13989155265314349,0.036818245832463514,9.697479985462845,-0.01198207,0.045378525,0.011674078,1.457326,0.9980824,-3.0,0.0,0.86063606,-0.07778543,0.0,-0.1593021,0.05784006,9.952449,0.00018865403,0.012206213,0.0,0.03419497,0.733652026635743,0.008420068770647049,0.04682882875204086,0.00846087746322155
21.401391744613647,1.3726033,0.94339144,-3.0232983,0.002047855975383442,nan,nan,nan,nan,11.400351762771606,0.0014109611511230469,0.8998057,-0.2524626,0.04378643,-0.13975920489123012,0.04104484656184226,9.71040588106436,0.0076372484,0.04702512,0.011843613,1.5413079,0.9822044,-3.0,0.0,0.8007968,-0.23601548,0.0,-0.15680951,0.0611894,9.95048,-0.038762417,0.03706536,0.0,0.032069754,0.734147473261834,-0.0009702136740088463,0.04921072721481323,0.008536161854863167
21.500476598739624,1.4626167,0.885417,-3.0199022,0.001657238454768284,nan,nan,nan,nan,11.49925684928894,0.001024484634399414,0.83596814,-0.41451573,0.04048105,-0.1375293976502462,0.0466294838372614,9.721147262188023,0.035349604,0.047454488,0.008764083,1.6174852,0.95134455,-3.0,0.0,0.7391072,-0.38720644,0.0,-0.1519594,0.06425384,9.944887,-0.07363209,0.060901206,0.0,0.029877549,0.7345589371329658,0.06698453426361084,0.049047499895095825,0.002738155424594879
21.600754976272583,1.5289339,0.82729954,-3.0178483,0.0013019497360268195,nan,nan,nan,nan,11.599534511566162,0.0010557174682617188,0.7821577,-0.5374259,0.037009012,-0.13244279308194162,0.05106954350285653,9.726915865907793,0.07413808,0.04930404,0.008958787,1.6883427,0.9050757,-3.0,0.0,0.67364985,-0.5343855,0.0,-0.14467409,0.06713318,9.935949,-0.1035459,0.08423323,0.0,0.02752717,0.7347798178760643,0.05533648654818535,0.05146404355764389,0.0015706773847341537
21.700671434402466,1.6017026,0.7450716,-3.0162804,0.0007829128113549036,nan,nan,nan,nan,11.699489116668701,0.0012094974517822266,0.7148659,-0.6739978,0.031232797,-0.1233887810328908,0.05629446152616269,9.727140642864978,0.10348756,0.047902547,0.0069888146,1.7523047,0.844671,-3.0,0.0,0.6057422,-0.67266005,0.0,-0.13513976,0.06976172,9.924406,-0.12609471,0.106314056,0.0,0.025042448,0.7347884232951095,0.08208981156349182,0.04882550239562988,-0.0017991727218031883
21.800570011138916,1.6624336,0.65754515,-3.0157497,0.00019791432418046068,nan,nan,nan,nan,11.799355506896973,0.0011134147644042969,0.64890164,-0.7891914,0.024827752,-0.1132849684516048,0.060929822869440375,9.722644345289444,0.112094425,0.047878478,0.0056033544,1.8093094,0.7710289,-3.0,0.0,0.5355101,-0.8002267,0.0,-0.1234827,0.07213231,9.911043,-0.14000373,0.12686002,0.0,0.022407176,0.7346162669758647,0.08626469224691391,0.04764585196971893,-0.0032656528055667877
21.900518655776978,1.7166543,0.5607897,-3.0162642,-0.0005460597303183073,nan,nan,nan,nan,11.899298191070557,0.0010466575622558594,0.57932585,-0.89231896,0.017559394,-0.10254892621975553,0.06542098146785214,9.711280848956084,0.12652361,0.041657463,0.0025845612,1.8592281,0.6851896,-3.0,0.0,0.46311405,-0.9152901,0.0,-0.10985242,0.07423332,9.896747,-0.14446202,0.14556538,0.0,0.019610351,0.7341809986616624,0.09500245749950409,0.044435519725084305,-0.00395326130092144
22.000449419021606,1.767537,0.44679275,-3.0175476,-0.0014820404603284876,nan,nan,nan,nan,11.999225378036499,0.0010673999786376953,0.50024205,-0.98925567,0.009681195,-0.08908601465073998,0.06963006172016506,9.696873587644076,0.13790345,0.03877324,0.0005753961,1.9018123,0.5885716,-3.0,0.0,0.3889032,-1.0159221,0.0,-0.094461665,0.07604655,9.882493,-0.13921596,0.16208027,0.0,0.01665422,0.73362877543969,0.12071274220943451,0.034920066595077515,-0.004492312669754028
22.100478410720825,1.8064407,0.3347776,-3.0191553,-0.00241517768132727,nan,nan,nan,nan,12.099263429641724,0.0009336471557617188,0.42409754,-1.063861,0.0028233628,-0.07543226255627461,0.07292059531213724,9.67802557525632,0.15263939,0.029948244,-0.0014307102,1.9369359,0.48256454,-3.0,0.0,0.31307617,-1.1006386,0.0,-0.07752376,0.077558175,9.869222,-0.12462491,0.17610952,0.0,0.01354264,0.7329057206513697,0.12965084612369537,0.030367964878678322,-0.003357342444360256
22.200987577438354,1.8401922,0.20859852,-3.0210009,-0.0034953071850001016,nan,nan,nan,nan,12.199893712997437,0.0015342235565185547,0.33952877,-1.1264789,-0.0034676113,-0.05878955960964061,0.0754749391142222,9.657689058607788,0.17095743,0.018418785,-0.0032685003,1.9645495,0.3682482,-3.0,0.0,0.2355524,-1.1683301,0.0,-0.05920841,0.078757666,9.857778,-0.10151822,0.18741007,0.0,0.010275485,0.7321247731590036,0.1464003622531891,0.020860768854618073,-0.0016492726281285286
22.3006432056427,1.8635719,0.08949997,-3.0226269,-0.004551135491064399,nan,nan,nan,nan,12.299427032470703,0.001094818115234375,0.26062956,-1.16579,-0.008119385,-0.041760569044940674,0.07684488814336521,9.637855731970044,0.17948177,0.01365055,-0.0038535008,1.9841391,0.24938667,-3.0,0.0,0.15794687,-1.2169324,0.0,-0.04012276,0.07961488,9.8491,-0.07188003,0.19557704,0.0,0.0069334162,0.7313623564225349,0.14401133358478546,0.022686248645186424,0.002014327794313431
22.40095615386963,1.8801446,-0.040200353,-3.0243223,-0.005714787824190314,nan,nan,nan,nan,12.399727821350098,0.0010306835174560547,0.17477383,-1.1877135,-0.0117836585,-0.023412361492385715,0.07833718126569389,9.61935419035551,0.17237091,0.017018791,-0.0022610324,1.996032,0.12567228,-3.0,0.0,0.0791192,-1.2466742,0.0,-0.020226976,0.08013796,9.843599,-0.03718929,0.20059773,0.0,0.0034867576,0.7306504275492979,0.14969733357429504,0.012707335874438286,0.005486628040671349
22.5007541179657,1.887658,-0.15875982,-3.0257912,-0.006715654858614704,nan,nan,nan,nan,12.499537706375122,0.0009362697601318359,0.09558216,-1.18949,-0.013855129,-0.006748084128960379,0.07932549719710336,9.602838365262718,0.17519462,0.006689683,-0.0004603466,1.9999999,0.0005810658,-3.0,0.0,0.0003650944,-1.2566369,0.0,-9.35354e-05,0.080312945,9.841723,-0.00017345017,0.20228355,0.0,1.6110991e-05,0.73001432933656,0.14905139803886414,0.012598292902112007,0.009275896474719048
22.601099252700806,1.8872075,-0.2842843,-3.0273345,-0.0075508390239082705,nan,nan,nan,nan,12.59989070892334,0.00122833251953125,0.010402835,-1.172063,-0.014483592,0.011531450666370468,0.07968221964290079,9.591123722171755,0.17350449,0.005346125,0.0014941051,1.996062,-0.12519771,-3.0,0.0,-0.07881924,-1.2467496,0.0,0.020150615,0.08013928,9.843585,0.037051298,0.20061049,0.0,-0.0034735736,0.7295628144356759,0.1496218740940094,0.005424682516604662,0.012521998956799507
