time,x,y,z,yaw,platform,trajectory,traj_double,traj_short,traj_spin,lookahead_time,traj_time,ref_time,comp_time,x_ref,y_ref,yaw_ref,z_ref,throttle_input,p_input,q_input,r_input,cbf_term_pitch_cbf,cbf_term_roll_cbf,cbf_term_thrust_cbf,cbf_term_yaw_cbf
10.075678825378418,0.024743443,-0.019143758,-2.8669446,-0.00026688212089975556,SIM,F8_CONTRACTION,NormSpd,Not Short,NoSpin,0.0,0.06904077529907227,0.06904077529907227,0.018477916717529297,0.08673199266195297,0.08665039390325546,0.0,-3.0,0.6844536466419616,0.7999999999999987,-0.7999999999999943,-0.32271598792955025,nan,nan,nan,nan
10.180460214614868,0.026571061,-0.018182958,-2.8791773,0.0002510187692083448,nan,nan,nan,nan,nan,nan,0.17414569854736328,0.17414569854736328,0.016953468322753906,0.21840152144432068,0.21709541976451874,0.0,-3.0,0.6642146002003962,0.8,-0.8,-0.5587119346940806,nan,nan,nan,nan
10.287954330444336,0.027966432,-0.016094858,-2.8886528,0.00019057535220752932,nan,nan,nan,nan,nan,nan,0.2813119888305664,0.2813119888305664,0.01876211166381836,0.3516692519187927,0.34619012475013733,0.0,-3.0,0.6513115600045334,0.8,-0.8,-0.7870707723807701,nan,nan,nan,nan
10.398700475692749,0.028753921,-0.014531345,-2.8912508,-0.0024068802381684348,nan,nan,nan,nan,nan,nan,0.39238834381103516,0.39238834381103516,0.01580977439880371,0.4881095290184021,0.47334980964660645,0.0,-3.0,0.6469896868993168,0.7999999999999995,-0.8,-0.7999999999999999,nan,nan,nan,nan
10.508315563201904,0.036967803,-0.0060387664,-2.877051,-0.035470393143901276,nan,nan,nan,nan,nan,nan,0.5016727447509766,0.5016727447509766,0.01681661605834961,0.620032787322998,0.5894845128059387,0.0,-3.0,0.7317445152034535,0.7999999999999999,-0.8,-0.7999999999987744,nan,nan,nan,nan
10.578932762145996,0.043611657,4.597961e-05,-2.8688426,-0.054131642081100405,nan,nan,nan,nan,nan,nan,0.5725371837615967,0.5725371837615967,0.016182899475097656,0.7040537595748901,0.6589872241020203,0.0,-3.0,0.7903119869688398,0.5478462287457478,-0.8,-0.5331346776000515,nan,nan,nan,nan
10.677609205245972,0.092422314,0.04240455,-2.8488092,-0.13692622555890213,nan,nan,nan,nan,nan,nan,0.6712784767150879,0.6712784767150879,0.016053199768066406,0.8187642097473145,0.7470101714134216,0.0,-3.0,0.844011380628254,-0.11208856147546185,-0.543506709711123,-0.21200720048914273,nan,nan,nan,nan
10.787557601928711,0.14899074,0.08672956,-2.851168,-0.18877169737301558,nan,nan,nan,nan,nan,nan,0.78281569480896,0.78281569480896,0.020630598068237305,0.9445282220840454,0.8325610756874084,0.0,-3.0,0.8608607335140341,-0.5377385879986718,-0.10718992881004716,0.1725736979834337,nan,nan,nan,nan
10.880168437957764,0.25729534,0.1623568,-2.871241,-0.24941758173264156,nan,nan,nan,nan,nan,nan,0.8745362758636475,0.8745362758636475,0.02449488639831543,1.0445002317428589,0.8907418251037598,0.0,-3.0,0.8083627853837118,-0.7999999999924282,0.3457407434223766,0.660381129635098,nan,nan,nan,nan
10.980394840240479,0.42535213,0.2623049,-2.9092104,-0.3147493074113931,nan,nan,nan,nan,nan,nan,0.9747393131256104,0.9747393131256104,0.024277925491333008,1.1497424840927124,0.9407697319984436,0.0,-3.0,0.7069243930940038,-0.8,0.7887013232287396,0.7999999999999999,nan,nan,nan,nan
11.078650712966919,0.6398047,0.3646052,-2.952635,-0.3728717556469223,nan,nan,nan,nan,nan,nan,1.0730392932891846,1.0730392932891846,0.023265838623046875,1.2485615015029907,0.975376307964325,0.0,-3.0,0.5882615831943082,-0.8,0.8,0.7999999999999999,nan,nan,nan,nan
11.199100255966187,1.0088282,0.49729276,-2.983327,-0.4187072570554765,nan,nan,nan,nan,nan,nan,1.1922812461853027,1.1922812461853027,0.01917243003845215,1.3620073795318604,0.997370719909668,0.0,-3.0,0.5763136845395003,-0.8,0.8,0.6259056997808096,nan,nan,nan,nan
11.307572603225708,1.198567,0.55302423,-2.9710658,-0.41780462550619013,nan,nan,nan,nan,nan,nan,1.3009281158447266,1.3009281158447266,0.02058577537536621,1.4587353467941284,0.9979528188705444,0.0,-3.0,0.6379389178253778,-0.7999999999999823,0.7999999999999705,0.7999999999992273,nan,nan,nan,nan
11.382154941558838,1.3845392,0.6023235,-2.942695,-0.4032296484463338,nan,nan,nan,nan,nan,nan,1.3753702640533447,1.3753702640533447,0.018528223037719727,1.5211141109466553,0.9876154661178589,0.0,-3.0,0.7091421073009538,-0.8,0.8,0.7999999999999999,nan,nan,nan,nan
11.485639572143555,1.6913269,0.6733976,-2.87558,-0.35384536577258796,nan,nan,nan,nan,nan,nan,1.478956699371338,1.478956699371338,0.018898963928222656,1.6023497581481934,0.9588946104049683,0.0,-3.0,0.8053562040267229,-0.8,0.7999999999999706,0.7009268322523444,nan,nan,nan,nan
11.589908599853516,1.8400992,0.7013183,-2.8414702,-0.31866356736336104,nan,nan,nan,nan,nan,nan,1.5832626819610596,1.5832626819610596,0.015128850936889648,1.677292823791504,0.9135815501213074,0.0,-3.0,0.8535869070804298,-0.7999999999989719,0.5917235701655537,0.5858945717295059,nan,nan,nan,nan
11.685890436172485,2.0402453,0.71757346,-2.806489,-0.24728873030738513,nan,nan,nan,nan,nan,nan,1.6791319847106934,1.6791319847106934,0.019995450973510742,1.7398297786712646,0.8580873012542725,0.0,-3.0,0.8656487272191691,-0.20513211862249936,-0.0002822784663058067,0.44228223391392807,nan,nan,nan,nan
11.789030075073242,2.1029973,0.70438904,-2.803287,-0.20587462445838944,nan,nan,nan,nan,nan,nan,1.7824962139129639,1.7824962139129639,0.015480756759643555,1.8001794815063477,0.7843464612960815,0.0,-3.0,0.857554124449771,0.14524237464012948,-0.3700579740511338,0.2570734127156596,nan,nan,nan,nan
11.887876033782959,2.1497297,0.6270137,-2.8217092,-0.11446056631533692,nan,nan,nan,nan,nan,nan,1.8812668323516846,1.8812668323516846,0.016553401947021484,1.85075843334198,0.701516330242157,0.0,-3.0,0.7833536149182099,0.6619330337774098,-0.7999999999999998,0.20448353570412503,nan,nan,nan,nan
11.974371910095215,2.1300774,0.53726745,-2.8463132,-0.05541978029590343,nan,nan,nan,nan,nan,nan,1.968116044998169,1.968116044998169,0.01799917221069336,1.8893508911132812,0.619719386100769,0.0,-3.0,0.7430308555260785,0.7393812895295289,-0.7999999999999974,0.07398970430328215,nan,nan,nan,nan
12.077951431274414,2.0971541,0.45834616,-2.8664432,-0.020277584352619754,nan,nan,nan,nan,nan,nan,2.071367025375366,2.071367025375366,0.0163116455078125,1.9279052019119263,0.5129656791687012,0.0,-3.0,0.706499136438761,0.6897238033380549,-0.8,-0.117759677815914,nan,nan,nan,nan
12.178008317947388,2.0032463,0.28002122,-2.9010413,0.02827781303170603,nan,nan,nan,nan,nan,nan,2.171502113342285,2.171502113342285,0.017316102981567383,1.9575495719909668,0.4011780917644501,0.0,-3.0,0.6854912702174156,0.5694599847800944,-0.7999999999999999,-0.0866138994189045,nan,nan,nan,nan
12.28033995628357,1.9431645,0.17446852,-2.9135125,0.04474601222488105,nan,nan,nan,nan,nan,nan,2.274015188217163,2.274015188217163,0.015338659286499023,1.9798725843429565,0.28017929196357727,0.0,-3.0,0.7065878128919331,0.4159917639945923,-0.7999999999999999,-0.06998664846576415,nan,nan,nan,nan
12.378423929214478,1.8384663,-0.010748992,-2.9251893,0.0590063016281639,nan,nan,nan,nan,nan,nan,2.3720505237579346,2.3720505237579346,0.015503406524658203,1.9935404062271118,0.16009417176246643,0.0,-3.0,0.7287976567084159,0.22842716342009556,-0.5361664637872189,-0.031657430000013594,nan,nan,nan,nan
12.489330530166626,1.7870033,-0.1094151,-2.9292803,0.06149227128309,nan,nan,nan,nan,nan,nan,2.482708692550659,2.482708692550659,0.014490127563476562,1.9998819828033447,0.0217271875590086,0.0,-3.0,0.7495312514800724,0.10581254574871184,-0.28711747053531556,-0.09578552954965384,nan,nan,nan,nan
12.595381259918213,1.7151102,-0.27824172,-2.9405677,0.06247960682332549,nan,nan,nan,nan,nan,nan,2.5892868041992188,2.5892868041992188,0.014634132385253906,1.9968535900115967,-0.1119658350944519,0.0,-3.0,0.7502361218103948,0.01871138309596749,0.12747973164331786,-0.06365235089164126,nan,nan,nan,nan
12.696310997009277,1.689743,-0.3730333,-2.952923,0.06297162017925645,nan,nan,nan,nan,nan,nan,2.690091609954834,2.690091609954834,0.014768362045288086,1.9857515096664429,-0.23661084473133087,0.0,-3.0,0.7415896818790724,-0.024073546174304926,0.34077710807535566,-0.10629031206910503,nan,nan,nan,nan
12.80255126953125,1.6789963,-0.47707245,-2.9728646,0.06397926746312392,nan,nan,nan,nan,nan,nan,2.7963783740997314,2.7963783740997314,0.015245199203491211,1.9654221534729004,-0.36388927698135376,0.0,-3.0,0.7264460078380468,-0.02848357300633844,0.5054445014830103,-0.11174851319382387,nan,nan,nan,nan
12.906450748443604,1.6809523,-0.5345818,-2.9860716,0.06407389707755708,nan,nan,nan,nan,nan,nan,2.901839017868042,2.901839017868042,0.014051675796508789,1.936590313911438,-0.4837775230407715,0.0,-3.0,0.7143552645825114,-0.005775414352430703,0.5532224232582078,-0.11225091182741402,nan,nan,nan,nan
12.978098630905151,1.6891373,-0.601373,-3.001937,0.0627810220767265,nan,nan,nan,nan,nan,nan,2.971377372741699,2.971377372741699,0.015235185623168945,1.9129196405410767,-0.5583124160766602,0.0,-3.0,0.7120406568750877,0.013651545400116235,0.523374337462633,-0.11116733186310071,nan,nan,nan,nan
13.079943656921387,1.6942543,-0.63552344,-3.009489,0.061002728801336434,nan,nan,nan,nan,nan,nan,3.0737762451171875,3.0737762451171875,0.016129732131958008,1.8714311122894287,-0.6601575613021851,0.0,-3.0,0.7149494073480637,0.04111353207535629,0.43878936246092504,-0.10309969789999696,nan,nan,nan,nan
13.21019196510315,1.6955708,-0.72297347,-3.0244904,0.0505564269564116,nan,nan,nan,nan,nan,nan,3.205704689025879,3.205704689025879,0.01614212989807129,1.80659019947052,-0.7750629186630249,0.0,-3.0,0.7220621620773134,0.05094632243472788,0.20609026154683274,-0.10639620441663655,nan,nan,nan,nan
13.28979754447937,1.68639,-0.7474099,-3.0273545,0.04512934372768575,nan,nan,nan,nan,nan,nan,3.284208297729492,3.284208297729492,0.014239788055419922,1.762087106704712,-0.8335291743278503,0.0,-3.0,0.7277558941446585,0.06423413546499272,0.07727737092703127,-0.09978017264273618,nan,nan,nan,nan
13.40540885925293,1.6625991,-0.77459794,-3.0299377,0.036336450702387266,nan,nan,nan,nan,nan,nan,3.3995397090911865,3.3995397090911865,0.015304088592529297,1.6889656782150269,-0.9045805931091309,0.0,-3.0,0.7335855340366738,0.10950432792545951,0.04064544419717026,-0.048293344615848506,nan,nan,nan,nan
13.483362674713135,1.6325126,-0.7912443,-3.0315256,0.02810127321306182,nan,nan,nan,nan,nan,nan,3.4778449535369873,3.4778449535369873,0.016567707061767578,1.6342411041259766,-0.9420857429504395,0.0,-3.0,0.7341881049820382,0.1007257600110333,-0.09165501617620359,-0.025149229556196473,nan,nan,nan,nan
13.600981950759888,1.5605326,-0.80693936,-3.0338602,0.013304976689577683,nan,nan,nan,nan,nan,nan,3.5942511558532715,3.5942511558532715,0.012007713317871094,1.5456212759017944,-0.9809079766273499,0.0,-3.0,0.7316899292688014,0.07712175293847741,-0.20387004354466437,-0.001080325816979491,nan,nan,nan,nan
13.698453903198242,1.4781528,-0.8077292,-3.035667,0.0006549609490831831,nan,nan,nan,nan,nan,nan,3.690774440765381,3.690774440765381,0.006413459777832031,1.4658488035202026,-0.9972317218780518,0.0,-3.0,0.727468653332918,0.0023565161489122596,-0.26884625209434143,-0.010073455552222572,nan,nan,nan,nan
13.791572570800781,1.4042358,-0.8003362,-3.0367262,-0.00804410671383473,nan,nan,nan,nan,nan,nan,3.7839088439941406,3.7839088439941406,0.00626826286315918,1.3837642669677734,-0.9990922808647156,0.0,-3.0,0.7288584958571163,0.007159630484831427,-0.21954587968553915,0.025927230299370715,nan,nan,nan,nan
13.88967490196228,1.2801207,-0.77565914,-3.0371094,-0.01795876885783229,nan,nan,nan,nan,nan,nan,3.882237195968628,3.882237195968628,0.008351802825927734,1.2919671535491943,-0.9862248301506042,0.0,-3.0,0.729269267086239,-0.014736368216179916,-0.18432525026071833,0.023241624372815062,nan,nan,nan,nan
14.004676580429077,1.1634607,-0.74144447,-3.0359976,-0.023215449232697423,nan,nan,nan,nan,nan,nan,3.9971988201141357,3.9971988201141357,0.007496833801269531,1.1784164905548096,-0.952138364315033,0.0,-3.0,0.7314676691056231,0.002335732293825129,-0.11436056543120668,0.04015723958824031,nan,nan,nan,nan
14.101842164993286,1.06058,-0.70316726,-3.0346227,-0.025534454943797177,nan,nan,nan,nan,nan,nan,4.094276428222656,4.094276428222656,0.007700443267822266,1.0777194499969482,-0.9078660011291504,0.0,-3.0,0.732333821016316,-0.008615411352887082,-0.07910199938209551,0.04180392369289038,nan,nan,nan,nan
14.187244415283203,0.96507865,-0.66118693,-3.033553,-0.026244312830768085,nan,nan,nan,nan,nan,nan,4.180700302124023,4.180700302124023,0.013934135437011719,0.9846888184547424,-0.8570736050605774,0.0,-3.0,0.7335072211642693,0.01078112125297358,-0.032477725416189235,0.04241706404163232,nan,nan,nan,nan
14.279463291168213,0.82065487,-0.586468,-3.0332472,-0.02520409196781402,nan,nan,nan,nan,nan,nan,4.272927761077881,4.272927761077881,0.013941049575805664,0.8822160959243774,-0.7917483448982239,0.0,-3.0,0.7316864721636392,-0.051265093522198046,-0.0503987873169935,0.029441741036337805,nan,nan,nan,nan
14.40134072303772,0.6769383,-0.4986562,-3.0344193,-0.02262825755708387,nan,nan,nan,nan,nan,nan,4.3950035572052,4.3950035572052,0.014169692993164062,0.7420832514762878,-0.6891105771064758,0.0,-3.0,0.730573588502189,-0.0841780050086509,-0.0341956801061059,0.030304464062893183,nan,nan,nan,nan
14.49699354171753,0.6010346,-0.44702065,-3.0354884,-0.02088503726604001,nan,nan,nan,nan,nan,nan,4.490545034408569,4.490545034408569,0.014098167419433594,0.6293229460716248,-0.597355842590332,0.0,-3.0,0.7318288223955544,-0.04823956582421383,0.030928089194670747,0.030686444475192594,nan,nan,nan,nan
14.596630811691284,0.44182944,-0.3267607,-3.0391216,-0.016897088868707735,nan,nan,nan,nan,nan,nan,4.591529369354248,4.591529369354248,0.02445697784423828,0.5076828002929688,-0.49105405807495117,0.0,-3.0,0.728806844230074,-0.11703003896565463,-0.004369880279209349,0.02916017786609835,nan,nan,nan,nan
14.709511756896973,0.37698677,-0.27363577,-3.040925,-0.01524693511344533,nan,nan,nan,nan,nan,nan,4.704298973083496,4.704298973083496,0.02189040184020996,0.3694547116756439,-0.36309632658958435,0.0,-3.0,0.7279532442918727,-0.11871270347579481,0.019082723921217463,0.028946282024555327,nan,nan,nan,nan
14.802634239196777,0.2664862,-0.1786704,-3.0441215,-0.012325734299141699,nan,nan,nan,nan,nan,nan,4.796982765197754,4.796982765197754,0.020025014877319336,0.2544276714324951,-0.2523605525493622,0.0,-3.0,0.729069284150641,-0.07918921488294599,0.09200144240535009,0.012395949114071679,nan,nan,nan,nan
14.88957166671753,0.1749688,-0.096370436,-3.0468493,-0.010047212344559023,nan,nan,nan,nan,nan,nan,4.883747577667236,4.883747577667236,0.018517494201660156,0.14595723152160645,-0.14556804299354553,0.0,-3.0,0.7270114631165409,-0.12385942536555784,0.059345440823483316,0.00727293841333466,nan,nan,nan,nan
15.009352445602417,-0.00030472683,0.063755356,-3.0518744,-0.0061389662253963015,nan,nan,nan,nan,nan,nan,5.0040388107299805,5.0040388107299805,0.01771855354309082,-0.005075313616544008,0.0050752973183989525,0.0,-3.0,0.7234577148786575,-0.19903439016311314,-0.03861111447752245,0.02974170070017732,nan,nan,nan,nan
15.088315963745117,-0.07535002,0.1312554,-3.0538518,-0.0045940757720007875,nan,nan,nan,nan,nan,nan,5.082093000411987,5.082093000411987,0.0202486515045166,-0.10311536490917206,0.10297822952270508,0.0,-3.0,0.7231682769829628,-0.20049754262002373,-0.047038550229111076,0.02385626476249211,nan,nan,nan,nan
15.208685874938965,-0.1701243,0.21450646,-3.0562456,-0.002730004936220109,nan,nan,nan,nan,nan,nan,5.2023210525512695,5.2023210525512695,0.017461061477661133,-0.2535599172115326,0.25151389837265015,0.0,-3.0,0.7238357844589881,-0.17872326379224732,0.0033206432413705558,-0.006348432592294658,nan,nan,nan,nan
15.283806800842285,-0.26585677,0.29550084,-3.0582213,-0.0010025186930269978,nan,nan,nan,nan,nan,nan,5.277597665786743,5.277597665786743,0.018973112106323242,-0.3470734655857086,0.34180745482444763,0.0,-3.0,0.7234767067276396,-0.17875459969979124,-0.02298323552669738,-0.00971192693389135,nan,nan,nan,nan
15.377572536468506,-0.36238378,0.37315017,-3.059797,0.0005644119949887831,nan,nan,nan,nan,nan,nan,5.37260627746582,5.37260627746582,0.022047042846679688,-0.4639652669429779,0.4513082802295685,0.0,-3.0,0.723452645865768,-0.17205419373696676,-0.04521601098380649,-0.014186098033056715,nan,nan,nan,nan
15.505188703536987,-0.5653123,0.5192719,-3.0601647,0.003467479070021935,nan,nan,nan,nan,nan,nan,5.500675678253174,5.500675678253174,0.024135828018188477,-0.6188414692878723,0.5884719491004944,0.0,-3.0,0.724375576079895,-0.13853561846442047,-0.10864345500732119,0.008230554232369045,nan,nan,nan,nan
15.599188089370728,-0.6321925,0.56196713,-3.0588324,0.004319441645711922,nan,nan,nan,nan,nan,nan,5.592785120010376,5.592785120010376,0.018945932388305664,-0.7278117537498474,0.6779098510742188,0.0,-3.0,0.7256845343612637,-0.1146092051771323,-0.1076363388667017,0.005848460706544472,nan,nan,nan,nan
15.67981505393982,-0.75470096,0.63202226,-3.0540445,0.005649972403738185,nan,nan,nan,nan,nan,nan,5.673591136932373,5.673591136932373,0.01973557472229004,-0.8214148283004761,0.7489390969276428,0.0,-3.0,0.726517479924332,-0.10972707862638302,-0.08443140747089843,-0.02143323362738223,nan,nan,nan,nan
15.80362606048584,-0.89208657,0.695919,-3.046339,0.006845617141166577,nan,nan,nan,nan,nan,nan,5.797774076461792,5.797774076461792,0.018605470657348633,-0.9610552191734314,0.8428258299827576,0.0,-3.0,0.7309100636234869,-0.04341247656596276,-0.09735146373426919,-0.010349435880536707,nan,nan,nan,nan
15.887613773345947,-0.9885449,0.7310281,-3.0405006,0.007194069132468138,nan,nan,nan,nan,nan,nan,5.881678342819214,5.881678342819214,0.01752018928527832,-1.0521434545516968,0.8947851061820984,0.0,-3.0,0.732557039065101,-0.04643926717996791,-0.06707487584024109,-0.010899299693357197,nan,nan,nan,nan
15.970705032348633,-1.0723839,0.75445706,-3.0360353,0.006994835261075985,nan,nan,nan,nan,nan,nan,5.964900732040405,5.964900732040405,0.018788814544677734,-1.1396042108535767,0.9365061521530151,0.0,-3.0,0.7342828112765093,-0.02885108247013083,-0.050873770112622264,-0.007968627938272365,nan,nan,nan,nan
16.099945306777954,-1.198057,0.7758024,-3.0305688,0.005848492222903019,nan,nan,nan,nan,nan,nan,6.094102621078491,6.094102621078491,0.01844048500061035,-1.2691290378570557,0.9808716177940369,0.0,-3.0,0.7354054873120441,-0.008862142824817832,-0.032733153602818775,-0.011047844428961987,nan,nan,nan,nan
16.182024717330933,-1.2638508,0.77908087,-3.0285573,0.004965685772082062,nan,nan,nan,nan,nan,nan,6.176533222198486,6.176533222198486,0.01824641227722168,-1.3474494218826294,0.9957414269447327,0.0,-3.0,0.7355080844523824,0.0012480230200713034,-0.02762495861054228,-0.00550004047321164,nan,nan,nan,nan
16.306167364120483,-1.319306,0.7764374,-3.027367,0.0041312351989236315,nan,nan,nan,nan,nan,nan,6.300011396408081,6.300011396408081,0.019568443298339844,-1.457947015762329,0.9980258345603943,0.0,-3.0,0.7362719780427985,-0.06396057179818167,-0.0048758074505642615,-0.013683982268681097,nan,nan,nan,nan
16.38469910621643,-1.3845247,0.76593703,-3.026204,0.003072365785925915,nan,nan,nan,nan,nan,nan,6.378663539886475,6.378663539886475,0.01888418197631836,-1.5237977504730225,0.9869576692581177,0.0,-3.0,0.736291462219191,-0.08599297891901674,-0.0018833111075790409,-0.01224120834233449,nan,nan,nan,nan
16.505717754364014,-1.4951954,0.7241037,-3.0256746,0.0012878162496219592,nan,nan,nan,nan,nan,nan,6.500117063522339,6.500117063522339,0.018215656280517578,-1.6181204319000244,0.951011061668396,0.0,-3.0,0.7339802225609988,0.006037853089092503,-0.0224118301850038,0.0021352782843404436,nan,nan,nan,nan
16.585423469543457,-1.526607,0.70489997,-3.0259652,0.0008915893871924291,nan,nan,nan,nan,nan,nan,6.57909893989563,6.57909893989563,0.017329692840576172,-1.674437165260315,0.9156967997550964,0.0,-3.0,0.7334756278001816,0.02651592061780453,-0.025850752316700743,0.0028180933557806465,nan,nan,nan,nan
16.696331024169922,-1.6115394,0.6308395,-3.0276499,0.0003781325126075985,nan,nan,nan,nan,nan,nan,6.690070152282715,6.690070152282715,0.018899202346801758,-1.7465678453445435,0.8509481549263,0.0,-3.0,0.7318337257745189,0.09774226734342957,-0.02900412511198729,0.005053814357407761,nan,nan,nan,nan
16.797614097595215,-1.6411539,0.5955132,-3.0283036,0.0003072632320857416,nan,nan,nan,nan,nan,nan,6.790889501571655,6.790889501571655,0.014550209045410156,-1.8047499656677246,0.7777602076530457,0.0,-3.0,0.7326870871491512,0.07251600092473522,-0.03171178366825293,-0.006445474514133446,nan,nan,nan,nan
16.89164423942566,-1.6982937,0.50833213,-3.0294487,0.0004109626782786008,nan,nan,nan,nan,nan,nan,6.885079383850098,6.885079383850098,0.015018939971923828,-1.8525691032409668,0.6980940103530884,0.0,-3.0,0.730475140823397,0.13909991633750782,-0.028022353590723297,0.0037276173698506626,nan,nan,nan,nan
16.998560667037964,-1.7409294,0.42203796,-3.0305254,0.0005949628852815123,nan,nan,nan,nan,nan,nan,6.992778062820435,6.992778062820435,0.014655828475952148,-1.8992890119552612,0.5951030850410461,0.0,-3.0,0.7320468568955567,0.08656270904112429,-0.04096989849558835,-0.006619354753083101,nan,nan,nan,nan
17.06752300262451,-1.7690407,0.35082406,-3.031165,0.0008755223610819804,nan,nan,nan,nan,nan,nan,7.06264591217041,7.06264591217041,0.020346641540527344,-1.9249602556228638,0.5223422050476074,0.0,-3.0,0.7299670581770785,0.14151281819509243,-0.03298114805466441,8.319764614615e-06,nan,nan,nan,nan
17.201696157455444,-1.8009446,0.24616848,-3.0316472,0.0015914804762979032,nan,nan,nan,nan,nan,nan,7.194926500320435,7.194926500320435,0.014696598052978516,-1.9633698463439941,0.37404486536979675,0.0,-3.0,0.7293168461689512,0.14514963755484483,-0.033532229452036315,0.002985485431538276,nan,nan,nan,nan
17.299986124038696,-1.8153266,0.18483698,-3.031406,0.002197156985263859,nan,nan,nan,nan,nan,nan,7.293618679046631,7.293618679046631,0.015398263931274414,-1.983208417892456,0.256448894739151,0.0,-3.0,0.730242532485031,0.10363762093635875,-0.054913765056820094,-0.007314579937960127,nan,nan,nan,nan
17.40116262435913,-1.8349468,0.060939282,-3.0300229,0.003826779255673294,nan,nan,nan,nan,nan,nan,7.3960325717926025,7.3960325717926025,0.017682552337646484,-1.9957342147827148,0.13027796149253845,0.0,-3.0,0.7294388809896554,0.13393473695319608,-0.028860942818524894,0.003847612340125118,nan,nan,nan,nan
17.50268816947937,-1.839916,-0.00083856017,-3.0290277,0.004814736497024196,nan,nan,nan,nan,nan,nan,7.496031045913696,7.496031045913696,0.015546798706054688,-1.9999938011169434,0.004987514112144709,0.0,-3.0,0.730272435183558,0.09987253533467756,-0.0548577166899543,-0.009906620049850979,nan,nan,nan,nan
17.59947156906128,-1.8396906,-0.1228773,-3.0272684,0.007118703949804104,nan,nan,nan,nan,nan,nan,7.593507528305054,7.593507528305054,0.014341592788696289,-1.996549129486084,-0.11723480373620987,0.0,-3.0,0.7297240164251986,0.12796615640696385,-0.0043135553163576815,0.0019030044317920195,nan,nan,nan,nan
17.693917274475098,-1.8345052,-0.18269086,-3.0266201,0.008216748092809322,nan,nan,nan,nan,nan,nan,7.687164068222046,7.687164068222046,0.01389932632446289,-1.9861865043640137,-0.2330348640680313,0.0,-3.0,0.7300083020995235,0.11272214278991718,-0.03092707530923373,-0.014543895681198897,nan,nan,nan,nan
17.78072714805603,-1.8238033,-0.2555631,-3.0258906,0.009547121513092475,nan,nan,nan,nan,nan,nan,7.774565696716309,7.774565696716309,0.015496969223022461,-1.9703123569488525,-0.3382243812084198,0.0,-3.0,0.7299285741430224,0.1160396539013154,-0.035710805075582906,-0.018416347274843172,nan,nan,nan,nan
17.879023790359497,-1.7980157,-0.3656917,-3.025184,0.011296700395856918,nan,nan,nan,nan,nan,nan,7.872368335723877,7.872368335723877,0.02207636833190918,-1.9455091953277588,-0.45104143023490906,0.0,-3.0,0.7294725083718551,0.13182965480755807,-0.00015008691603456218,-0.009505684625266025,nan,nan,nan,nan
17.983752012252808,-1.7785008,-0.423911,-3.0251298,0.012072483537320372,nan,nan,nan,nan,nan,nan,7.977106332778931,7.977106332778931,0.015163898468017578,-1.9108060598373413,-0.5642706155776978,0.0,-3.0,0.7294944775252867,0.13803862774390174,-0.036832983110185444,-0.02268983902007349,nan,nan,nan,nan
18.10210347175598,-1.7255231,-0.5353651,-3.0255039,0.013126819256325976,nan,nan,nan,nan,nan,nan,8.097126007080078,8.097126007080078,0.019654035568237305,-1.8608794212341309,-0.6819099187850952,0.0,-3.0,0.7292664303229208,0.13459258663068702,-0.0009339991814807595,-0.011959291586854692,nan,nan,nan,nan
18.206010103225708,-1.7021303,-0.57148564,-3.0259225,0.013359120046780457,nan,nan,nan,nan,nan,nan,8.199214696884155,8.199214696884155,0.014522314071655273,-1.8100740909576416,-0.7698838114738464,0.0,-3.0,0.729553788994296,0.14305509766999097,-0.027350613787964835,-0.02699435365703371,nan,nan,nan,nan
18.299039363861084,-1.6490571,-0.6340995,-3.0271282,0.013786320342193084,nan,nan,nan,nan,nan,nan,8.292240142822266,8.292240142822266,0.015054941177368164,-1.757290244102478,-0.8390628695487976,0.0,-3.0,0.7293050963396032,0.10962116636875838,0.015367995061472286,-0.010270309062709891,nan,nan,nan,nan
18.39671277999878,-1.5967164,-0.6765495,-3.0284657,0.014148173516708003,nan,nan,nan,nan,nan,nan,8.390069007873535,8.390069007873535,0.015316963195800781,-1.6953098773956299,-0.8994431495666504,0.0,-3.0,0.7295424500190086,0.09722402175055314,0.009305369979760642,-0.018180737909323036,nan,nan,nan,nan
18.494336128234863,-1.5582635,-0.698358,-3.0293155,0.01449096975224437,nan,nan,nan,nan,nan,nan,8.48758864402771,8.48758864402771,0.01460409164428711,-1.6271520853042603,-0.9461214542388916,0.0,-3.0,0.730686250842782,0.12320327654169905,-0.045897240383709216,-0.029122393637129387,nan,nan,nan,nan
18.589085817337036,-1.4952705,-0.72062576,-3.0304077,0.014908988195894764,nan,nan,nan,nan,nan,nan,8.582253217697144,8.582253217697144,0.014340639114379883,-1.5551457405090332,-0.9778645038604736,0.0,-3.0,0.730322504888663,0.06119416961463706,0.0016904519925575307,-0.016360348372365437,nan,nan,nan,nan
18.683264017105103,-1.4078194,-0.7300268,-3.0315797,0.015565707048723156,nan,nan,nan,nan,nan,nan,8.676519632339478,8.676519632339478,0.01494288444519043,-1.4779763221740723,-0.9957398772239685,0.0,-3.0,0.7301407359482067,0.008433335154968786,0.03480059786511991,-0.016456047177864898,nan,nan,nan,nan
18.783442735671997,-1.3572073,-0.7263381,-3.03202,0.016095712505824415,nan,nan,nan,nan,nan,nan,8.776764392852783,8.776764392852783,0.013893842697143555,-1.3902325630187988,-0.9994344711303711,0.0,-3.0,0.7322385983154077,0.04104636825569853,-0.020857025988417013,-0.029717681445645922,nan,nan,nan,nan
18.90612292289734,-1.2562536,-0.70357317,-3.0322626,0.01705496274182458,nan,nan,nan,nan,nan,nan,8.899760484695435,8.899760484695435,0.015095949172973633,-1.2750798463821411,-0.9823436141014099,0.0,-3.0,0.7327553831404194,0.01305725343711437,-0.019264225074975886,-0.029613493919095978,nan,nan,nan,nan
19.003461837768555,-1.1488581,-0.66160893,-3.032063,0.017707056251802286,nan,nan,nan,nan,nan,nan,8.996984004974365,8.996984004974365,0.015615224838256836,-1.178634524345398,-0.9522208571434021,0.0,-3.0,0.7310341372344503,-0.05862372115035352,0.03460811923637055,-0.025660770429027462,nan,nan,nan,nan
19.103256464004517,-1.0966307,-0.63599277,-3.0318868,0.017926946754602616,nan,nan,nan,nan,nan,nan,9.096732378005981,9.096732378005981,0.01492452621459961,-1.0751183032989502,-0.9065677523612976,0.0,-3.0,0.7333419503044866,-0.025303506728974308,-0.012084312310951138,-0.029199131793856217,nan,nan,nan,nan
19.200952291488647,-0.9635567,-0.559941,-3.0315356,0.017898318005391864,nan,nan,nan,nan,nan,nan,9.195240259170532,9.195240259170532,0.015403270721435547,-0.9687444567680359,-0.847517728805542,0.0,-3.0,0.7305936857160733,-0.09911477661395725,0.05365666030412508,-0.027709268708137665,nan,nan,nan,nan
19.301960706710815,-0.8975804,-0.5178871,-3.031717,0.01772355904873263,nan,nan,nan,nan,nan,nan,9.29526424407959,9.29526424407959,0.015717506408691406,-0.8569395542144775,-0.7742929458618164,0.0,-3.0,0.7329223578066151,-0.05785447135645867,0.006880811357796275,-0.027768535177549104,nan,nan,nan,nan
19.407073259353638,-0.749937,-0.41633105,-3.0329487,0.01697644601812822,nan,nan,nan,nan,nan,nan,9.401024103164673,9.401024103164673,0.017093658447265625,-0.7350524067878723,-0.6836084127426147,0.0,-3.0,0.7295709754727333,-0.11747315758703598,0.07494716007059002,-0.02680570713313464,nan,nan,nan,nan
19.515708684921265,-0.631506,-0.3292846,-3.0343604,0.016200540348108187,nan,nan,nan,nan,nan,nan,9.510166645050049,9.510166645050049,0.020325183868408203,-0.6058709621429443,-0.5774017572402954,0.0,-3.0,0.7313310099697585,-0.07438192308912076,0.027675972910195478,-0.02477383516753973,nan,nan,nan,nan
19.608717679977417,-0.5185218,-0.24392273,-3.035977,0.015138227881231155,nan,nan,nan,nan,nan,nan,9.602987289428711,9.602987289428711,0.017207622528076172,-0.4937429130077362,-0.4784606993198395,0.0,-3.0,0.7293284454722896,-0.09903148981035845,0.05843820695548664,-0.022394991483242234,nan,nan,nan,nan
19.677002668380737,-0.45129922,-0.19248793,-3.037182,0.014435125998074838,nan,nan,nan,nan,nan,nan,9.670437335968018,9.670437335968018,0.015270471572875977,-0.41118741035461426,-0.4024033844470978,0.0,-3.0,0.7271540247508832,-0.12636698332180654,0.09510596531412431,-0.02176736569703269,nan,nan,nan,nan
19.775439023971558,-0.36363173,-0.12513924,-3.0389757,0.01341833286377244,nan,nan,nan,nan,nan,nan,9.769121885299683,9.769121885299683,0.01929759979248047,-0.28911349177360535,-0.28607678413391113,0.0,-3.0,0.7286032455508868,-0.08723931013707766,0.03882290102161189,-0.017940550603650962,nan,nan,nan,nan
19.898277759552002,-0.17572019,0.020100154,-3.0433846,0.011089319075378572,nan,nan,nan,nan,nan,nan,9.891887664794922,9.891887664794922,0.015192747116088867,-0.13575351238250732,-0.1354404240846634,0.0,-3.0,0.7253860622053289,-0.13236568635815993,0.09475943331601644,-0.015675987181974986,nan,nan,nan,nan
19.99954628944397,-0.09627809,0.08158655,-3.0456228,0.010116109860724375,nan,nan,nan,nan,nan,nan,9.993432521820068,9.993432521820068,0.014950752258300781,-0.008252913132309914,-0.008252842351794243,0.0,-3.0,0.7255871098343604,-0.11348744629794287,0.04915906717149343,-0.009620859732724316,nan,nan,nan,nan
20.098100662231445,0.051704038,0.19544491,-3.0499618,0.008357577841359903,nan,nan,nan,nan,nan,nan,10.091434955596924,10.091434955596924,0.015031814575195312,0.11483735591173172,0.11464789509773254,0.0,-3.0,0.7237542972720663,-0.14079596398248542,0.0840168975849224,-0.011237064327269945,nan,nan,nan,nan
20.19345259666443,0.17860782,0.29156032,-3.0532172,0.00696127464933718,nan,nan,nan,nan,nan,nan,10.186673879623413,10.186673879623413,0.014260292053222656,0.23404382169246674,0.23243579268455505,0.0,-3.0,0.7239408290381666,-0.1242011525978828,0.025627199970960746,-0.0034610923043831058,nan,nan,nan,nan
20.29004955291748,0.27530095,0.36273253,-3.055255,0.005959756914587975,nan,nan,nan,nan,nan,nan,10.283441543579102,10.283441543579102,0.01520395278930664,0.3543033003807068,0.34869951009750366,0.0,-3.0,0.7235734748201481,-0.13229025081921617,0.029162635840627116,-0.0007226081551385273,nan,nan,nan,nan
20.384626150131226,0.39011037,0.44349518,-3.0568247,0.004753855042597524,nan,nan,nan,nan,nan,nan,10.377970695495605,10.377970695495605,0.01414346694946289,0.4705198407173157,0.45731353759765625,0.0,-3.0,0.7239223257383599,-0.1340356845038161,0.05000145270250116,-0.004470464023664833,nan,nan,nan,nan
20.50536823272705,0.53169847,0.5361357,-3.0567873,0.0032824921079453798,nan,nan,nan,nan,nan,nan,10.498564004898071,10.498564004898071,0.014935731887817383,0.6163175106048584,0.5863243937492371,0.0,-3.0,0.7251728056587229,-0.12437869073608883,0.048099132376512074,-0.008005145745616404,nan,nan,nan,nan
20.607014894485474,0.605804,0.5811495,-3.0559118,0.0025457068078623274,nan,nan,nan,nan,nan,nan,10.602048397064209,10.602048397064209,0.01848888397216797,0.7386417984962463,0.686421275138855,0.0,-3.0,0.7256215078307149,-0.1337360106427673,0.00973782783610663,0.006273305020439058,nan,nan,nan,nan
20.68417525291443,0.69711566,0.6320964,-3.0539892,0.0016850423635833,nan,nan,nan,nan,nan,nan,10.67831301689148,10.67831301689148,0.014691829681396484,0.8268213272094727,0.7528577446937561,0.0,-3.0,0.726503009892835,-0.13586758426271067,0.005990340341594031,0.00815952094702712,nan,nan,nan,nan
20.802542686462402,0.82207334,0.6926949,-3.0499706,0.0005975234113611283,nan,nan,nan,nan,nan,nan,10.797006368637085,10.797006368637085,0.019954919815063477,0.9602090716362,0.8423061966896057,0.0,-3.0,0.7290438684277387,-0.10305932873853765,0.047156416801426786,-0.004124120250224298,nan,nan,nan,nan
20.90736675262451,0.9514064,0.742105,-3.0443366,-0.0006446733724305709,nan,nan,nan,nan,nan,nan,10.90069580078125,10.90069580078125,0.015609979629516602,1.0723917484283447,0.9051989912986755,0.0,-3.0,0.7314795309457314,-0.060754551741567006,0.07406579034970882,-0.009132370903669087,nan,nan,nan,nan
21.00499129295349,1.0268673,0.7631902,-3.0408032,-0.0014902766485631116,nan,nan,nan,nan,nan,nan,10.99852180480957,10.99852180480957,0.015456438064575195,1.1740672588348389,0.9504808783531189,0.0,-3.0,0.7323179588443016,-0.10751384938151039,0.03897898000199279,0.012597815223984612,nan,nan,nan,nan
21.10235905647278,1.1566083,0.78407145,-3.0356753,-0.002961318759695894,nan,nan,nan,nan,nan,nan,11.095908880233765,11.095908880233765,0.015436410903930664,1.270882487297058,0.9813109636306763,0.0,-3.0,0.7335551188351561,-0.026821656265148527,0.07034453072359408,-0.0027391638964099825,nan,nan,nan,nan
21.207799673080444,1.2269813,0.7865378,-3.0331397,-0.003778133161264824,nan,nan,nan,nan,nan,nan,11.201101303100586,11.201101303100586,0.014710187911987305,1.3701027631759644,0.998112678527832,0.0,-3.0,0.7344820864142355,-0.06665114428966594,0.050386826452320156,0.015245016087904201,nan,nan,nan,nan
21.304253578186035,1.3455634,0.7742177,-3.029036,-0.005155341875012223,nan,nan,nan,nan,nan,nan,11.297508716583252,11.297508716583252,0.01735997200012207,1.4557924270629883,0.9982184171676636,0.0,-3.0,0.7342898231093339,0.01276497199762513,0.06624528059973939,0.0012611824556385718,nan,nan,nan,nan
21.37837529182434,1.4011347,0.75987077,-3.0272696,-0.0058323811978003084,nan,nan,nan,nan,nan,nan,11.372265577316284,11.372265577316284,0.01479649543762207,1.518578052520752,0.9882200360298157,0.0,-3.0,0.7345113792149714,0.02015098694683048,0.06209202553045355,0.002856519382058806,nan,nan,nan,nan
21.479026794433594,1.4604284,0.7372762,-3.0255282,-0.006440723415115986,nan,nan,nan,nan,nan,nan,11.472266435623169,11.472266435623169,0.014562368392944336,1.5973044633865356,0.9612463712692261,0.0,-3.0,0.7357205882646806,-0.024532934072325294,0.049399649268913354,0.017155376952418852,nan,nan,nan,nan
21.611083269119263,1.5518588,0.6843374,-3.0233095,-0.007292511301420737,nan,nan,nan,nan,nan,nan,11.604519844055176,11.604519844055176,0.014536619186401367,1.6916924715042114,0.9023941159248352,0.0,-3.0,0.7354833448339037,0.010955780389315552,0.04328641355515421,0.016376896843204983,nan,nan,nan,nan
21.70703434944153,1.6390047,0.6080316,-3.0221243,-0.00788830147590256,nan,nan,nan,nan,nan,nan,11.701489448547363,11.701489448547363,0.01730942726135254,1.753514289855957,0.8433235287666321,0.0,-3.0,0.7335760349035982,0.08418914351134778,0.036400410374494485,0.005151466797745167,nan,nan,nan,nan
21.77815270423889,1.6637232,0.58040804,-3.0219457,-0.008018390337921899,nan,nan,nan,nan,nan,nan,11.77139949798584,11.77139949798584,0.014838933944702148,1.7940599918365479,0.7929200530052185,0.0,-3.0,0.7333304204298806,0.0873865237647458,0.033444535239701395,0.0059079333789189776,nan,nan,nan,nan
21.90725350379944,1.7499771,0.45364785,-3.0221996,-0.008331112781031227,nan,nan,nan,nan,nan,nan,11.900564193725586,11.900564193725586,0.018744707107543945,1.8598138093948364,0.6840301156044006,0.0,-3.0,0.7319370530550622,0.13058399875090076,0.024458900254607906,0.009620168378921302,nan,nan,nan,nan
22.006632328033447,1.7755785,0.40386492,-3.0224693,-0.008352016622826648,nan,nan,nan,nan,nan,nan,11.999918937683105,11.999918937683105,0.014463186264038086,1.9020816087722778,0.5878676772117615,0.0,-3.0,0.7326477149917204,0.0946407921229631,0.03114885119630242,0.016002145031850806,nan,nan,nan,nan
22.10141372680664,1.8223844,0.2901378,-3.0232582,-0.008394451105841291,nan,nan,nan,nan,nan,nan,12.094627380371094,12.094627380371094,0.014930486679077148,1.935476303100586,0.4876589775085449,0.0,-3.0,0.7306388590369004,0.14232631176367963,0.018625267297409504,0.005799864379432925,nan,nan,nan,nan
22.195968866348267,1.8424665,0.22656947,-3.0237563,-0.008438012315960728,nan,nan,nan,nan,nan,nan,12.189404964447021,12.189404964447021,0.014759302139282227,1.9620361328125,0.38047072291374207,0.0,-3.0,0.7315153699989692,0.10005629447511323,0.03529762618084878,0.016087771618341712,nan,nan,nan,nan
22.289124965667725,1.8659904,0.12807228,-3.0245137,-0.008397993246173716,nan,nan,nan,nan,nan,nan,12.282567739486694,12.282567739486694,0.01489400863647461,1.9813648462295532,0.2698463201522827,0.0,-3.0,0.7297493609047813,0.14456415752157112,0.01468532181702057,0.006196081652993165,nan,nan,nan,nan
22.390559196472168,1.8841563,0.002433604,-3.0254462,-0.008273641131078388,nan,nan,nan,nan,nan,nan,12.384062767028809,12.384062767028809,0.014920949935913086,1.9946959018707275,0.14517617225646973,0.0,-3.0,0.7291465089382516,0.15507176696746708,0.0034643616752110186,0.004251439125936469,nan,nan,nan,nan
22.497172355651855,1.8893988,-0.08128139,-3.0263846,-0.008209840105360857,nan,nan,nan,nan,nan,nan,12.489713907241821,12.489713907241821,0.007385730743408203,1.9999582767486572,0.012925525195896626,0.0,-3.0,0.7289942548329276,0.1464934080674098,0.00172486126028987,0.01420303119045763,nan,nan,nan,nan
22.59941577911377,1.8876075,-0.20477802,-3.0279365,-0.00805952144550429,nan,nan,nan,nan,nan,nan,12.591794490814209,12.591794490814209,0.00639033317565918,1.9966744184494019,-0.11509671062231064,0.0,-3.0,0.7285891033293507,0.1431144645076776,-0.0126728340965432,0.009022958174974728,nan,nan,nan,nan
22.69460940361023,1.8806388,-0.2841491,-3.0296004,-0.007958352611032355,nan,nan,nan,nan,nan,nan,12.68695592880249,12.68695592880249,0.006198883056640625,1.9862171411514282,-0.23278050124645233,0.0,-3.0,0.728544472814372,0.12863461626678496,-0.0048938597344052506,0.010511641030330955,nan,nan,nan,nan
22.797760009765625,1.8646438,-0.38237995,-3.0327442,-0.007778170047505487,nan,nan,nan,nan,nan,nan,12.79015564918518,12.79015564918518,0.006206035614013672,1.9668549299240112,-0.35659462213516235,0.0,-3.0,0.7282855211181948,0.11507263052481889,0.01485835457390412,0.013937100811915265,nan,nan,nan,nan
22.891114950180054,1.8387134,-0.48012176,-3.0364108,-0.007473703621137459,nan,nan,nan,nan,nan,nan,12.883444547653198,12.883444547653198,0.006350517272949219,1.9422352313995361,-0.4634198844432831,0.0,-3.0,0.7277920100102941,0.10462046319574829,0.0010667794369713564,0.010128378630541305,nan,nan,nan,nan
23.002071619033813,1.8065095,-0.562659,-3.0396833,-0.007081108268019474,nan,nan,nan,nan,nan,nan,12.99447250366211,12.99447250366211,0.006190299987792969,1.9042479991912842,-0.5821516513824463,0.0,-3.0,0.7276295525752361,0.09492618197794439,0.0016880507694810242,0.00965768367637042,nan,nan,nan,nan
23.087875843048096,1.7798377,-0.6144819,-3.0416963,-0.00676458939055867,nan,nan,nan,nan,nan,nan,13.080586433410645,13.080586433410645,0.009040594100952148,1.8683950901031494,-0.6665614247322083,0.0,-3.0,0.727851641886587,0.09805740627228082,0.024227752183142437,0.013558501742404121,nan,nan,nan,nan
23.190768718719482,1.727589,-0.6893798,-3.043535,-0.0061456263470656206,nan,nan,nan,nan,nan,nan,13.183393001556396,13.183393001556396,0.00907135009765625,1.8184410333633423,-0.7570440769195557,0.0,-3.0,0.7281723365875521,0.08800650233700297,0.0059340230754621115,0.006747990494949219,nan,nan,nan,nan
23.289798974990845,1.6832311,-0.73375154,-3.0437338,-0.00575034526621325,nan,nan,nan,nan,nan,nan,13.282458782196045,13.282458782196045,0.009066581726074219,1.763126015663147,-0.8323125839233398,0.0,-3.0,0.7290894495684471,0.09455483975744566,0.0261576645698528,0.013845162730092139,nan,nan,nan,nan
23.405373096466064,1.6240414,-0.7739211,-3.0424802,-0.005497899858603543,nan,nan,nan,nan,nan,nan,13.39816689491272,13.39816689491272,0.009757518768310547,1.6898890733718872,-0.9038438200950623,0.0,-3.0,0.730477314667218,0.0914002298243889,0.03336751291668062,0.013694496407671786,nan,nan,nan,nan
23.503856897354126,1.5462741,-0.80299515,-3.0391846,-0.005286941891506372,nan,nan,nan,nan,nan,nan,13.497099876403809,13.497099876403809,0.01868915557861328,1.620173454284668,-0.9499239921569824,0.0,-3.0,0.7312623978595628,0.03328896212268381,-0.027447932171910917,0.006381343444799472,nan,nan,nan,nan
23.606410264968872,1.4768639,-0.8129513,-3.0359256,-0.005369086296373615,nan,nan,nan,nan,nan,nan,13.600201606750488,13.600201606750488,0.01551055908203125,1.5408649444580078,-0.9823346734046936,0.0,-3.0,0.7325956407793304,0.02841472720616501,-0.01772038993084619,0.00893997841852089,nan,nan,nan,nan
23.704244375228882,1.4270031,-0.81339985,-3.0336797,-0.005336726035105897,nan,nan,nan,nan,nan,nan,13.697489023208618,13.697489023208618,0.014303445816040039,1.4600954055786133,-0.9978236556053162,0.0,-3.0,0.7348617428206821,0.07015399590025914,0.04068033153710985,0.014770012998883416,nan,nan,nan,nan
23.79703998565674,1.3260396,-0.8009359,-3.0298276,-0.004843792944483519,nan,nan,nan,nan,nan,nan,13.790371656417847,13.790371656417847,0.014371395111083984,1.3778891563415527,-0.9987133741378784,0.0,-3.0,0.7340013594102391,-0.00038319606246595204,-0.03166702066822328,0.004135974229795159,nan,nan,nan,nan
23.8934428691864,1.2386361,-0.7783444,-3.0274358,-0.004428667675568883,nan,nan,nan,nan,nan,nan,13.887987613677979,13.887987613677979,0.017974376678466797,1.2864426374435425,-0.9850037693977356,0.0,-3.0,0.7361018412484551,0.03790656849884458,0.011673853675360592,0.014725902240097974,nan,nan,nan,nan
23.981178998947144,1.1851174,-0.7600056,-3.0264676,-0.004204244020801391,nan,nan,nan,nan,nan,nan,13.974939346313477,13.974939346313477,0.016422033309936523,1.2009013891220093,-0.960314929485321,0.0,-3.0,0.7348608706722057,-0.009336127123395467,-0.0355344255315145,0.009116829552446148,nan,nan,nan,nan
24.096850872039795,1.048058,-0.70004,-3.0246236,-0.004014508311656194,nan,nan,nan,nan,nan,nan,14.090314149856567,14.090314149856567,0.015657901763916016,1.081910490989685,-0.9099423289299011,0.0,-3.0,0.7338555381653846,-0.04471051013850641,-0.06027318694589678,0.003122017428959769,nan,nan,nan,nan
24.178568840026855,0.9975611,-0.67404354,-3.0242581,-0.0039427590170004675,nan,nan,nan,nan,nan,nan,14.172880172729492,14.172880172729492,0.015703916549682617,0.9932303428649902,-0.8620949983596802,0.0,-3.0,0.7333753331036936,-0.059462776047174384,-0.06305405007894961,0.0020650140336393942,nan,nan,nan,nan
24.292476415634155,0.82244325,-0.57079166,-3.0239465,-0.0037180931877442425,nan,nan,nan,nan,nan,nan,14.28690481185913,14.28690481185913,0.02501392364501953,0.8664193153381348,-0.780897855758667,0.0,-3.0,0.7315545757007487,-0.10163951665218283,-0.0851115438096556,0.002732646290813962,nan,nan,nan,nan
24.39425778388977,0.73125833,-0.5103398,-3.0247211,-0.0036727220338846414,nan,nan,nan,nan,nan,nan,14.388561010360718,14.388561010360718,0.01959967613220215,0.7495951652526855,-0.6949546933174133,0.0,-3.0,0.7312144049361727,-0.10582040631465116,-0.0687648880942381,0.001513210054494771,nan,nan,nan,nan
24.484877586364746,0.66619503,-0.46495667,-3.025574,-0.0035688691572814055,nan,nan,nan,nan,nan,nan,14.47903561592102,14.47903561592102,0.02057480812072754,0.6430348753929138,-0.6088920831680298,0.0,-3.0,0.7305625540227632,-0.10916803391577763,-0.05399624573768436,0.0031814213247153464,nan,nan,nan,nan
24.57739496231079,0.5622469,-0.38890415,-3.0274396,-0.003254829605676225,nan,nan,nan,nan,nan,nan,14.571771144866943,14.571771144866943,0.02044081687927246,0.5316587090492249,-0.5125296711921692,0.0,-3.0,0.7320723649568094,-0.07354151889371607,0.0004956968369929851,0.0038267318858251046,nan,nan,nan,nan
24.702283143997192,0.41780725,-0.27719584,-3.030738,-0.003006891681864056,nan,nan,nan,nan,nan,nan,14.694827556610107,14.694827556610107,0.0075337886810302734,0.3811453878879547,-0.37416017055511475,0.0,-3.0,0.7277474126349774,-0.1330163382145939,-0.03808258133459649,0.00244966432568559,nan,nan,nan,nan
24.80097484588623,0.30110544,-0.18281594,-3.0336459,-0.002812777121001829,nan,nan,nan,nan,nan,nan,14.793472528457642,14.793472528457642,0.006613969802856445,0.2588023245334625,-0.2566263973712921,0.0,-3.0,0.7263816127804116,-0.14349289357886844,-0.03961522814591163,0.0011069594451175383,nan,nan,nan,nan
24.90453839302063,0.17460512,-0.07789733,-3.0364668,-0.002599973379672372,nan,nan,nan,nan,nan,nan,14.897425889968872,14.897425889968872,0.0071125030517578125,0.12880921363830566,-0.12854178249835968,0.0,-3.0,0.7254248272560909,-0.150526451012019,-0.04492145311354518,-0.0002647808250558305,nan,nan,nan,nan
24.998854875564575,0.03897063,0.035858843,-3.038816,-0.002298164829797106,nan,nan,nan,nan,nan,nan,14.991310119628906,14.991310119628906,0.006976127624511719,0.010919971391558647,-0.01091980841010809,0.0,-3.0,0.7250886624893317,-0.1515477917179721,-0.05345256687457476,0.0039672431739588366,nan,nan,nan,nan
25.100611686706543,-0.07631471,0.13224612,-3.0404148,-0.0020056553995040144,nan,nan,nan,nan,nan,nan,15.093382358551025,15.093382358551025,0.008381366729736328,-0.11728041619062424,0.11707859486341476,0.0,-3.0,0.7251641063845662,-0.14237001191654075,-0.04713496078631676,0.0020784472711909835,nan,nan,nan,nan
25.199923276901245,-0.20029825,0.23385689,-3.041598,-0.0017379698303352622,nan,nan,nan,nan,nan,nan,15.19400930404663,15.19400930404663,0.006680011749267578,-0.24319593608379364,0.24139128625392914,0.0,-3.0,0.725381588265606,-0.13479438433952595,-0.04705238854609707,0.0017532384798151235,nan,nan,nan,nan
25.292094707489014,-0.31430414,0.32374388,-3.0421095,-0.0015643695598513505,nan,nan,nan,nan,nan,nan,15.285112380981445,15.285112380981445,0.010496377944946289,-0.3563695549964905,0.3506665825843811,0.0,-3.0,0.7258377550880822,-0.12752190776687586,-0.04088330141830959,0.0024644999791174267,nan,nan,nan,nan
25.402361392974854,-0.43681523,0.41503364,-3.042265,-0.0014004473508020428,nan,nan,nan,nan,nan,nan,15.395135402679443,15.395135402679443,0.007182598114013672,-0.4914564788341522,0.4763878285884857,0.0,-3.0,0.7264074769102017,-0.12018988507918531,-0.04751264896761376,-0.000701633526900479,nan,nan,nan,nan
25.498359441757202,-0.5298334,0.48041454,-3.0420945,-0.0013295619956042136,nan,nan,nan,nan,nan,nan,15.490756511688232,15.490756511688232,0.00671839714050293,-0.6069764494895935,0.5783485174179077,0.0,-3.0,0.7268218922939554,-0.11798712983103349,-0.03540763228203902,-0.005840656763805682,nan,nan,nan,nan
25.605849266052246,-0.6760076,0.5746331,-3.0413165,-0.0012439405978338786,nan,nan,nan,nan,nan,nan,15.598791122436523,15.598791122436523,0.009260177612304688,-0.7348364591598511,0.6834388971328735,0.0,-3.0,0.7276103817414915,-0.1132966804702323,-0.04121949125327636,0.0003838781094337894,nan,nan,nan,nan
25.692707538604736,-0.7651576,0.6257835,-3.0406199,-0.0013114648294591524,nan,nan,nan,nan,nan,nan,15.68570852279663,15.68570852279663,0.009829282760620117,-0.8352745175361633,0.7589420080184937,0.0,-3.0,0.7285128681136844,-0.10186378424170398,-0.05317596516843303,0.0011231340808438676,nan,nan,nan,nan
25.785463571548462,-0.86925626,0.6787621,-3.039879,-0.001329023401313835,nan,nan,nan,nan,nan,nan,15.778725862503052,15.778725862503052,0.015327930450439453,-0.9399948716163635,0.8297032117843628,0.0,-3.0,0.7291201806161574,-0.0918190967157145,-0.05657792518786181,0.0025847866112008364,nan,nan,nan,nan
25.895381689071655,-0.9446454,0.7116254,-3.0393655,-0.001377172919941362,nan,nan,nan,nan,nan,nan,15.889811992645264,15.889811992645264,0.015367984771728516,-1.0608221292495728,0.8993019461631775,0.0,-3.0,0.7294472508372927,-0.12858615123836917,-0.020503241990590032,-0.009882042418307776,nan,nan,nan,nan
25.972309589385986,-1.0565394,0.7501496,-3.038228,-0.0015478464151728669,nan,nan,nan,nan,nan,nan,15.966365337371826,15.966365337371826,0.015120983123779297,-1.1411161422729492,0.9371499419212341,0.0,-3.0,0.7300754071684002,-0.1301552077855854,-0.018047162099570448,-0.01010341754160692,nan,nan,nan,nan
26.091503858566284,-1.1324126,0.7678767,-3.0367887,-0.0017753386129906942,nan,nan,nan,nan,nan,nan,16.085773468017578,16.085773468017578,0.014657974243164062,-1.2610223293304443,0.9787805080413818,0.0,-3.0,0.731169450081087,-0.11086602346372809,-0.023182692666892955,-0.00855909084617875,nan,nan,nan,nan
26.208629846572876,-1.2747126,0.7780609,-3.032891,-0.0020892369431361885,nan,nan,nan,nan,nan,nan,16.203656673431396,16.203656673431396,0.020360469818115234,-1.3724403381347656,0.9983047246932983,0.0,-3.0,0.7322817330248405,-0.0006102557958675278,-0.05188637686075603,0.010206442301258462,nan,nan,nan,nan
26.292564630508423,-1.3348112,0.77150995,-3.030835,-0.002097486763350878,nan,nan,nan,nan,nan,nan,16.287936210632324,16.287936210632324,0.017267465591430664,-1.4475178718566895,0.9988638758659363,0.0,-3.0,0.7328742792465183,0.027928392158163475,-0.052738255120301565,0.009982278235758696,nan,nan,nan,nan
26.37559175491333,-1.3985021,0.7558935,-3.0286014,-0.0020095738617568054,nan,nan,nan,nan,nan,nan,16.370148420333862,16.370148420333862,0.01676321029663086,-1.5168453454971313,0.9886237382888794,0.0,-3.0,0.7335701594114662,0.03344960485673328,-0.04921658184862812,0.007499091557444629,nan,nan,nan,nan
26.49503469467163,-1.4587702,0.7315253,-3.0264752,-0.0019053907324794173,nan,nan,nan,nan,nan,nan,16.489625453948975,16.489625453948975,0.019565343856811523,-1.6103366613388062,0.9550042748451233,0.0,-3.0,0.7353796681114848,-0.008465782183674173,-0.04171824368983916,-0.006575150595494546,nan,nan,nan,nan
26.582709074020386,-1.5154756,0.6982961,-3.0246263,-0.0018460813553619199,nan,nan,nan,nan,nan,nan,16.577006578445435,16.577006578445435,0.01793050765991211,-1.6729978322982788,0.9167503118515015,0.0,-3.0,0.7356623913148951,0.007904142520627625,-0.04530383320213851,-0.007165579874383103,nan,nan,nan,nan
26.69979739189148,-1.6084323,0.6171097,-3.0228002,-0.0016564817599176024,nan,nan,nan,nan,nan,nan,16.694302082061768,16.694302082061768,0.014196157455444336,-1.749152660369873,0.8481428623199463,0.0,-3.0,0.7331396334123653,0.11767122436192777,-0.05011247995321336,0.010756861242753357,nan,nan,nan,nan
26.781322717666626,-1.6542907,0.5613792,-3.0225246,-0.0015483414332982809,nan,nan,nan,nan,nan,nan,16.775553941726685,16.775553941726685,0.016170024871826172,-1.7963613271713257,0.7897281646728516,0.0,-3.0,0.7331190868216947,0.11434578908411416,-0.05045817604087628,0.00768275070082859,nan,nan,nan,nan
26.90160632133484,-1.6959223,0.49923736,-3.0226822,-0.0013783289263773896,nan,nan,nan,nan,nan,nan,16.89627242088318,16.89627242088318,0.01544809341430664,-1.8578234910964966,0.6879542469978333,0.0,-3.0,0.7341515947351354,0.07225531095367457,-0.056828081207468635,-0.0056041396824927136,nan,nan,nan,nan
26.98159909248352,-1.7468257,0.40328273,-3.0235164,-0.0010768864008447385,nan,nan,nan,nan,nan,nan,16.975873947143555,16.975873947143555,0.016082048416137695,-1.8925261497497559,0.6120389103889465,0.0,-3.0,0.7332217632278681,0.08949813067622257,-0.05584984127878024,-0.005982234865713766,nan,nan,nan,nan
27.103126287460327,-1.7776175,0.32983312,-3.0248532,-0.0008085216342763393,nan,nan,nan,nan,nan,nan,17.097389459609985,17.097389459609985,0.015203714370727539,-1.9363478422164917,0.48462581634521484,0.0,-3.0,0.7321828298384877,0.10152901314698395,-0.05396499950818523,-0.005617985559491609,nan,nan,nan,nan
27.18952202796936,-1.8038367,0.25370988,-3.026398,-0.000402382281087299,nan,nan,nan,nan,nan,nan,17.18466854095459,17.18466854095459,0.02126288414001465,-1.9608732461929321,0.38596826791763306,0.0,-3.0,0.7311288537957542,0.11231808167316025,-0.04947481734993479,-0.005823150275657295,nan,nan,nan,nan
27.275381088256836,-1.8266251,0.16826272,-3.0282452,0.00011220999731096498,nan,nan,nan,nan,nan,nan,17.26979351043701,17.26979351043701,0.01540064811706543,-1.9791148900985718,0.28526797890663147,0.0,-3.0,0.7306428006311756,0.09951743483112992,-0.052715099973537835,-0.006628566414081114,nan,nan,nan,nan
27.406403064727783,-1.8516331,0.01142036,-3.0311136,0.0012866579854055506,nan,nan,nan,nan,nan,nan,17.401251554489136,17.401251554489136,0.01529073715209961,-1.9961515665054321,0.12377273291349411,0.0,-3.0,0.7281292503750205,0.135615567096236,-0.008694443728872132,0.008391832155148297,nan,nan,nan,nan
27.488065242767334,-1.8562584,-0.058723252,-3.0324683,0.001848531056424907,nan,nan,nan,nan,nan,nan,17.482452392578125,17.482452392578125,0.014831304550170898,-1.9998784065246582,0.022049186751246452,0.0,-3.0,0.7278308982795041,0.1282577373123327,-0.0010916962710270219,0.007256233232727193,nan,nan,nan,nan
27.611018657684326,-1.8554788,-0.17305773,-3.0344598,0.002726145695584439,nan,nan,nan,nan,nan,nan,17.605499029159546,17.605499029159546,0.015263795852661133,-1.995607614517212,-0.13218598067760468,0.0,-3.0,0.727428098934733,0.12233836608706182,0.007723530739892744,-0.0006410055846166155,nan,nan,nan,nan
27.693772792816162,-1.8522465,-0.21738411,-3.035171,0.0031076680426260755,nan,nan,nan,nan,nan,nan,17.688191890716553,17.688191890716553,0.015695810317993164,-1.9860345125198364,-0.2342907041311264,0.0,-3.0,0.7274442808354006,0.117744851220112,0.00278598141881234,0.0024865513426563955,nan,nan,nan,nan
27.77759838104248,-1.843338,-0.28938875,-3.0362754,0.003722733628776809,nan,nan,nan,nan,nan,nan,17.77241802215576,17.77241802215576,0.01583695411682129,-1.9707739353179932,-0.33568334579467773,0.0,-3.0,0.7277512052374334,0.10833155734177834,-0.033146218032717965,-0.010934170255927692,nan,nan,nan,nan
27.899665594100952,-1.8158612,-0.4104005,-3.0382624,0.004771825776669724,nan,nan,nan,nan,nan,nan,17.894439935684204,17.894439935684204,0.015287637710571289,-1.938892126083374,-0.47561922669410706,0.0,-3.0,0.7276754853480435,0.12142190279042461,-0.009696818384943386,-0.00047309891223154294,nan,nan,nan,nan
27.99513030052185,-1.8009667,-0.45393515,-3.0389767,0.005122955104759366,nan,nan,nan,nan,nan,nan,17.98787260055542,17.98787260055542,0.007769346237182617,-1.9067671298980713,-0.5753882527351379,0.0,-3.0,0.7276713188981727,0.12324634816602872,-0.010163767663178785,-0.002944636735363274,nan,nan,nan,nan
28.096476793289185,-1.7670577,-0.5286279,-3.04059,0.005770553211798205,nan,nan,nan,nan,nan,nan,18.089457750320435,18.089457750320435,0.010479450225830078,-1.8643889427185059,-0.6748300790786743,0.0,-3.0,0.7278011728429576,0.12468683731642707,-0.011359740827727968,-0.013611938706945598,nan,nan,nan,nan
28.19416332244873,-1.7282419,-0.5899407,-3.0416288,0.006430864080597988,nan,nan,nan,nan,nan,nan,18.186455488204956,18.186455488204956,0.006033897399902344,-1.8168355226516724,-0.7595528364181519,0.0,-3.0,0.7281727913469266,0.11405588410962168,0.0034072233697799775,-0.01432330825802081,nan,nan,nan,nan
28.290481328964233,-1.6785955,-0.64713854,-3.0422144,0.007096578451680352,nan,nan,nan,nan,nan,nan,18.28279209136963,18.28279209136963,0.008237361907958984,-1.7629282474517822,-0.8325446844100952,0.0,-3.0,0.7288494525630677,0.11342758429533349,-0.007324943959979454,-0.016001079215196095,nan,nan,nan,nan
28.39902400970459,-1.6125938,-0.69955426,-3.0418944,0.007765798857065298,nan,nan,nan,nan,nan,nan,18.391380310058594,18.391380310058594,0.007493257522583008,-1.6944350004196167,-0.9001621007919312,0.0,-3.0,0.7296846709458586,0.09207991858063509,0.009369984667937521,-0.00887930955162683,nan,nan,nan,nan
28.500579357147217,-1.5532727,-0.72937953,-3.0409439,0.008256012643086202,nan,nan,nan,nan,nan,nan,18.492892026901245,18.492892026901245,0.006268739700317383,-1.6232680082321167,-0.9482584595680237,0.0,-3.0,0.7308098466441116,0.08513616306067445,-0.00198535358363271,-0.017784227829360125,nan,nan,nan,nan
28.598978996276855,-1.4833808,-0.7497241,-3.0395124,0.008716101415540717,nan,nan,nan,nan,nan,nan,18.5920889377594,18.5920889377594,0.009056568145751953,-1.5473442077636719,-0.9803759455680847,0.0,-3.0,0.7316800224690252,0.0684174299182648,-0.0021335928732293266,-0.014011614650739784,nan,nan,nan,nan
28.687081575393677,-1.4200513,-0.7561248,-3.0382025,0.008916139267290207,nan,nan,nan,nan,nan,nan,18.681054830551147,18.681054830551147,0.007556438446044922,-1.4741307497024536,-0.9962491989135742,0.0,-3.0,0.7321968300192272,0.044890409153970544,0.006363217590128804,-0.01186611391983184,nan,nan,nan,nan
28.808881759643555,-1.3207284,-0.7475046,-3.0360475,0.008937186484230024,nan,nan,nan,nan,nan,nan,18.802632570266724,18.802632570266724,0.01310873031616211,-1.3666807413101196,-0.9978135228157043,0.0,-3.0,0.7339707658195352,0.05574684278711466,-0.028937401586333292,-0.018975380176243832,nan,nan,nan,nan
28.893943309783936,-1.2744955,-0.7371885,-3.0351524,0.00885632960316287,nan,nan,nan,nan,nan,nan,18.888189792633057,18.888189792633057,0.00917959213256836,-1.2862480878829956,-0.9849599003791809,0.0,-3.0,0.7344915223716123,0.036101282460816835,-0.024071846476149152,-0.018859396012154337,nan,nan,nan,nan
29.000990629196167,-1.1627036,-0.6989372,-3.0336552,0.008866075622020471,nan,nan,nan,nan,nan,nan,18.995157957077026,18.995157957077026,0.009300708770751953,-1.1804876327514648,-0.9529191851615906,0.0,-3.0,0.7343909871251311,-0.008726916309278944,0.0021869530808862024,-0.01836252004282541,nan,nan,nan,nan
29.080212354660034,-1.1185743,-0.67936003,-3.0332203,0.008966745704616905,nan,nan,nan,nan,nan,nan,19.07346820831299,19.07346820831299,0.01469111442565918,-1.099653959274292,-0.9185174107551575,0.0,-3.0,0.7342793524361686,-0.025416752255947587,0.007697585671711003,-0.017796242729482586,nan,nan,nan,nan
29.20715641975403,-0.9716582,-0.59947336,-3.0320837,0.009282621162060772,nan,nan,nan,nan,nan,nan,19.200928211212158,19.200928211212158,0.01591944694519043,-0.9624850153923035,-0.8437023758888245,0.0,-3.0,0.7331136541670977,-0.06074844172602963,0.026985925041907343,-0.015665630072246476,nan,nan,nan,nan
29.28110671043396,-0.89036494,-0.5475175,-3.0319064,0.009302611791445509,nan,nan,nan,nan,nan,nan,19.275525093078613,19.275525093078613,0.02382683753967285,-0.8792857527732849,-0.7897503972053528,0.0,-3.0,0.7325534637626236,-0.06835864395032158,0.029002133306168236,-0.014621539198687004,nan,nan,nan,nan
29.385987520217896,-0.7976721,-0.48363805,-3.0322971,0.009167172107243056,nan,nan,nan,nan,nan,nan,19.38007140159607,19.38007140159607,0.02386617660522461,-0.7594751715660095,-0.7025861144065857,0.0,-3.0,0.7325141569587046,-0.06472797295541685,0.017646404012437323,-0.014438299492957218,nan,nan,nan,nan
29.48794937133789,-0.701668,-0.4134138,-3.0333729,0.008782828490161557,nan,nan,nan,nan,nan,nan,19.4816153049469,19.4816153049469,0.018011093139648438,-0.6399644017219543,-0.6063173413276672,0.0,-3.0,0.731960619021805,-0.06531880071660177,0.011077467919750672,-0.015174736620006924,nan,nan,nan,nan
29.578898429870605,-0.6112299,-0.34457326,-3.035272,0.008247309470960584,nan,nan,nan,nan,nan,nan,19.573295831680298,19.573295831680298,0.02079153060913086,-0.529811441898346,-0.5108835697174072,0.0,-3.0,0.7305010184946381,-0.08983818839714962,0.0311689200322339,-0.016601918146422843,nan,nan,nan,nan
29.67051911354065,-0.49822232,-0.25621843,-3.0385199,0.007691379004764555,nan,nan,nan,nan,nan,nan,19.66488289833069,19.66488289833069,0.019690990447998047,-0.4180156886577606,-0.4087833762168884,0.0,-3.0,0.7291717004419688,-0.11691732364965951,0.05234471051456207,-0.017237129038265672,nan,nan,nan,nan
29.81005620956421,-0.3907682,-0.17038971,-3.042477,0.0073469111558859546,nan,nan,nan,nan,nan,nan,19.804454565048218,19.804454565048218,0.02002859115600586,-0.2451118677854538,-0.2432641088962555,0.0,-3.0,0.7292667317846859,-0.1264670927634401,0.04308092054522937,-0.005306130328730333,nan,nan,nan,nan
29.90145707130432,-0.22832221,-0.03863052,-3.0486493,0.00726354944920787,nan,nan,nan,nan,nan,nan,19.89681339263916,19.89681339263916,0.020141124725341797,-0.12957729399204254,-0.12930504977703094,0.0,-3.0,0.7263608152814924,-0.1707483483846343,0.0821539809787646,-0.0019975490805139635,nan,nan,nan,nan
