time,x,y,z,yaw,platform,trajectory,controller,feedforward,traj_time,comp_time,vx,vy,vz,roll,pitch,f,p,q,r,x_ref,y_ref,z_ref,yaw_ref,vx_ref,vy_ref,vz_ref,roll_ref,pitch_ref,f_ref,u_ff_df,u_ff_dphi,u_ff_dpsi,u_ff_dth,throttle,p_cmd,q_cmd,r_cmd
10.00090503692627,-0.0059620366,0.0116548175,-2.634156,0.012834282442309775,SIM,figure_eight,contraction,1.0,1.1920928955078125e-06,0.000247955322265625,0.0013129626,-0.020196566,-0.19537552,-0.004905281988667736,0.0001652793720232637,9.810839610099793,0.008398437,-0.004787867,-0.02136881,1.4980282e-06,1.4980282e-06,-3.0,0.0,1.2566371,1.2566371,0.0,-2.411408e-07,6.02852e-08,9.81,5.0842783e-07,-0.20228358,0.0,0.050570894,0.7379858940752086,1.6591976881027222,-1.785685658454895,-0.023545952513813972
10.113418102264404,-0.0074148295,0.008038324,-2.6524725,0.010206927007575734,nan,nan,nan,nan,0.11253237724304199,0.00036263465881347656,0.0022558712,-0.018357921,-0.20047681,0.0038609511438860225,-0.011706232876659506,9.80517268307507,0.19948728,-0.20487203,-0.018698273,0.14129457,0.14094152,-3.0,0.0,1.2534972,1.2440933,0.0,-0.022683768,0.0056845983,9.812683,0.047372915,-0.20016134,0.0,0.050404117,0.7377698374519881,1.879130482673645,-2.139005422592163,-0.0233142152428627
10.201021909713745,-0.0071150935,0.006768024,-2.6693282,0.006636153221875284,nan,nan,nan,nan,0.20015597343444824,0.00022339820861816406,0.03054575,0.004453562,-0.2406184,0.06312508991256138,-0.09367235229057624,9.69608105815947,1.3838493,-1.904705,-5.5094017e-05,0.25086093,0.24887975,-3.0,0.0,1.2467127,1.2170962,0.0,-0.040041294,0.010086972,9.818369,0.0818979,-0.19560464,0.0,0.05004715,0.7335983862752231,1.5483371019363403,-1.6626455783843994,0.07322478294372559
10.301089763641357,0.0026868542,0.013598249,-2.691856,-0.017091748789694425,nan,nan,nan,nan,0.3002650737762451,0.000301361083984375,0.2031368,0.14198643,-0.2436013,0.22032172699160496,-0.26618666053849327,9.653362434729933,1.4578536,-1.3809795,0.013192302,0.37508982,0.36843425,-3.0,0.0,1.2343394,1.1682374,0.0,-0.059238262,0.015067136,9.828354,0.11654875,-0.18739456,0.0,0.049407747,0.7319585193873471,0.40259307622909546,-0.27734920382499695,0.34167248010635376
10.400893449783325,0.043873787,0.046363447,-2.7133782,-0.02895342230016304,nan,nan,nan,nan,0.40003466606140137,0.0002491474151611328,0.517803,0.42885676,-0.1780607,0.3152822503413649,-0.32554625843527507,9.773255029544229,0.19603683,0.22442801,0.077432916,0.497422,0.48179188,-3.0,0.0,1.2171507,1.101173,0.0,-0.07740014,0.01995519,9.841418,0.14401829,-0.17619841,0.0,0.048543133,0.7365517807197898,-0.8388419151306152,0.8044312596321106,0.33913326263427734
10.50097393989563,0.118628755,0.10925086,-2.7263546,0.0032862330446311594,nan,nan,nan,nan,0.5001201629638672,0.00022721290588378906,0.80306673,0.7214835,-0.119899414,0.2676212899197298,-0.2681796567798327,9.87823438368737,-0.94346565,1.0021408,0.15494226,0.6181776,0.5879074,-3.0,0.0,1.1951035,1.0165292,0.0,-0.094355695,0.024761625,9.8568535,0.16287394,-0.16218038,0.0,0.04747142,0.7405506115517242,-1.3687256574630737,0.979289174079895,0.01350441575050354
10.601465702056885,0.23494908,0.20856638,-2.7358308,0.036692675527256434,nan,nan,nan,nan,0.6008045673370361,0.000278472900390625,1.0339603,0.94101095,-0.11008119,0.12521448489107703,-0.16882973863717643,9.90411913745105,-1.4174379,0.89702195,0.17521843,0.7371891,0.6852838,-3.0,0.0,1.1681576,0.91517884,0.0,-0.10986738,0.029479314,9.873797,0.17198445,-0.14554718,0.0,0.046213143,0.7415333330878656,-1.0618946552276611,0.586262047290802,-0.1829732060432434
10.700920343399048,0.36533806,0.31251115,-2.7460835,0.03416997745196787,nan,nan,nan,nan,0.700078010559082,0.0003762245178222656,1.1859351,0.99056804,-0.13429278,-0.007424252863135141,-0.1058252468444334,9.872101866528391,-1.1582007,0.5455434,0.120287195,0.8516473,0.77057576,-3.0,0.0,1.1370131,0.80091566,0.0,-0.12341087,0.033999108,9.890898,0.17085709,-0.1269715,0.0,0.044821326,0.7403176003217401,-0.49812251329421997,0.39098477363586426,-0.07407072186470032
10.8018319606781,0.5216416,0.417605,-2.7610538,0.006525742770041233,nan,nan,nan,nan,0.800987958908081,0.00024580955505371094,1.306769,0.9046221,-0.16067398,-0.1004881622915165,-0.06388430356941144,9.819882094189525,-0.5524704,0.4335376,0.05270729,0.9645951,0.8449925,-3.0,0.0,1.1008234,0.6720221,0.0,-0.13519059,0.038445093,9.907656,0.1596276,-0.10621176,0.0,0.04327655,0.7383305176266897,-0.042746126651763916,0.42768657207489014,0.07415910065174103
10.90135669708252,0.6601715,0.48957765,-2.7762713,-0.02563835065021832,nan,nan,nan,nan,0.9005327224731445,0.00032138824462890625,1.3681824,0.7726713,-0.17658985,-0.12899551879665236,-0.026949794921577563,9.76940388374031,-0.12873664,0.45691675,0.023897804,1.0722188,0.9051119,-3.0,0.0,1.0607884,0.53428876,0.0,-0.14467977,0.042672597,9.922609,0.13939747,-0.08421785,0.0,0.04164348,0.7364046770662089,0.06996870040893555,0.402933806180954,0.15346908569335938
11.001053810119629,0.82302153,0.55063874,-2.7961395,-0.06129254479240593,nan,nan,nan,nan,1.0002367496490479,0.0003104209899902344,1.377089,0.6048661,-0.19012035,-0.12899713968776966,0.021226948170209203,9.727065679654483,0.06827046,0.4062642,0.03411802,1.1758113,0.95114845,-3.0,0.0,1.0165309,0.38796657,0.0,-0.15192856,0.04673909,9.935168,0.11137051,-0.06102134,0.0,0.03991275,0.7347855533952609,0.024702217429876328,0.27112510800361633,0.24212679266929626
11.101079940795898,0.9647293,0.58675915,-2.815271,-0.08321547395475977,nan,nan,nan,nan,1.1002678871154785,0.00025391578674316406,1.3251033,0.46348768,-0.19890542,-0.12155831940991417,0.058698093684070196,9.694509569332007,0.04231549,0.27499202,0.072222285,1.2751074,0.9823503,-3.0,0.0,0.96812063,0.23505464,0.0,-0.15683241,0.05064108,9.944644,0.077247605,-0.036914196,0.0,0.03808825,0.7335381246137682,-0.09365154802799225,0.10791034996509552,0.3052288889884949
11.201106071472168,1.1019905,0.6084732,-2.83658,-0.09156170444577001,nan,nan,nan,nan,1.2003090381622314,0.00022840499877929688,1.2229575,0.32641855,-0.2042641,-0.12053705905952107,0.082201622309507,9.664475394710902,-0.062107187,0.07919494,0.1316244,1.3693774,0.99805105,-3.0,0.0,0.915882,0.07841777,0.0,-0.15929718,0.054356582,9.950494,0.03925816,-0.012305459,0.0,0.03617655,0.7323854682219595,-0.15854409337043762,-0.03402554616332054,0.33941471576690674
11.301107406616211,1.2105107,0.6161796,-2.8564343,-0.08509730104980481,nan,nan,nan,nan,1.3003756999969482,0.0002465248107910156,1.108699,0.20543438,-0.20495369,-0.12716821722129465,0.08731176084365555,9.636158179864292,-0.12399056,-0.05708594,0.1920444,1.4582604,0.997997,-3.0,0.0,0.860011,-0.079497024,0.0,-0.1592887,0.057877187,9.952449,-0.00023935598,0.012474852,0.0,0.034172703,0.7312970640647065,-0.1699351817369461,-0.10780370235443115,0.32987460494041443
11.401545524597168,1.3085812,0.6122843,-2.8777592,-0.06619487818307601,nan,nan,nan,nan,1.4007742404937744,0.000244140625,0.983623,0.06943622,-0.20240955,-0.1378239162357012,0.08177931740194455,9.607532736286526,-0.13412441,-0.13092609,0.24354951,1.5416465,0.9821045,-3.0,0.0,0.8005395,-0.23667124,0.0,-0.15679382,0.061202955,9.950464,-0.038919933,0.03716853,0.0,0.03206063,0.7301951861436887,-0.11104835569858551,-0.13132444024085999,0.27157479524612427
11.514266729354858,1.3784624,0.5986608,-2.8952854,-0.04460794736038305,nan,nan,nan,nan,1.5135235786437988,0.00019502639770507812,0.88639516,-0.052961193,-0.19772612,-0.14602625710933487,0.07328836498082314,9.575471835955986,-0.11322176,-0.15140665,0.27172282,1.6279645,0.9456679,-3.0,0.0,0.7299676,-0.4085756,0.0,-0.15106644,0.06467777,9.943804,-0.078268446,0.06427976,0.0,0.029551348,0.728959116694428,-0.10833906382322311,-0.12432045489549637,0.2097824215888977
11.601264476776123,1.4436153,0.572199,-2.913492,-0.019172332352148325,nan,nan,nan,nan,1.6005778312683105,0.0002739429473876953,0.7935196,-0.19333251,-0.1896459,-0.15258310485135715,0.06393933975450161,9.549898837730296,-0.064513594,-0.13180655,0.27566266,1.6890448,0.90451765,-3.0,0.0,0.6729546,-0.5358755,0.0,-0.14458612,0.06716187,9.935842,-0.10382143,0.08447026,0.0,0.027502002,0.7279716961998374,-0.001089826226234436,-0.0912928655743599,0.11237172782421112
11.701174259185791,1.5040565,0.52901435,-2.9317324,0.00657724959373876,nan,nan,nan,nan,1.7003772258758545,0.00031495094299316406,0.707305,-0.3492657,-0.17885411,-0.1528934742324768,0.056634426666522186,9.522439530715353,0.022755682,-0.09578942,0.24876645,1.7528417,0.8440738,-3.0,0.0,0.60512847,-0.6738428,0.0,-0.1350454,0.069783926,9.9242935,-0.12625785,0.106503725,0.0,0.02501973,0.7269099687741216,0.0853559821844101,-0.05380440503358841,0.012922417372465134
11.80336308479309,1.5528827,0.47559497,-2.9471653,0.02600691912055831,nan,nan,nan,nan,1.8030073642730713,0.0003223419189453125,0.6383756,-0.4893232,-0.1679597,-0.14661760123139858,0.05275893702542733,9.49997779451311,0.0748303,-0.05890029,0.20208979,1.81126,0.76809883,-3.0,0.0,0.5329006,-0.8046641,0.0,-0.12301817,0.07221396,9.910531,-0.1403365,0.12757817,0.0,0.022307824,0.7260403360625375,0.12345857173204422,-0.01597626879811287,-0.06421100348234177
11.901209831237793,1.6004586,0.4037978,-2.962546,0.04108245832876952,nan,nan,nan,nan,1.9004721641540527,0.0002446174621582031,0.5717958,-0.6311791,-0.15577212,-0.13537193889239998,0.0517963726638111,9.47129749231041,0.12584026,-0.013762922,0.13300148,1.8597714,0.6841144,-3.0,0.0,0.4622523,-0.9165594,0.0,-0.10968141,0.07425634,9.896577,-0.14445661,0.14577273,0.0,0.019576542,0.724928448413015,0.18592853844165802,0.01150134950876236,-0.1302589476108551
12.00142502784729,1.6400747,0.32516626,-2.9757159,0.04589073358261846,nan,nan,nan,nan,2.000662088394165,0.0003457069396972656,0.5121027,-0.74836963,-0.14346813,-0.12050427838683464,0.05340339949682549,9.447917532399302,0.18333864,0.012016474,0.0629955,1.90237,0.58711183,-3.0,0.0,0.38782492,-1.0172551,0.0,-0.094228774,0.07607044,9.882294,-0.13907096,0.16230008,0.0,0.016610604,0.7240208000880541,0.2101907730102539,0.030429299920797348,-0.1549723893404007
12.102585554122925,1.678482,0.22943516,-2.9884622,0.04160830927469373,nan,nan,nan,nan,2.1020658016204834,0.00030994415283203125,0.44563946,-0.8540867,-0.12970115,-0.09940237448031067,0.05656522481625115,9.431536504402763,0.22267722,0.030706897,-0.008640677,1.9378103,0.47947714,-3.0,0.0,0.3109328,-1.1027673,0.0,-0.07702975,0.07759601,9.868873,-0.12408987,0.17646362,0.0,0.013453419,0.7233841925160507,0.22122296690940857,0.034760039299726486,-0.14301124215126038
12.200982093811035,1.7097014,0.13405254,-2.99853,0.030976863955574818,nan,nan,nan,nan,2.2001755237579346,0.00019979476928710938,0.38165918,-0.9288108,-0.11713721,-0.07794576355422174,0.0601611952143255,9.4173084242642,0.22927867,0.04323616,-0.060204655,1.9646158,0.36791933,-3.0,0.0,0.2353341,-1.1684937,0.0,-0.059155665,0.07876055,9.857749,-0.1014431,0.18743749,0.0,0.0102661755,0.7228308050926566,0.2103690207004547,0.03630203753709793,-0.10491634905338287
12.303355693817139,1.7387966,0.025980545,-3.0075114,0.01608784825610135,nan,nan,nan,nan,2.3028452396392822,0.0003731250762939453,0.31005985,-0.98418707,-0.10254636,-0.05439609278840822,0.06401412298307996,9.410959850102671,0.23595098,0.036624297,-0.09482076,1.9846743,0.24522509,-3.0,0.0,0.15526927,-1.2182671,0.0,-0.039453924,0.07963838,9.848856,-0.07076517,0.19580197,0.0,0.0068170684,0.7225837485630776,0.1911412924528122,0.03508733585476875,-0.048961810767650604
12.402836084365845,1.7608688,-0.07555523,-3.014469,0.002060427798003117,nan,nan,nan,nan,2.402066230773926,0.0002894401550292969,0.24278602,-1.0107707,-0.08930787,-0.03273067744681028,0.06734407632647033,9.409981942996389,0.2281192,0.041661832,-0.10195829,1.9962149,0.12275664,-3.0,0.0,0.07727652,-1.2471329,0.0,-0.019757828,0.08014603,9.843513,-0.03634107,0.20067531,0.0,0.0034057598,0.7225456856302543,0.15764032304286957,0.04241083189845085,0.005269767716526985
12.50137734413147,1.7778229,-0.17662604,-3.0201728,-0.010351700396959424,nan,nan,nan,nan,2.5006563663482666,0.0002810955047607422,0.1742957,-1.0156662,-0.07569425,-0.01292997717722866,0.07154258044578654,9.416877988576895,0.20014681,0.05024252,-0.089404404,1.9999999,-0.0008250156,-3.0,0.0,-0.0005183727,-1.2566366,0.0,0.00013280452,0.080312945,9.841723,0.00024626995,0.2022835,0.0,-2.28749e-05,0.7228140572002896,0.12397333979606628,0.04331265762448311,0.054039668291807175
12.601403713226318,1.7892554,-0.28385225,-3.0248704,-0.02041452472223791,nan,nan,nan,nan,2.6006100177764893,0.0003044605255126953,0.09744642,-0.9998062,-0.06106065,0.00543381097765777,0.07611724772884498,9.430309043675663,0.1652144,0.049641587,-0.05952971,1.9960052,-0.1260938,-3.0,0.0,-0.079385646,-1.2466071,0.0,0.020294802,0.080136776,9.843612,0.037311837,0.2005864,0.0,-0.0034984688,0.7233364680766309,0.09867814183235168,0.031399376690387726,0.09345449507236481
12.701268196105957,1.7926879,-0.3791773,-3.0279813,-0.026030917249469127,nan,nan,nan,nan,2.7005789279937744,0.00032591819763183594,0.023647932,-0.9690449,-0.047834087,0.01976329583751532,0.07979157992602937,9.45075373247266,0.13838035,0.033860985,-0.02351819,1.9841381,-0.24939457,-3.0,0.0,-0.15795194,-1.2169298,0.0,0.04012403,0.07961484,9.8491,0.071882136,0.19557661,0.0,-0.0069336374,0.7241309658269909,0.08421546220779419,0.028049640357494354,0.11587495356798172
12.802243709564209,1.7893373,-0.4693763,-3.0298135,-0.027856014198932535,nan,nan,nan,nan,2.8017640113830566,0.0004475116729736328,-0.05129939,-0.9246952,-0.03547095,0.03205240865490036,0.08252763608670377,9.47692994594574,0.11994476,0.0256619,0.015171506,1.9641579,-0.37018478,-3.0,0.0,-0.23683837,-1.1673633,0.0,0.05951906,0.078740574,9.857946,0.10195982,0.18724805,0.0,-0.010330312,0.7251469419815222,0.0815490186214447,0.02819429710507393,0.12279903888702393
12.902117490768433,1.7803324,-0.5467758,-3.0305884,-0.026377486563220476,nan,nan,nan,nan,2.9016480445861816,0.0003814697265625,-0.120960124,-0.8742434,-0.025321355,0.042262581921375275,0.08430248335287893,9.507318737208843,0.10771543,0.019438932,0.044749107,1.9366502,-0.48356766,-3.0,0.0,-0.31377324,-1.0999433,0.0,0.077684276,0.07754582,9.869335,0.1247976,0.17599386,0.0,-0.013571642,0.7263246623333842,0.09247083961963654,0.042152125388383865,0.1165425032377243
13.002379179000854,1.7624781,-0.63117355,-3.03067,-0.02103309277433472,nan,nan,nan,nan,3.0019478797912598,0.000423431396484375,-0.20386344,-0.80411214,-0.015695933,0.054179215259894734,0.08698048162036276,9.532604027688503,0.11103312,0.0406433,0.07356407,1.9013551,-0.58976394,-3.0,0.0,-0.38978475,-1.0148296,0.0,0.09465189,0.07602698,9.882656,0.13933313,0.16190015,0.0,-0.016689865,0.727303162206812,0.10112670063972473,0.02402724139392376,0.09130025655031204
13.102777242660522,1.7385,-0.7013324,-3.0300722,-0.013810279241688563,nan,nan,nan,nan,3.102470874786377,0.0003840923309326172,-0.28282246,-0.72913164,-0.0078979395,0.06584918313119958,0.0895599491698642,9.565141505897047,0.11199261,0.014318871,0.08669734,1.8584076,-0.68680733,-3.0,0.0,-0.4644124,-0.91337353,0.0,0.110109694,0.07419859,9.897002,0.14446771,0.1452523,0.0,-0.019661263,0.7285604025795377,0.11160259693861008,0.011638760566711426,0.05815650522708893
13.202944040298462,1.7035769,-0.7682238,-3.0291307,-0.005097884843715553,nan,nan,nan,nan,3.2024145126342773,0.00037550926208496094,-0.36921817,-0.63715285,-0.0017885037,0.07834536708847986,0.08906586639834813,9.596383016109463,0.11130071,-0.0034521555,0.08852311,1.8083601,-0.77244383,-3.0,0.0,-0.5367745,-0.79806894,0.0,0.123707,0.072092615,9.91129,0.13983782,0.1265109,0.0,-0.022455277,0.7297655563287343,0.11371269822120667,-0.002827400341629982,0.020850714296102524
13.302040100097656,1.663199,-0.8199986,-3.0280335,0.002352562340588435,nan,nan,nan,nan,3.3012449741363525,0.0002944469451904297,-0.44800705,-0.54178,0.0020300078,0.09018196957023489,0.08820394429931921,9.624486355483528,0.11621261,-0.0031422542,0.07792151,1.751859,-0.8451653,-3.0,0.0,-0.6062509,-0.6716787,0.0,0.1352179,0.06974329,9.924499,0.12595896,0.10615671,0.0,-0.025061278,0.7308479789314152,0.11527060717344284,-0.007493330165743828,-0.011625904589891434
13.402129650115967,1.6151799,-0.8609956,-3.026796,0.008051784110066372,nan,nan,nan,nan,3.401620626449585,0.00035643577575683594,-0.52565813,-0.43585867,0.004672188,0.10177963698455761,0.08677931545452244,9.64966543346643,0.11245078,-0.010262464,0.05814813,1.6875635,-0.90569246,-3.0,0.0,-0.67442006,-0.5327329,0.0,0.1447713,0.06710135,9.9360695,0.10323957,0.08397037,0.0,-0.027555047,0.731816429815967,0.10968849807977676,-0.010815134271979332,-0.036149293184280396
13.502622365951538,1.559524,-0.8909335,-3.0250597,0.011684204021674242,nan,nan,nan,nan,3.502140522003174,0.0003235340118408203,-0.60186034,-0.32090542,0.0068131345,0.11236373260577531,0.08472196631898554,9.670111616104839,0.10018624,-0.02069178,0.034292307,1.6164513,-0.9518844,-3.0,0.0,-0.73999953,-0.38510567,0.0,0.15204431,0.06421206,9.944989,0.07317169,0.06056921,0.0,-0.029909376,0.7326019124060931,0.09832893311977386,-0.015395957976579666,-0.05225876718759537
13.601553678512573,1.4911481,-0.9108157,-3.022809,0.0133365663543887,nan,nan,nan,nan,3.6008291244506836,0.00034165382385253906,-0.68155885,-0.18809667,0.007965652,0.12216183235398642,0.08191950626583,9.685478812456127,0.07689253,-0.034449924,0.0069507067,1.5403622,-0.98248196,-3.0,0.0,-0.80151486,-0.23418418,0.0,0.15685311,0.061151523,9.950526,0.038322292,0.036777254,0.0,-0.032095224,0.7331917287256497,0.06060532107949257,-0.038677945733070374,-0.06074800342321396
13.702530145645142,1.421029,-0.9169223,-3.0205374,0.012965346130783637,nan,nan,nan,nan,3.702115774154663,0.0003795623779296875,-0.7517276,-0.06043717,0.008562907,0.1281424900029695,0.07792677878057952,9.695733504295346,0.0494935,-0.049511824,-0.014561859,1.4561158,-0.99819016,-3.0,0.0,-0.8614443,-0.07557003,0.0,0.15931901,0.057791978,9.952448,-0.0007427591,0.011858502,0.0,-0.034223776,0.7335850590965964,0.052033789455890656,-0.03467566892504692,-0.05965203046798706
13.801318645477295,1.3380781,-0.9098298,-3.01781,0.010897791767592105,nan,nan,nan,nan,3.8005378246307373,0.00031185150146484375,-0.8222778,0.08098004,0.008470175,0.1318434039147442,0.07305522996561797,9.69947165649384,0.024665836,-0.053927854,-0.03310643,1.3686012,-0.99798405,-3.0,0.0,-0.91633976,0.07975293,0.0,0.15928666,0.05432593,9.95046,-0.039589588,-0.012515017,0.0,-0.03619311,0.7337283884411253,0.0185907743871212,-0.046795040369033813,-0.05197279900312424
13.902320146560669,1.2556938,-0.89050055,-3.015634,0.007917623247413588,nan,nan,nan,nan,3.901820659637451,0.00047779083251953125,-0.88251346,0.21203579,0.0075265667,0.1328736411768675,0.06830102814858896,9.69690929152071,0.0051958216,-0.056390215,-0.044725277,1.2730843,-0.981856,-3.0,0.0,-0.9691713,0.23829389,0.0,0.15675479,0.05056148,9.944482,-0.07800753,-0.03742382,0.0,-0.038127236,0.7336301444585486,0.012352898716926575,-0.03582985699176788,-0.03929179161787033
14.017840147018433,1.1604375,-0.8557512,-3.0136845,0.004283077770622423,nan,nan,nan,nan,4.017151832580566,0.0002777576446533203,-0.9416703,0.35233572,0.006810495,0.13215811157815524,0.06355922593802776,9.69070854257792,-0.012353463,-0.051295377,-0.048861317,1.1580653,-0.94417566,-3.0,0.0,-1.0245417,0.4139895,0.0,0.15083165,0.046042375,9.933185,-0.11674436,-0.06513615,0.0,-0.04022104,0.7333923469772805,0.013891391456127167,-0.014491099864244461,-0.022980596870183945
14.10118317604065,1.0668423,-0.81104875,-3.012321,0.0009825133627542892,nan,nan,nan,nan,4.100393533706665,0.0002665519714355469,-0.9914926,0.47906318,0.0050492953,0.1297506447231831,0.05955770519415693,9.679785142503674,-0.02956794,-0.046995584,-0.047956005,1.0712363,-0.90461653,-3.0,0.0,-1.0611801,0.5356119,0.0,0.14460169,0.04263402,9.922481,-0.13962379,-0.08442833,0.0,-0.041659124,0.7329732516345134,-0.043784886598587036,-0.04212354123592377,-0.01198122650384903
14.20153522491455,0.9597226,-0.7492905,-3.0111625,-0.0022353890316409303,nan,nan,nan,nan,4.2007527351379395,0.0002868175506591797,-1.0407648,0.6110508,0.0037318629,0.12426512951849876,0.05467811638943476,9.667351705767208,-0.06685952,-0.0537561,-0.040344466,0.962678,-0.8438205,-3.0,0.0,-1.1014858,0.6743435,0.0,0.13500535,0.038369726,9.907377,-0.15990373,-0.10658403,0.0,-0.043304194,0.7324959332285452,-0.08104517310857773,-0.05130612477660179,0.0001180507242679596
14.31159234046936,0.8563792,-0.6806924,-3.0104702,-0.005279927015398873,nan,nan,nan,nan,4.310884714126587,0.0002410411834716797,-1.0803409,0.7260543,0.0020769276,0.11690582787305087,0.05017512799059398,9.64755994278937,-0.09523815,-0.057299607,-0.033203196,0.83916265,-0.7617228,-3.0,0.0,-1.1406718,0.814179,0.0,0.12200714,0.03350687,9.889021,-0.17147385,-0.12911887,0.0,-0.04498164,0.73173549577761,-0.07858562469482422,-0.026342276483774185,0.013963092118501663
14.401018142700195,0.74041045,-0.5946237,-3.010401,-0.008387379019489785,nan,nan,nan,nan,4.400238513946533,0.0002155303955078125,-1.1165226,0.8402699,0.00017690822,0.1054556453152536,0.04470173104705988,9.62963291469961,-0.123539574,-0.054647174,-0.021645961,0.7359704,-0.68432856,-3.0,0.0,-1.168461,0.9163069,0.0,0.10971548,0.029431097,9.873618,-0.17194283,-0.14573148,0.0,-0.046227016,0.731046031496319,-0.13011564314365387,-0.04915723204612732,0.02533669024705887
14.50145673751831,0.6393629,-0.513774,-3.0110517,-0.010285300303145478,nan,nan,nan,nan,4.500716924667358,0.00029397010803222656,-1.1424295,0.9247287,-0.0017092736,0.0935547376977164,0.04013290600816166,9.609247300662092,-0.14091085,-0.047610782,-0.010423834,0.6171769,-0.587056,-3.0,0.0,-1.1953077,1.017306,0.0,0.09421986,0.024721868,9.856718,-0.16275568,-0.16230848,0.0,-0.047481164,0.7302612309709837,-0.11807898432016373,-0.02372647076845169,0.0346682108938694
14.601152420043945,0.5264688,-0.41875026,-3.0123153,-0.01096368464269714,nan,nan,nan,nan,4.600354194641113,0.0002830028533935547,-1.1667843,1.0028417,-0.0037719193,0.07981836605553819,0.03626956481282928,9.590078012086444,-0.14609268,-0.036182072,0.0017220539,0.49694842,-0.4813634,-3.0,0.0,-1.2172271,1.1014689,0.0,0.07733157,0.019936305,9.841362,-0.14392711,-0.17624763,0.0,-0.048546914,0.7295224964605768,-0.12599068880081177,-0.02396056428551674,0.0356079526245594
14.701237916946411,0.40105933,-0.3099887,-3.014126,-0.009314915228277501,nan,nan,nan,nan,4.7004547119140625,0.0002930164337158203,-1.1907861,1.0693744,-0.005215806,0.06404982907527908,0.03218492426282693,9.572794147469097,-0.15732034,-0.041621316,0.012068608,0.374201,-0.3675929,-3.0,0.0,-1.2344458,1.168656,0.0,0.059103295,0.015031558,9.82827,-0.11632261,-0.18746465,0.0,-0.049413186,0.7288557880698149,-0.1427711397409439,-0.04511943832039833,0.025124989449977875
14.801059246063232,0.28262773,-0.20600264,-3.0158067,-0.006022916786728314,nan,nan,nan,nan,4.800255298614502,0.00019788742065429688,-1.2097467,1.1136563,-0.0059793117,0.04855660108708011,0.02759149177247222,9.558861569352441,-0.16546768,-0.055316456,0.018670749,0.250348,-0.24837898,-3.0,0.0,-1.2467535,1.2172577,0.0,0.039960813,0.010066381,9.818336,-0.081743576,-0.19563186,0.0,-0.050049283,0.7283179140606293,-0.14405415952205658,-0.05245160311460495,0.009656120091676712
14.90110993385315,0.15156062,-0.09178842,-3.0172832,-0.0011822913577733928,nan,nan,nan,nan,4.900298833847046,0.00024127960205078125,-1.2262781,1.1422276,-0.0063134837,0.030812003711324507,0.0210706805811387,9.54895949851721,-0.1737747,-0.07187296,0.020461405,0.1252059,-0.12496032,-3.0,0.0,-1.2541722,1.2467873,0.0,0.02011242,0.0050376044,9.812109,-0.042089365,-0.20061685,0.0,-0.05043989,0.7279354014279692,-0.1452503800392151,-0.06776495277881622,-0.010712488554418087
15.001840591430664,0.028626924,0.0136114415,-3.01832,0.00353917533619111,nan,nan,nan,nan,5.001295328140259,0.00038313865661621094,-1.2356793,1.1509261,-0.0060575,0.014228037484238206,0.014182066738092747,9.543604275099927,-0.17045784,-0.07187204,0.014608984,-0.0016276198,0.0016276194,-3.0,0.0,-1.2566366,1.2566354,0.0,-0.00026200135,-6.550037e-05,9.81,0.00055241014,-0.20228331,0.0,-0.05057087,0.7277284488715632,-0.13652995228767395,-0.06373618543148041,-0.02836591936647892
15.105406045913696,-0.1052503,0.12652339,-3.019213,0.007821292634225045,nan,nan,nan,nan,5.105331182479858,0.0005834102630615234,-1.2380972,1.1423523,-0.005095407,-0.0032316465339570447,0.006393884028383701,9.544492272273628,-0.16283132,-0.07710754,0.0055012363,-0.1322669,0.13197733,-3.0,0.0,-1.253886,1.2456449,0.0,-0.02124148,-0.00532157,9.812353,0.044413432,-0.20042369,0.0,-0.050424714,0.72776276952866,-0.13378380239009857,-0.06163720414042473,-0.043299946933984756
15.20102834701538,-0.21799192,0.21934295,-3.02017,0.010177889523751277,nan,nan,nan,nan,5.200223684310913,0.0002372264862060547,-1.233294,1.1209033,-0.004428364,-0.017293615948204524,0.00029767767996524697,9.549715411704955,-0.15381713,-0.05929958,-0.0056786044,-0.25094587,0.24896264,-3.0,0.0,-1.2467059,1.2170695,0.0,-0.040054616,-0.010090381,9.818375,0.08192343,-0.19560014,0.0,-0.050046798,0.7279646090114106,-0.13434912264347076,-0.04925538972020149,-0.05079413950443268
15.301265239715576,-0.34878463,0.3241021,-3.0214925,0.01110747960021093,nan,nan,nan,nan,5.30046534538269,0.0002675056457519531,-1.2200837,1.0793171,-0.0036360163,-0.03344295688905759,-0.00526538093373663,9.557921579447564,-0.15262048,-0.04939259,-0.020056497,-0.37533766,0.3686688,-3.0,0.0,-1.2343096,1.1681206,0.0,-0.059275888,-0.015077055,9.828378,0.11661173,-0.18737498,0.0,-0.049406227,0.7282816111785673,-0.13585790991783142,-0.053271401673555374,-0.05365850403904915
15.402323722839355,-0.4660787,0.41455808,-3.0226586,0.01011765364500607,nan,nan,nan,nan,5.401773452758789,0.0005354881286621094,-1.2008547,1.0258571,-0.0031716141,-0.04826235017931818,-0.010421784332198536,9.570416919258413,-0.15179574,-0.054010734,-0.030702166,-0.4995381,0.48370546,-3.0,0.0,-1.2168086,1.0998476,0.0,-0.077706315,-0.020039583,9.841669,0.14442416,-0.17597793,0.0,-0.04852619,0.7287640417179273,-0.13628408312797546,-0.03874431923031807,-0.04972345754504204
15.501291751861572,-0.5701027,0.4913744,-3.0236838,0.007893730359796017,nan,nan,nan,nan,5.500511884689331,0.0003628730773925781,-1.1776357,0.96476454,-0.0026567203,-0.06171842306463794,-0.014575166980737464,9.586611380991512,-0.15011771,-0.03470542,-0.038855284,-0.61864614,0.5883059,-3.0,0.0,-1.1950078,1.0161651,0.0,-0.09441928,-0.024780234,9.856917,0.16292912,-0.16212036,0.0,-0.047466855,0.7293888227095325,-0.14074313640594482,-0.017701078206300735,-0.04269196838140488
15.601516962051392,-0.68838936,0.5735118,-3.0247974,0.004016664028818007,nan,nan,nan,nan,5.60075831413269,0.00036835670471191406,-1.1453768,0.87775844,-0.0020646648,-0.07718905816177951,-0.017738097219358373,9.604948887941415,-0.14076723,-0.020097906,-0.04339079,-0.7371353,0.68524164,-3.0,0.0,-1.168171,0.9152286,0.0,-0.10986068,-0.029477187,9.873789,0.17198265,-0.14555532,0.0,-0.04621376,0.7300956454620726,-0.12829799950122833,-0.017405837774276733,-0.029229657724499702
15.701773881912231,-0.7926662,0.6401672,-3.0259857,-0.00016498249485381172,nan,nan,nan,nan,5.701008319854736,0.000362396240234375,-1.1121755,0.78431994,-0.0020909966,-0.09044294482631368,-0.019903134307223125,9.617945927795944,-0.12919076,-0.015143143,-0.043973513,-0.85270524,0.7713206,-3.0,0.0,-1.1366999,0.7997827,0.0,-0.12352894,-0.034040812,9.891057,0.17079915,-0.12678817,0.0,-0.044807643,0.7305962103729879,-0.12395734339952469,-0.0129014253616333,-0.016802962869405746
15.802105903625488,-0.90038615,0.7011755,-3.0277257,-0.0048195258376188335,nan,nan,nan,nan,5.8015711307525635,0.0004677772521972656,-1.0739958,0.6702749,-0.0022399088,-0.10380529559635027,-0.021654279347880667,9.635700831082639,-0.118768916,-0.012905431,-0.038390458,-0.9652369,0.8453841,-3.0,0.0,-1.1006013,0.67124385,0.0,-0.13525249,-0.03847032,9.907748,0.15953451,-0.10608697,0.0,-0.043267287,0.7312794722337291,-0.1028878316283226,-0.019025951623916626,-0.0016297781839966774
15.901335000991821,-0.99903506,0.74879,-3.0299249,-0.008771557474959606,nan,nan,nan,nan,5.900613784790039,0.0003032684326171875,-1.0356823,0.5497746,-0.0027251316,-0.11487787875795138,-0.023534560346835542,9.652649376210748,-0.09510243,-0.016284147,-0.03229139,-1.0723051,0.90515536,-3.0,0.0,-1.060754,0.5341725,0.0,-0.14468662,-0.042675983,9.922621,0.13937755,-0.08419935,0.0,-0.041642107,0.7319311160024127,-0.08506443351507187,-0.02358032763004303,0.01097911037504673
16.00193428993225,-1.0951492,0.78459036,-3.0325546,-0.011911540049659643,nan,nan,nan,nan,6.001417398452759,0.00038743019104003906,-0.992904,0.4154808,-0.0035253954,-0.12330135340237608,-0.02612584082737235,9.666776794758617,-0.06456553,-0.020790858,-0.020107139,-1.177011,0.95160544,-3.0,0.0,-1.0159825,0.38619286,0.0,-0.15200044,-0.0467862,9.9353,0.11099889,-0.06074102,0.0,-0.039891727,0.7324738550293943,-0.06692776083946228,-0.02374640852212906,0.020827732980251312
16.114765644073486,-1.1856208,0.80571604,-3.0353386,-0.013925632645746075,nan,nan,nan,nan,6.114081382751465,0.0002551078796386719,-0.94798666,0.27465308,-0.0049222033,-0.12977859633160788,-0.028580148143990902,9.675618006628929,-0.055257916,-0.01809194,-0.009101061,-1.2884324,0.9854491,-3.0,0.0,-0.9611307,0.213592,0.0,-0.15731901,-0.051165428,9.945676,0.07218023,-0.033538423,0.0,-0.03782951,0.7328133098728588,-0.07281835377216339,-0.022511042654514313,0.024280890822410583
16.201358318328857,-1.2645545,0.8123754,-3.0378225,-0.014712714717542492,nan,nan,nan,nan,6.2006542682647705,0.00032639503479003906,-0.90542036,0.14043003,-0.006057521,-0.13517752043696077,-0.03049726084148019,9.679718083185133,-0.038842402,-0.021419944,0.001570269,-1.3696933,0.998078,-3.0,0.0,-0.9156954,0.07787408,0.0,-0.1593014,-0.054369066,9.950507,0.039123178,-0.012220126,0.0,-0.0361698,0.7329706780564068,-0.026403795927762985,-0.030809510499238968,0.02813393622636795
16.301994800567627,-1.3385789,0.8062281,-3.0403242,-0.014497633428037983,nan,nan,nan,nan,6.3014655113220215,0.0004394054412841797,-0.86064214,0.003996498,-0.006994751,-0.1376051329953303,-0.032940188192406517,9.680517013409977,-0.0063476614,-0.02557546,0.009417412,-1.4591975,0.99790937,-3.0,0.0,-0.8593832,-0.0812148,0.0,-0.15927495,-0.05791442,9.952448,-0.0006688389,0.012744464,0.0,-0.034150343,0.7330013385301021,-0.01837395876646042,-0.033509042114019394,0.025517895817756653
16.40195870399475,-1.4127429,0.7847782,-3.0429084,-0.013250083683262248,nan,nan,nan,nan,6.401201248168945,0.0003056526184082031,-0.80909127,-0.14338155,-0.0078771375,-0.1377657458651266,-0.03590691374316801,9.67726615762977,0.0064564385,-0.030275084,0.017200468,-1.5419886,0.98200315,-3.0,0.0,-0.8002793,-0.23733406,0.0,-0.15677789,-0.06121665,9.950448,-0.0390791,0.03727281,0.0,-0.032051396,0.7328765728276403,0.013373831287026405,-0.03414448723196983,0.020756803452968597
16.501561403274536,-1.4759312,0.7522428,-3.045295,-0.011462004164373901,nan,nan,nan,nan,6.500779867172241,0.00026726722717285156,-0.758761,-0.27679196,-0.00869563,-0.13641469356617272,-0.03867945994942512,9.669671244124752,0.024283396,-0.030750928,0.020497603,-1.6186103,0.950753,-3.0,0.0,-0.738134,-0.3894943,0.0,-0.15186636,-0.064299315,9.944775,-0.074132584,0.061262794,0.0,-0.029842842,0.7325850033562941,0.0279633030295372,-0.03478117659687996,0.013288628309965134
16.6017427444458,-1.5388443,0.7050097,-3.0477781,-0.009101229694566178,nan,nan,nan,nan,6.601252794265747,0.0003800392150878906,-0.7012963,-0.41497234,-0.009435778,-0.13195067629583038,-0.04159175223933387,9.658003356407267,0.061076853,-0.028922345,0.019680819,-1.6894988,0.90415573,-3.0,0.0,-0.67250454,-0.5368392,0.0,-0.14452907,-0.06718043,9.935771,-0.10399931,0.08462357,0.0,-0.027485702,0.7321368488369459,0.05401802062988281,-0.034218136221170425,0.004449576139450073
16.701804399490356,-1.5912324,0.65077835,-3.0500958,-0.006675328453870678,nan,nan,nan,nan,6.7012481689453125,0.0003838539123535156,-0.64522886,-0.53438294,-0.010098941,-0.1260217128636363,-0.04433870994226563,9.642369770060164,0.07328463,-0.02952024,0.01754105,-1.7533684,0.8434865,-3.0,0.0,-0.6045258,-0.6750031,0.0,-0.13495256,-0.069805704,9.924184,-0.12641732,0.10668981,0.0,-0.024997413,0.7315359503343775,0.058354634791612625,-0.034429654479026794,-0.005380131304264069
16.80221652984619,-1.6413716,0.5814707,-3.0526047,-0.004078931216512427,nan,nan,nan,nan,6.801537275314331,0.0003762245178222656,-0.580679,-0.6534478,-0.0103583615,-0.11824085741363854,-0.04734943510959244,9.626501703361848,0.0781981,-0.027059823,0.012270242,-1.8104762,0.76927984,-3.0,0.0,-0.533951,-0.8028805,0.0,-0.12320541,-0.07218116,9.910737,-0.14020415,0.12728949,0.0,-0.02234783,0.7309255409016995,0.08194494992494583,-0.027545787394046783,-0.015185967087745667
16.90129828453064,-1.6779724,0.5157347,-3.0545385,-0.0019574577844529498,nan,nan,nan,nan,6.900495529174805,0.0002684593200683594,-0.5233548,-0.74459994,-0.0100708185,-0.11087073522347571,-0.049659758935189036,9.609662113438228,0.086206585,-0.02598555,0.0060242545,-1.859782,0.68409324,-3.0,0.0,-0.4622353,-0.9165843,0.0,-0.10967805,-0.07425678,9.896574,-0.14445648,0.1457768,0.0,-0.019575873,0.7302772086273415,0.07420671731233597,-0.029023999348282814,-0.024531681090593338
17.00136685371399,-1.714197,0.43096426,-3.056809,0.0002360254653557478,nan,nan,nan,nan,7.000570058822632,0.0003154277801513672,-0.4530195,-0.83988714,-0.0094270725,-0.10127269373438744,-0.052323430806302085,9.591596644471265,0.099026866,-0.01860363,-0.001974636,-1.9023345,0.5872051,-3.0,0.0,-0.3878938,-1.0171701,0.0,-0.09424365,-0.076068915,9.882306,-0.13908029,0.16228607,0.0,-0.01661339,0.7295810475148023,0.10142654180526733,-0.017552431672811508,-0.03274782747030258
17.101659297943115,-1.7412385,0.3467263,-3.058741,0.0015301670864751524,nan,nan,nan,nan,7.100889205932617,0.000270843505859375,-0.386416,-0.91524225,-0.0077860327,-0.09066276858913655,-0.05401402372462649,9.576314655194853,0.11616414,-0.0118733365,-0.011459065,-1.937444,0.48077407,-3.0,0.0,-0.3118328,-1.1018753,0.0,-0.07723727,-0.077580154,9.8690195,-0.12431531,0.17631522,0.0,-0.01349089,0.7289916370373872,0.10876122117042542,-0.017033744603395462,-0.03793890029191971
17.202255964279175,-1.7629272,0.25010797,-3.060268,0.0021781631052689224,nan,nan,nan,nan,7.201470613479614,0.0002720355987548828,-0.31303534,-0.98223406,-0.0054711658,-0.07751413563098966,-0.05553748316303109,9.564500798906064,0.13509858,-0.0074885716,-0.01848333,-1.9649199,0.3664056,-3.0,0.0,-0.2343296,-1.1692445,0.0,-0.058912843,-0.07877381,9.857618,-0.10109667,0.18756332,0.0,-0.010223328,0.7285356664720093,0.12730053067207336,-0.009947805665433407,-0.040042903274297714
17.301456689834595,-1.7747824,0.16514765,-3.0612528,0.002228534593655719,nan,nan,nan,nan,7.301172256469727,0.00033283233642578125,-0.24968939,-1.0258383,-0.0033564288,-0.06486047513813056,-0.056389955331967556,9.555578328172544,0.14724861,-0.0015329433,-0.026137013,-1.9844135,0.24726255,-3.0,0.0,-0.15657991,-1.2176167,0.0,-0.039781384,-0.079626925,9.848975,-0.07131154,0.19569236,0.0,-0.0068740263,0.7281911058653995,0.11985527724027634,-0.019236089661717415,-0.040038999170064926
17.401289701461792,-1.7812207,0.07024609,-3.0617712,0.0019162326277720639,nan,nan,nan,nan,7.400512933731079,0.0002613067626953125,-0.18058111,-1.0589613,-0.0013248783,-0.05054594142996548,-0.057435656533652235,9.550536616357846,0.14199978,-0.013813565,-0.030911746,-1.9960939,0.12469363,-3.0,0.0,-0.07850064,-1.2468294,0.0,-0.020069506,-0.08014069,9.84357,-0.0369047,0.20062397,0.0,-0.0034595695,0.7279963380691217,0.126700758934021,-0.019564639776945114,-0.03753926604986191
17.501449823379517,-1.7805768,-0.033606064,-3.061738,0.001322378113931988,nan,nan,nan,nan,7.500686883926392,0.00030875205993652344,-0.104647905,-1.0778224,0.0010147867,-0.035252368075866146,-0.059215403841121006,9.549282428263092,0.14857237,-0.0099452315,-0.033933952,-1.9999998,-0.000863099,-3.0,0.0,0.00054230116,-1.2566366,0.0,0.00013893489,-0.080312945,9.841723,0.000257638,0.2022835,0.0,2.3930823e-05,0.7279478791893942,0.14521370828151703,-0.004120477009564638,-0.032729338854551315
17.601401329040527,-1.7736652,-0.12910675,-3.061498,0.0005310799267928441,nan,nan,nan,nan,7.600647211074829,0.0002727508544921875,-0.034574077,-1.0801531,0.002999026,-0.019822476853315348,-0.05987999616793949,9.551629025479185,0.16384505,0.0022590153,-0.036987223,-1.9960022,-0.12614034,-3.0,0.0,0.07941505,-1.2465996,0.0,0.020302292,-0.08013664,9.843613,0.037325367,0.2005851,0.0,0.0034997617,0.7280385435970104,0.15278330445289612,-0.0054597700946033,-0.027473002672195435
17.701371669769287,-1.7600307,-0.23023354,-3.0612657,-0.0004207203462055207,nan,nan,nan,nan,7.700608968734741,0.00031495094299316406,0.039276436,-1.0642267,0.0048678974,-0.0017422299773078628,-0.059543074630372894,9.559153312062254,0.17226174,0.0044854097,-0.03511645,-1.9841332,-0.24943168,-3.0,0.0,0.15797584,-1.2169178,0.0,0.04013,-0.07961462,9.849103,0.07189207,0.19557457,0.0,0.0069346745,0.7283291809475846,0.15172138810157776,-0.006247667595744133,-0.022604752331972122
17.80136489868164,-1.741886,-0.31953356,-3.061225,-0.001087223804491784,nan,nan,nan,nan,7.8006203174591064,0.0003154277801513672,0.10560069,-1.031683,0.006104703,0.015157807100785146,-0.05972983612462346,9.569535731961357,0.16856284,-0.001332833,-0.032615345,-1.9644283,-0.36884904,-3.0,0.0,0.23595129,-1.1680307,0.0,0.059304796,-0.078752376,9.85783,0.1016554,0.18735991,0.0,0.010292492,0.7287300304266701,0.14459532499313354,-0.01728733628988266,-0.018026411533355713
17.901910543441772,-1.7168924,-0.4107408,-3.061325,-0.0015740524708883034,nan,nan,nan,nan,7.901350021362305,0.00037598609924316406,0.1754707,-0.97855306,0.0069986093,0.032592503769408976,-0.06034640333971475,9.582907088612544,0.15639949,-0.009138199,-0.029281462,-1.9367436,-0.48323992,-3.0,0.0,0.31354547,-1.1001707,0.0,0.07763184,-0.07754985,9.869298,0.12474125,0.1760317,0.0,0.013562166,0.7292459579941445,0.13368834555149078,-0.019098982214927673,-0.014305501244962215
18.00204634666443,-1.689122,-0.48788002,-3.0612164,-0.0017424682204815363,nan,nan,nan,nan,8.001253843307495,0.0002930164337158203,0.23879789,-0.91354305,0.0072593256,0.047451128256798814,-0.06149419756494878,9.597538583492263,0.14472547,-0.016986549,-0.025925579,-1.9016255,-0.58905935,-3.0,0.0,0.3892637,-1.0154756,0.0,0.09453948,-0.07603857,9.88256,0.13926403,0.16200666,0.0,0.0166688,0.7298100951520257,0.12791642546653748,-0.02967853471636772,-0.011911692097783089
18.101511001586914,-1.6566012,-0.55619735,-3.0607343,-0.0014947805298389898,nan,nan,nan,nan,8.100802898406982,0.00037360191345214844,0.3019071,-0.83425003,0.0076157446,0.061423843007463105,-0.06380207248503367,9.614320767735466,0.13715619,-0.030262783,-0.021507805,-1.8591808,-0.68528324,-3.0,0.0,0.4631891,-0.9151795,0.0,0.1098673,-0.07423132,9.896762,0.14446244,0.1455473,0.0,0.019613292,0.7304566258476168,0.11907315254211426,-0.03230776637792587,-0.01069345697760582
18.201939582824707,-1.6195672,-0.6149298,-3.0599103,-0.0009358467383588989,nan,nan,nan,nan,8.201277494430542,0.00045871734619140625,0.36528155,-0.74211496,0.007507726,0.07450813898360806,-0.06673565688510186,9.628916281675323,0.12966806,-0.03849065,-0.017974254,-1.8089696,-0.7715362,-3.0,0.0,0.5359631,-0.7994543,0.0,0.12356312,-0.07211811,9.911132,0.13994463,0.12673502,0.0,0.02242441,0.7310184568242605,0.10881524533033371,-0.03132227808237076,-0.010529197752475739
18.301259517669678,-1.5739672,-0.66657174,-3.0592499,4.521224084266112e-05,nan,nan,nan,nan,8.300506591796875,0.0002682209014892578,0.4355593,-0.628502,0.007222999,0.08776862431312082,-0.07012774286863643,9.643340006982312,0.104418024,-0.01793452,-0.015548949,-1.7523066,-0.8446688,-3.0,0.0,0.60573995,-0.6726643,0.0,0.1351394,-0.069761805,9.924405,0.12609531,0.10631474,0.0,0.025042366,0.731573256903075,0.0750151127576828,-0.006756134331226349,-0.011414466425776482
18.402238368988037,-1.5258927,-0.70275295,-3.0591888,0.0013950644660386258,nan,nan,nan,nan,8.401725053787231,0.00043320655822753906,0.5008055,-0.51347613,0.0071112937,0.09670545415568906,-0.07098679810368291,9.657167474543082,0.07462498,-0.004138611,-0.012692225,-1.6874931,-0.90574807,-3.0,0.0,0.6744897,-0.5325835,0.0,0.14478005,-0.06709847,9.93608,0.10321183,0.08394659,0.0,0.027557563,0.7321047328740155,0.06646799296140671,-0.011621560901403427,-0.016346782445907593
18.50141978263855,-1.467391,-0.7287787,-3.0593953,0.0031213604113902935,nan,nan,nan,nan,8.500818490982056,0.0003299713134765625,0.5699278,-0.38191962,0.006385568,0.10368335125845751,-0.071098403418975,9.666209356402383,0.050731022,-0.00083115726,-0.013232146,-1.6174291,-0.9513739,-3.0,0.0,0.7391555,-0.3870927,0.0,0.15196401,-0.06425158,9.944893,0.0736072,0.06088323,0.0,0.029879274,0.7324520631573127,0.0430128313601017,-0.00013498030602931976,-0.02180958352982998
18.601176023483276,-1.4079691,-0.7405352,-3.0599365,0.004692988416910113,nan,nan,nan,nan,8.600434303283691,0.0002608299255371094,0.6315641,-0.2560949,0.005413253,0.10819533843440148,-0.07090621429113253,9.672136491750702,0.038445063,-0.008232169,-0.014439209,-1.5406784,-0.98238945,-3.0,0.0,0.80127496,-0.2347962,0.0,0.15683857,-0.06116418,9.950511,0.03846942,0.036873538,0.0,0.032086715,0.7326796570009462,0.0403066948056221,-0.005115479230880737,-0.026868902146816254
18.701096534729004,-1.337974,-0.74065244,-3.0606668,0.005916154635210273,nan,nan,nan,nan,8.70035982131958,0.0003437995910644531,0.69646984,-0.117598765,0.0040461784,0.11236875746063768,-0.07143492297257548,9.673900788495654,0.027701037,-0.0018626171,-0.016696325,-1.457628,-0.998055,-3.0,0.0,0.8604342,-0.078338355,0.0,0.15929781,-0.057852056,9.952449,-5.0381546e-05,0.012292993,0.0,0.03418778,0.7327473900997599,0.01562783122062683,0.012580163776874542,-0.02825992926955223
18.80105423927307,-1.2682999,-0.7281984,-3.061711,0.006869205843210095,nan,nan,nan,nan,8.80027174949646,0.0002713203430175781,0.7540387,0.011922161,0.0026773824,0.11473182218395414,-0.07082178600190447,9.67078646162,0.0042059273,0.013466973,-0.019919433,-1.3688449,-0.9980052,-3.0,0.0,0.9161961,0.07933394,0.0,0.15928999,-0.054335553,9.950471,-0.03948559,-0.012449255,0.0,0.036187913,0.7326278238354064,0.007746510207653046,0.007810104638338089,-0.0308576300740242
18.903048992156982,-1.1872958,-0.7013939,-3.0633702,0.007654545605196503,nan,nan,nan,nan,8.903074264526367,0.0006277561187744141,0.8135434,0.15144238,0.0015857089,0.1145536377726397,-0.06908128912791156,9.663363736806776,-0.017343244,0.017857911,-0.02335856,-1.2718691,-0.98155606,-3.0,0.0,0.9698009,0.24023709,0.0,0.15670769,-0.05051368,9.944384,-0.078462765,-0.03772956,0.0,0.038150605,0.7323427704875628,-0.009124133735895157,0.009516898542642593,-0.03251832723617554
19.002283573150635,-1.1083976,-0.6652231,-3.0649686,0.008016673609831083,nan,nan,nan,nan,9.001593828201294,0.0003180503845214844,0.86489534,0.2767688,0.0009534006,0.1128730005161919,-0.06774952529812461,9.652058017416266,-0.01776613,-0.001683838,-0.025293611,-1.1739498,-0.95043576,-3.0,0.0,1.0173799,0.39071476,0.0,0.15181646,-0.046666004,9.934964,-0.11194495,-0.061455697,0.0,0.03994533,0.731908388863298,-0.016902990639209747,0.006173405796289444,-0.03236478567123413
19.102250814437866,-1.0186774,-0.6140282,-3.0666497,0.008060998721002806,nan,nan,nan,nan,9.101444721221924,0.00026226043701171875,0.91773677,0.40781116,-5.852196e-05,0.11001310961719699,-0.06650606523669067,9.634588913632898,-0.037997182,0.006206234,-0.028483622,-1.0701201,-0.9040525,-3.0,0.0,1.0616246,0.53711367,0.0,0.1445128,-0.042590212,9.922333,-0.13988006,-0.08466725,0.0,0.041676883,0.7312367008061705,-0.04629632085561752,0.01989196613430977,-0.029293403029441833
19.201509952545166,-0.9392357,-0.56150633,-3.0676117,0.007905697962376008,nan,nan,nan,nan,9.200744390487671,0.0002753734588623047,0.96030885,0.51359874,3.9744948e-05,0.10587883985179888,-0.06494484164567838,9.616126305325297,-0.057571568,0.012629306,-0.028903417,-0.9626866,-0.84382576,-3.0,0.0,1.1014827,0.6743331,0.0,0.13500617,-0.03837006,9.907378,-0.1599025,-0.106582366,0.0,0.04330407,0.7305261502343313,-0.037683747708797455,0.0028381943702697754,-0.026892680674791336
19.302064657211304,-0.848803,-0.49534047,-3.0683053,0.007610344791148652,nan,nan,nan,nan,9.301513910293579,0.0003190040588378906,1.0040774,0.6217289,0.00068319106,0.09967928710135655,-0.06300117497756963,9.597345396144657,-0.073518746,0.016305367,-0.029334193,-0.8498367,-0.7692991,-3.0,0.0,1.1375477,0.8028513,0.0,0.12320846,-0.033927727,9.890626,-0.17095415,-0.12728477,0.0,0.044844694,0.7298026493539186,-0.046851709485054016,0.0016048625111579895,-0.023014217615127563
19.40151047706604,-0.7459348,-0.41401744,-3.0688076,0.007041082244415818,nan,nan,nan,nan,9.400777816772461,0.00029468536376953125,1.0496556,0.72878516,0.0022868777,0.0920963581880409,-0.06131322720786092,9.57679337771085,-0.086182326,0.02045706,-0.028496817,-0.7353401,-0.6838342,-3.0,0.0,1.1686176,0.9168895,0.0,0.10963684,-0.029406164,9.873525,-0.17192085,-0.14582665,0.0,0.04623418,0.7290101080007664,-0.08328002691268921,0.02882556989789009,-0.015719853341579437
19.501972436904907,-0.6464166,-0.3313258,-3.069209,0.0064359584345265106,nan,nan,nan,nan,9.50123119354248,0.0002949237823486328,1.0903715,0.817448,0.0043935766,0.08345723996206106,-0.05896061731962332,9.561969364298854,-0.09194412,0.014045721,-0.025630023,-0.61656165,-0.58653224,-3.0,0.0,1.195433,1.0177829,0.0,0.0941363,-0.02469743,9.856634,-0.16268262,-0.16238713,0.0,0.047487143,0.7284379259571554,-0.1001422107219696,0.04086541011929512,-0.00884881243109703
19.6089985370636,-0.53434944,-0.23497958,-3.0696368,0.005916253398380124,nan,nan,nan,nan,9.608279943466187,0.00058746337890625,1.1313901,0.9008023,0.007065818,0.0723504759921349,-0.055019835793051586,9.543952442719016,-0.13422786,0.06138575,-0.022577424,-0.48729432,-0.4726092,-3.0,0.0,1.218767,1.1074393,0.0,0.075930655,-0.019551208,9.840229,-0.14204092,-0.17724104,0.0,0.04862331,0.7277419055702905,-0.1231195330619812,0.055187419056892395,-0.003453250974416733
19.70371699333191,-0.4278631,-0.14141728,-3.0699804,0.005761590906866693,nan,nan,nan,nan,9.703054189682007,0.0005002021789550781,1.1636671,0.9630645,0.009663999,0.05866120528452752,-0.048919312287367234,9.530594879998239,-0.15179084,0.0681093,-0.015585934,-0.3709912,-0.36455268,-3.0,0.0,1.2348282,1.1701587,0.0,0.058615603,-0.014903068,9.827969,-0.115503095,-0.18771654,0.0,0.04943274,0.727225458936863,-0.13629581034183502,0.0600862056016922,-0.0016106180846691132
19.801193237304688,-0.31893492,-0.044697184,-3.0704796,0.005748289795769648,nan,nan,nan,nan,9.800508975982666,0.0003814697265625,1.1895753,1.0096675,0.0124151865,0.043638901742265764,-0.0426524145512841,9.520953289432796,-0.16062179,0.06159704,-0.01309666,-0.25003228,-0.24807072,-3.0,0.0,1.2467784,1.217357,0.0,0.03991127,-0.010053707,9.818315,-0.08164855,-0.19564861,0.0,0.050050586,0.7268524588916994,-0.14028391242027283,0.05872224271297455,-0.0007021762430667877
19.901280641555786,-0.20813958,0.05313522,-3.0703692,0.005878270691786949,nan,nan,nan,nan,9.900532960891724,0.0002810955047607422,1.2094647,1.0392103,0.015447537,0.02803250133734254,-0.0367397178031017,9.516629464825957,-0.16460069,0.062026195,-0.009471843,-0.124912575,-0.12466871,-3.0,0.0,1.2541838,1.2468333,0.0,0.020065498,-0.0050258064,9.812099,-0.041992642,-0.20062464,0.0,0.050440494,0.7266851236206521,-0.13728435337543488,0.05489653721451759,0.00012101605534553528
20.001190185546875,-0.08642662,0.15883821,-3.0704124,0.006095104229174416,nan,nan,nan,nan,10.000404357910156,0.0002849102020263672,1.2245431,1.0522552,0.018569643,0.010896864078248938,-0.030212512874342234,9.518284500440927,-0.16223821,0.06387989,-0.005254872,0.0005086581,0.00050865806,-3.0,0.0,1.256637,1.256637,0.0,-8.187978e-05,2.0469946e-05,9.81,0.00017263752,-0.20228355,0.0,0.05057089,0.7267491792359442,-0.13730062544345856,0.061931803822517395,0.00023020803928375244
20.101049661636353,0.02657078,0.25475046,-3.0707378,0.006288834184120937,nan,nan,nan,nan,10.100342750549316,0.00026154518127441406,1.2325124,1.0472267,0.020651108,-0.004493998428589493,-0.02426693432203364,9.522973594939682,-0.15438631,0.053241998,-0.0019378174,0.12601164,0.12576129,-3.0,0.0,1.2541404,1.2466601,0.0,-0.0202413,0.005070009,9.812137,0.04235496,-0.20059535,0.0,0.05043819,0.7269306332126623,-0.13289308547973633,0.056471582502126694,0.0003570765256881714
20.213889598846436,0.14881565,0.35519642,-3.0711448,0.00644175120149118,nan,nan,nan,nan,10.21313738822937,0.00023055076599121094,1.2347001,1.0246289,0.022283265,-0.020554452913668468,-0.018338477972447365,9.532303207865333,-0.15315752,0.064648814,-0.0016823089,0.26703706,0.2646461,-3.0,0.0,1.2453855,1.2118324,0.0,-0.04257491,0.010736232,9.819464,0.0867226,-0.19471788,0.0,0.049977865,0.7272915285988253,-0.13390031456947327,0.047343190759420395,0.0017773211002349854
20.301220178604126,0.26134953,0.44311392,-3.0712497,0.0064521977708332495,nan,nan,nan,nan,10.300439357757568,0.00025844573974609375,1.2310407,0.98841316,0.023586735,-0.03513981233579773,-0.012263635127297778,9.543925929194666,-0.14779434,0.06034961,-0.0006002727,0.3753055,0.36863837,-3.0,0.0,1.2343135,1.1681358,0.0,-0.059271004,0.015075769,9.828374,0.116603576,-0.18737751,0.0,0.049406428,0.7277408808296665,-0.12916681170463562,0.053852397948503494,0.00012221559882164001
20.4010910987854,0.38226768,0.53139657,-3.0707211,0.006297052702414853,nan,nan,nan,nan,10.400285720825195,0.00023221969604492188,1.2208604,0.9327692,0.024752773,-0.050468110049214636,-0.006096004741704908,9.559619179642175,-0.14051938,0.05741041,0.00069098384,0.49772763,0.48206836,-3.0,0.0,1.2171013,1.100982,0.0,-0.07744438,0.01996738,9.8414545,0.14407708,-0.17616662,0.0,0.048540685,0.7283471720513363,-0.12041638791561127,0.05520482733845711,0.00031557120382785797
20.513158559799194,0.49274778,0.6059642,-3.0695841,0.005996088832506043,nan,nan,nan,nan,10.512674331665039,0.00030875205993652344,1.2065903,0.8675472,0.025882877,-0.06390466175421107,-0.000737906409032929,9.57944094864127,-0.13177754,0.055396385,0.00045125256,0.63316166,0.60059536,-3.0,0.0,1.1920027,1.0047481,0.0,-0.096379586,0.025356658,9.85891,0.16456464,-0.16023874,0.0,0.047323834,0.729112253175728,-0.12931358814239502,0.03824281319975853,0.003866361454129219
20.601800203323364,0.6107652,0.67808974,-3.0680764,0.005556100721093096,nan,nan,nan,nan,10.601240396499634,0.0003256797790527344,1.1861311,0.78336346,0.026053665,-0.07756768891295315,0.004630157086356501,9.59671201852557,-0.12351988,0.050904147,-1.2374847e-05,0.7376984,0.6856827,-3.0,0.0,1.1680306,0.9147068,0.0,-0.109930836,0.02949946,9.873873,0.17200153,-0.1454701,0.0,0.04620734,0.7297782372820143,-0.10545455664396286,0.054254814982414246,0.003158293664455414
20.70301365852356,0.71784794,0.7352469,-3.0664163,0.005021499907078855,nan,nan,nan,nan,10.702253103256226,0.0002894401550292969,1.1627308,0.69367594,0.02590093,-0.08903298649379879,0.009848515019459159,9.617104980921718,-0.11213941,0.056726966,0.0005666171,0.8541204,0.77231544,-3.0,0.0,1.1362804,0.7982652,0.0,-0.12368666,0.034096587,9.89127,0.17072032,-0.12654266,0.0,0.04478931,0.7305638325821816,-0.1044594794511795,0.049956243485212326,0.005290111526846886
20.802027940750122,0.83081377,0.7861367,-3.0642562,0.004358102833302055,nan,nan,nan,nan,10.801244258880615,0.0002841949462890625,1.1318134,0.5852247,0.025364378,-0.10010051485448833,0.015644836053204214,9.636295031285263,-0.0969828,0.05353328,0.0021758787,0.96487826,0.8451654,-3.0,0.0,1.1007254,0.6716787,0.0,-0.13521792,0.038456224,9.907697,0.15958656,-0.10615671,0.0,0.04327247,0.7313023279465618,-0.0877234935760498,0.050803784281015396,0.006527876481413841
20.901607751846313,0.9233834,0.8195362,-3.0622132,0.0038382259200690147,nan,nan,nan,nan,10.90088438987732,0.0003464221954345703,1.10099,0.4858315,0.024941262,-0.10849096037457986,0.020337399419365187,9.654595117843133,-0.0912803,0.047991328,0.004320785,1.0725921,0.9052999,-3.0,0.0,1.0606393,0.5337855,0.0,-0.14470942,0.04268726,9.922658,0.13931125,-0.0841378,0.0,0.041637532,0.7320058899563177,-0.09874533116817474,0.04068533331155777,0.010102074593305588
21.0019314289093,1.0205476,0.8450949,-3.0596833,0.0033421260191082297,nan,nan,nan,nan,11.001392364501953,0.0002970695495605469,1.0631183,0.36996922,0.024433048,-0.11701073915684082,0.024890568832028004,9.660928610241394,-0.076403454,0.044868197,0.0040287464,1.1769857,0.9515958,-3.0,0.0,1.0159941,0.38623026,0.0,-0.1519989,0.046785206,9.935297,0.11100674,-0.060746934,0.0,0.039892167,0.7322492309837361,-0.09094057977199554,0.037413179874420166,0.012717992067337036
21.101112365722656,1.1208031,0.85988945,-3.0566251,0.0029738113419423215,nan,nan,nan,nan,11.10030722618103,0.00021767616271972656,1.0174065,0.23687094,0.022808699,-0.12654392010254328,0.02915750592909605,9.673143970346432,-0.07749893,0.03938927,0.0062722275,1.2751462,0.9823597,-3.0,0.0,0.9681005,0.2349924,0.0,-0.1568339,0.050642606,9.944647,0.077233,-0.036904406,0.0,0.038087502,0.7327183358582491,-0.047840870916843414,0.04027639329433441,0.013452325016260147
21.217982530593872,1.2083399,0.8607637,-3.0536165,0.002731675969178976,nan,nan,nan,nan,11.217486381530762,0.0010063648223876953,0.9715699,0.10755075,0.022206208,-0.1319783244032438,0.033230092906072706,9.684877211129646,-0.036234066,0.03919813,0.009867602,1.38503,0.9991655,-3.0,0.0,0.90654236,0.051328488,0.0,-0.15947206,0.054975126,9.95111,0.03251686,-0.008054107,0.0,0.03583929,0.733168647157792,-0.06933651864528656,0.034783318638801575,0.018751110881567
21.30148720741272,1.2980331,0.84736544,-3.0506067,0.002636389343014342,nan,nan,nan,nan,11.300689697265625,0.00027370452880859375,0.9181252,-0.035057224,0.020705309,-0.13438671437801153,0.037487563630407505,9.687889899140577,-0.017590586,0.03504958,0.010096705,1.4585305,0.9979719,-3.0,0.0,0.8598301,-0.07999216,0.0,-0.15928476,0.057887916,9.952449,-0.00036316004,0.012552566,0.0,0.03416626,0.7332842274142319,0.0010998500511050224,0.03629256784915924,0.014620421454310417
21.40144443511963,1.3760619,0.82183194,-3.0482798,0.0027735096548337224,nan,nan,nan,nan,11.40071439743042,0.0003104209899902344,0.8659933,-0.16674516,0.019126955,-0.13476243007388408,0.04119717394983691,9.688961590397524,0.0212896,0.036885,0.011230551,1.541599,0.9821185,-3.0,0.0,0.8005756,-0.23657928,0.0,-0.156796,0.061201047,9.950467,-0.03889784,0.037154064,0.0,0.03206191,0.7333253379753518,0.01613970659673214,0.036510903388261795,0.013902850449085236
21.505897521972656,1.4547179,0.78066283,-3.0457215,0.002990511899480963,nan,nan,nan,nan,11.505337238311768,0.0003883838653564453,0.80619615,-0.30592486,0.017473783,-0.1312864515444726,0.04524429873512781,9.686335434838552,0.046389475,0.03455924,0.013953903,1.6219668,0.94896275,-3.0,0.0,0.73521966,-0.39632848,0.0,-0.15158474,0.06443507,9.944433,-0.075621806,0.062343102,0.0,0.029738866,0.7332245934195685,0.028634533286094666,0.03625950962305069,0.012365806847810745
21.601348876953125,1.5217146,0.73136526,-3.043428,0.0032102536589498354,nan,nan,nan,nan,11.600593090057373,0.00026679039001464844,0.7479017,-0.4279764,0.016054332,-0.12644076695559756,0.04888032944158649,9.67989871874394,0.063020505,0.032744423,0.013422344,1.6890554,0.9045092,-3.0,0.0,0.67294407,-0.5358981,0.0,-0.14458477,0.06716231,9.93584,-0.10382561,0.08447386,0.0,0.027501617,0.7329776104017677,0.04282617196440697,0.03481017425656319,0.010648291558027267
21.70115876197815,1.587902,0.66668546,-3.0408845,0.0033523737707548684,nan,nan,nan,nan,11.700456380844116,0.0003571510314941406,0.68159825,-0.55105275,0.014109812,-0.11932327108136848,0.05263334010870513,9.669732891842145,0.07757225,0.031008873,0.014262158,1.75289,0.84402,-3.0,0.0,0.6050733,-0.6739492,0.0,-0.13503687,0.06978592,9.924284,-0.12627248,0.10652079,0.0,0.025017682,0.7325873704790382,0.06066402047872543,0.031448256224393845,0.008920276537537575
21.801175355911255,1.6432873,0.597073,-3.0389402,0.003417312794693733,nan,nan,nan,nan,11.800363302230835,0.00030493736267089844,0.6182055,-0.65557206,0.012157018,-0.11237345295337359,0.05605339727138392,9.661352284326572,0.07302614,0.0308046,0.013440341,1.8098487,0.77022177,-3.0,0.0,0.53479016,-0.8014532,0.0,-0.12335475,0.072154894,9.910901,-0.14009686,0.12705848,0.0,0.022379775,0.7322655062471675,0.06609127670526505,0.0314670093357563,0.008257197216153145
21.901503086090088,1.6931329,0.5189395,-3.0373015,0.003448493656606162,nan,nan,nan,nan,11.900733947753906,0.00035762786865234375,0.55247366,-0.7521821,0.0095584635,-0.10529353082760373,0.05943793760957372,9.646105032488128,0.08354792,0.032176204,0.012193276,1.8598924,0.6838743,-3.0,0.0,0.46205997,-0.9168422,0.0,-0.109643236,0.07426146,9.89654,-0.14445521,0.14581893,0.0,0.019568998,0.7316795645727778,0.08132592588663101,0.0322909913957119,0.007066691294312477
22.001304149627686,1.7367164,0.43351093,-3.0355623,0.003386373804602716,nan,nan,nan,nan,12.000577688217163,0.00029730796813964844,0.48441285,-0.8389378,0.008653599,-0.09618224026328781,0.06266509756223271,9.63183033741953,0.107983835,0.030140216,0.0124181975,1.9023376,0.5871968,-3.0,0.0,0.3878877,-1.0171776,0.0,-0.094242334,0.07606905,9.882305,-0.13907947,0.16228732,0.0,0.016613144,0.73113057773572,0.09737972915172577,0.0319555439054966,0.006230523809790611
22.101092100143433,1.7766751,0.33388942,-3.0336645,0.0032201944260218177,nan,nan,nan,nan,12.100292205810547,0.00031065940856933594,0.4082464,-0.91951656,0.007871706,-0.08375615124336064,0.06572937758462194,9.617891158982536,0.13338566,0.023817556,0.009383473,1.9372578,0.48143148,-3.0,0.0,0.31228918,-1.101422,0.0,-0.07734247,0.0775721,9.869093,-0.12442922,0.1762398,0.0,0.013509888,0.730594101729744,0.12340466678142548,0.024777468293905258,0.005003949627280235
22.2011456489563,1.8073182,0.23690568,-3.032497,0.002931043127457497,nan,nan,nan,nan,12.2003653049469,0.00024819374084472656,0.33687007,-0.9795137,0.0072973007,-0.07007251525279186,0.0681342181481508,9.606402681990886,0.1527914,0.020085918,0.007360279,1.9646605,0.36769754,-3.0,0.0,0.23518686,-1.168604,0.0,-0.05912009,0.0787625,9.85773,-0.101392396,0.18745595,0.0,0.010259895,0.7301516533569367,0.12659311294555664,0.027612170204520226,0.005595466122031212
22.301398515701294,1.8334193,0.12758878,-3.0320172,0.0025729781206459412,nan,nan,nan,nan,12.300629377365112,0.0003368854522705078,0.25795686,-1.0277021,0.00644877,-0.05400956456460566,0.07063195064795513,9.596671017482304,0.15622222,0.022298165,0.007888367,1.9843284,0.2479235,-3.0,0.0,0.15700519,-1.2174044,0.0,-0.03988761,0.07962318,9.849014,-0.07148856,0.19565658,0.0,0.0068925046,0.7297766569640964,0.13726821541786194,0.02190910093486309,0.0055307913571596146
22.401490449905396,1.8492904,0.032733344,-3.032229,0.002257835447769887,nan,nan,nan,nan,12.40074110031128,0.0003025531768798828,0.19014451,-1.0544512,0.0059973947,-0.03986672965965114,0.07242226157930554,9.590561231001638,0.16482154,0.018516995,0.0060233227,1.9961118,0.12440817,-3.0,0.0,0.07832022,-1.2468745,0.0,-0.020023573,0.08014148,9.843561,-0.036821663,0.2006316,0.0,0.0034516396,0.7295411275268031,0.1315208226442337,0.03398485854268074,0.006483536213636398
22.50153350830078,1.8603483,-0.07157058,-3.0328176,0.0019423251333423805,nan,nan,nan,nan,12.500764846801758,0.0003056526184082031,0.11571452,-1.0685915,0.0054651853,-0.024443355177357413,0.07492844155584599,9.588102703103223,0.15816572,0.027547827,0.0063658264,1.9999998,-0.0009619791,-3.0,0.0,-0.0006044294,-1.2566365,0.0,0.00015485183,0.080312945,9.841723,0.00028715402,0.20228347,0.0,-2.6672433e-05,0.729446331248078,0.13791237771511078,0.03310111165046692,0.006130765192210674
22.60200524330139,1.8652145,-0.18369551,-3.0335352,0.0017441905749869258,nan,nan,nan,nan,12.601444721221924,0.0003688335418701172,0.033835866,-1.0664778,0.004873175,-0.007849158424853672,0.0779194421633711,9.588753912716065,0.15987226,0.02541533,0.006073544,1.9959387,-0.12713428,-3.0,0.0,-0.08004337,-1.2464402,0.0,0.020462222,0.080133855,9.843642,0.03761423,0.20055816,0.0,-0.0035273768,0.7294714418668313,0.1505613625049591,0.01835031434893608,0.0041060554794967175
